% program   : RTKPOST ver.demo5 b31
% inp file  : D:\Data\Fla\Tampa-StPete-area\WGI-larrysanders\2019\0311\GPS\UAS\GP184856.obs
% inp file  : D:\Data\Fla\Tampa-StPete-area\WGI-larrysanders\2019\0311\GPS\ZEFR\zefr0700.19o
% inp file  : D:\Data\Fla\Tampa-StPete-area\WGI-larrysanders\2019\0311\GPS\ZEFR\zefr0700.19n
% inp file  : D:\Data\Fla\Tampa-StPete-area\WGI-larrysanders\2019\0311\GPS\ZEFR\igu20441_18.sp3
% inp file  : D:\Data\Fla\Tampa-StPete-area\WGI-larrysanders\2019\0311\GPS\ZEFR\zefr0700.19g
% obs start : 2019/03/11 18:48:57.5 UTC (week2044 154155.5s)
% obs end   : 2019/03/11 19:03:41.0 UTC (week2044 155039.0s)
% pos mode  : kinematic
% freqs     : L1+L2
% solution  : combined
% elev mask : 20.0 deg
% dynamics  : on
% tidecorr  : off
% ionos opt : broadcast
% tropo opt : saastamoinen
% ephemeris : precise
% navi sys  : gps glonass qzss sbas
% amb res   : continuous
% amb glo   : fix and hold
% val thres : 3.0
% antenna1  :                       ( 0.0000  0.0000  0.0000)
% antenna2  :                       ( 0.0000  0.0000  0.0000)
% ref pos   : 28.227589497  -82.164630999     0.0252
%
% (lat/lon/height=WGS84/ellipsoidal,Q=1:fix,2:float,3:sbas,4:dgps,5:single,6:ppp,ns=# of satellites)
%  UTC                   latitude(deg) longitude(deg)  height(m)   Q  ns   sdn(m)   sde(m)   sdu(m)  sdne(m)  sdeu(m)  sdun(m) age(s)  ratio
2019/03/11 18:48:57.500   27.894633153  -82.373350162   -19.3900   2   4   0.1122   0.9424   0.9903  -0.3221   0.9648  -0.3309  -0.50    0.0
2019/03/11 18:48:58.000   27.894634634  -82.373356097   -20.0849   2   4   0.1659   1.2351   1.2797  -0.4247   1.2581  -0.4264   0.00    0.0
2019/03/11 18:49:13.000   27.894637122  -82.373362664   -20.8142   1   5   0.0059   0.0073   0.0213   0.0031   0.0092   0.0082   0.00   15.9
2019/03/11 18:49:14.000   27.894637159  -82.373362629   -20.8000   1   5   0.0059   0.0073   0.0214   0.0031   0.0092   0.0082   0.00   15.7
2019/03/11 18:49:15.000   27.894637135  -82.373362647   -20.8100   1   5   0.0059   0.0073   0.0214   0.0031   0.0092   0.0082   0.00   15.5
2019/03/11 18:49:16.000   27.894637147  -82.373362647   -20.8082   1   5   0.0059   0.0073   0.0214   0.0031   0.0092   0.0082   0.00   15.3
2019/03/11 18:49:17.000   27.894637133  -82.373362647   -20.8128   1   5   0.0059   0.0073   0.0214   0.0031   0.0092   0.0082   0.00   15.1
2019/03/11 18:49:18.000   27.894637131  -82.373362620   -20.8057   1   5   0.0059   0.0073   0.0214   0.0031   0.0092   0.0082   0.00   14.9
2019/03/11 18:49:19.000   27.894637111  -82.373362619   -20.8145   1   5   0.0059   0.0073   0.0214   0.0031   0.0092   0.0082   0.00   14.7
2019/03/11 18:49:20.000   27.894637119  -82.373362635   -20.8103   1   5   0.0059   0.0073   0.0214   0.0031   0.0092   0.0082   0.00   14.4
2019/03/11 18:49:21.000   27.894637156  -82.373362620   -20.8018   1   5   0.0059   0.0073   0.0214   0.0031   0.0092   0.0082   0.00   14.2
2019/03/11 18:49:22.000   27.894637126  -82.373362609   -20.8023   1   5   0.0059   0.0073   0.0214   0.0031   0.0092   0.0082   0.00   14.0
2019/03/11 18:49:23.000   27.894637118  -82.373362621   -20.8059   1   5   0.0059   0.0073   0.0214   0.0031   0.0092   0.0082   0.00   13.8
2019/03/11 18:49:24.000   27.894637118  -82.373362610   -20.8076   1   5   0.0059   0.0073   0.0214   0.0031   0.0092   0.0082   0.00   13.6
2019/03/11 18:49:25.000   27.894637121  -82.373362635   -20.8137   1   5   0.0059   0.0073   0.0214   0.0031   0.0092   0.0082   0.00   13.4
2019/03/11 18:49:26.000   27.894637113  -82.373362646   -20.8049   1   5   0.0059   0.0073   0.0214   0.0031   0.0092   0.0082   0.00   13.2
2019/03/11 18:49:27.000   27.894637122  -82.373362618   -20.8063   1   5   0.0059   0.0073   0.0214   0.0031   0.0092   0.0083   0.00   13.0
2019/03/11 18:49:28.000   27.894637116  -82.373362617   -20.8049   1   5   0.0059   0.0073   0.0214   0.0031   0.0092   0.0083   0.00   12.7
2019/03/11 18:49:29.000   27.894637121  -82.373362602   -20.8035   1   5   0.0059   0.0073   0.0215   0.0031   0.0092   0.0083   0.00   12.5
2019/03/11 18:49:30.000   27.894637126  -82.373362611   -20.8033   1   5   0.0059   0.0073   0.0215   0.0031   0.0092   0.0083   0.00   12.3
2019/03/11 18:49:31.000   27.894637085  -82.373362750   -20.8427   1   7   0.0058   0.0049   0.0145   0.0018   0.0009   0.0069   0.00    7.3
2019/03/11 18:49:32.000   27.894637086  -82.373362720   -20.8448   1   7   0.0058   0.0049   0.0145   0.0018   0.0009   0.0069   0.00    7.2
2019/03/11 18:49:33.000   27.894637105  -82.373362735   -20.8467   1   7   0.0058   0.0049   0.0145   0.0018   0.0009   0.0069   0.00    7.0
2019/03/11 18:49:34.000   27.894637076  -82.373362760   -20.8492   1   7   0.0058   0.0049   0.0145   0.0018   0.0009   0.0069   0.00    6.8
2019/03/11 18:49:35.000   27.894637064  -82.373362752   -20.8503   1   7   0.0058   0.0049   0.0145   0.0018   0.0009   0.0069   0.00    6.6
2019/03/11 18:49:36.000   27.894637055  -82.373362729   -20.8526   1   7   0.0058   0.0049   0.0145   0.0018   0.0009   0.0069   0.00    6.5
2019/03/11 18:49:37.000   27.894637070  -82.373362738   -20.8502   1   7   0.0058   0.0049   0.0145   0.0018   0.0009   0.0069   0.00    6.3
2019/03/11 18:49:38.000   27.894637071  -82.373362758   -20.8495   1   7   0.0058   0.0049   0.0145   0.0018   0.0010   0.0069   0.00    6.1
2019/03/11 18:49:39.000   27.894637051  -82.373362744   -20.8545   1   7   0.0058   0.0049   0.0145   0.0018   0.0010   0.0069   0.00    6.0
2019/03/11 18:49:40.000   27.894637056  -82.373362747   -20.8528   1   7   0.0058   0.0049   0.0145   0.0018   0.0010   0.0069   0.00    5.8
2019/03/11 18:49:41.000   27.894637072  -82.373362732   -20.8493   1   7   0.0058   0.0049   0.0146   0.0018   0.0010   0.0069   0.00    5.6
2019/03/11 18:49:42.000   27.894637048  -82.373362742   -20.8538   1   7   0.0058   0.0049   0.0146   0.0018   0.0010   0.0069   0.00    5.5
2019/03/11 18:49:43.000   27.894637066  -82.373362736   -20.8496   1   7   0.0058   0.0049   0.0146   0.0018   0.0010   0.0069   0.00    5.3
2019/03/11 18:49:44.000   27.894637061  -82.373362732   -20.8514   1   7   0.0058   0.0049   0.0146   0.0018   0.0010   0.0069   0.00    5.1
2019/03/11 18:49:45.000   27.894637074  -82.373362743   -20.8537   1   7   0.0058   0.0049   0.0146   0.0018   0.0010   0.0069   0.00    4.9
2019/03/11 18:49:46.000   27.894637070  -82.373362745   -20.8512   1   7   0.0058   0.0049   0.0146   0.0018   0.0010   0.0069   0.00    4.8
2019/03/11 18:49:47.000   27.894637085  -82.373362725   -20.8462   1   7   0.0058   0.0049   0.0146   0.0018   0.0010   0.0069   0.00    4.6
2019/03/11 18:49:48.000   27.894637057  -82.373362735   -20.8545   1   7   0.0058   0.0049   0.0146   0.0018   0.0010   0.0069   0.00    4.4
2019/03/11 18:49:49.000   27.894637091  -82.373362724   -20.8449   1   7   0.0058   0.0049   0.0146   0.0018   0.0010   0.0069   0.00    4.2
2019/03/11 18:49:50.000   27.894637071  -82.373362742   -20.8477   1   7   0.0058   0.0049   0.0146   0.0018   0.0010   0.0070   0.00    4.0
2019/03/11 18:49:51.000   27.894637074  -82.373362700   -20.8521   1   7   0.0058   0.0049   0.0146   0.0018   0.0010   0.0070   0.00    3.8
2019/03/11 18:49:52.000   27.894637126  -82.373362907   -20.8531   1   7   0.0058   0.0049   0.0146   0.0017   0.0010   0.0070   0.00   39.1
2019/03/11 18:49:53.000   27.894637135  -82.373362917   -20.8560   1   7   0.0058   0.0049   0.0146   0.0017   0.0010   0.0070   0.00   39.1
2019/03/11 18:49:54.000   27.894637156  -82.373362913   -20.8565   1   7   0.0058   0.0049   0.0146   0.0017   0.0010   0.0070   0.00   39.0
2019/03/11 18:49:55.000   27.894637136  -82.373362920   -20.8621   1   7   0.0058   0.0049   0.0146   0.0017   0.0010   0.0070   0.00   38.9
2019/03/11 18:49:56.000   27.894637131  -82.373362908   -20.8579   1   7   0.0058   0.0049   0.0146   0.0017   0.0010   0.0070   0.00   38.8
2019/03/11 18:49:57.000   27.894637150  -82.373362936   -20.8577   1   7   0.0058   0.0050   0.0146   0.0017   0.0010   0.0070   0.00   38.8
2019/03/11 18:49:58.000   27.894637163  -82.373362947   -20.8556   1   7   0.0058   0.0050   0.0146   0.0017   0.0010   0.0070   0.00   38.7
2019/03/11 18:49:59.000   27.894637166  -82.373362973   -20.8583   1   7   0.0058   0.0050   0.0146   0.0016   0.0010   0.0070   0.00   38.7
2019/03/11 18:50:00.000   27.894637160  -82.373362993   -20.8618   1   7   0.0058   0.0050   0.0146   0.0016   0.0011   0.0070   0.00   38.5
2019/03/11 18:50:01.000   27.894637173  -82.373363001   -20.8599   1   7   0.0058   0.0050   0.0146   0.0016   0.0011   0.0070   0.00   38.5
2019/03/11 18:50:02.000   27.894637228  -82.373363003   -20.8492   1   7   0.0059   0.0050   0.0146   0.0015   0.0011   0.0070   0.00   38.5
2019/03/11 18:50:03.000   27.894637182  -82.373362934   -20.8362   1   7   0.0059   0.0051   0.0146   0.0015   0.0011   0.0070   0.00   38.4
2019/03/11 18:50:04.000   27.894637167  -82.373362931   -20.8450   1   7   0.0059   0.0051   0.0146   0.0014   0.0011   0.0070   0.00   38.3
2019/03/11 18:50:05.000   27.894637167  -82.373362805   -20.8330   1   7   0.0059   0.0052   0.0146   0.0012   0.0012   0.0070   0.00   38.3
2019/03/11 18:50:06.000   27.894637156  -82.373362872   -20.8299   1   7   0.0059   0.0054   0.0146   0.0008   0.0013   0.0070   0.00   38.1
2019/03/11 18:50:07.000   27.894637184  -82.373362835   -20.8238   1   7   0.0060   0.0058   0.0146  -0.0014   0.0015   0.0070   0.00   37.9
2019/03/11 18:50:08.000   27.894637003  -82.373362715   -20.8574   1   6   0.0059   0.0052   0.0146   0.0011   0.0012   0.0070   0.00   33.8
2019/03/11 18:50:09.000   27.894637053  -82.373362776   -20.8597   1   6   0.0059   0.0052   0.0146   0.0011   0.0012   0.0070   0.00   34.0
2019/03/11 18:50:10.000   27.894637057  -82.373362736   -20.8578   1   6   0.0059   0.0052   0.0146   0.0011   0.0012   0.0070   0.00   34.1
2019/03/11 18:50:11.000   27.894637066  -82.373362719   -20.8492   1   6   0.0059   0.0052   0.0146   0.0011   0.0012   0.0070   0.00   34.1
2019/03/11 18:50:12.000   27.894637061  -82.373362717   -20.8574   1   6   0.0059   0.0052   0.0146   0.0011   0.0012   0.0070   0.00   34.1
2019/03/11 18:50:13.000   27.894637046  -82.373362728   -20.8521   1   6   0.0059   0.0052   0.0146   0.0011   0.0012   0.0070   0.00   34.0
2019/03/11 18:50:14.000   27.894637047  -82.373362694   -20.8498   1   7   0.0058   0.0049   0.0146   0.0018   0.0010   0.0070   0.00   33.6
2019/03/11 18:50:15.000   27.894637069  -82.373362682   -20.8493   1   7   0.0058   0.0049   0.0146   0.0018   0.0010   0.0070   0.00   33.6
2019/03/11 18:50:16.000   27.894637029  -82.373362707   -20.8559   1   7   0.0058   0.0049   0.0146   0.0018   0.0010   0.0070   0.00   33.6
2019/03/11 18:50:17.000   27.894637076  -82.373362691   -20.8464   1   7   0.0058   0.0049   0.0146   0.0018   0.0010   0.0070   0.00   33.5
2019/03/11 18:50:18.000   27.894637054  -82.373362696   -20.8472   1   7   0.0058   0.0049   0.0146   0.0018   0.0010   0.0070   0.00   33.5
2019/03/11 18:50:19.000   27.894637038  -82.373362710   -20.8531   1   7   0.0058   0.0049   0.0147   0.0018   0.0010   0.0070   0.00   33.4
2019/03/11 18:50:20.000   27.894637036  -82.373362691   -20.8571   1   7   0.0058   0.0049   0.0147   0.0018   0.0010   0.0070   0.00   33.4
2019/03/11 18:50:21.000   27.894637016  -82.373362692   -20.8582   1   7   0.0058   0.0049   0.0147   0.0018   0.0010   0.0070   0.00   33.3
2019/03/11 18:50:22.000   27.894637037  -82.373362693   -20.8531   1   7   0.0059   0.0049   0.0147   0.0018   0.0010   0.0071   0.00   33.3
2019/03/11 18:50:23.000   27.894637025  -82.373362704   -20.8587   1   7   0.0041   0.0034   0.0104   0.0013   0.0007   0.0050   0.00    3.0
2019/03/11 18:50:24.000   27.894637025  -82.373362705   -20.8585   1   7   0.0041   0.0034   0.0104   0.0013   0.0007   0.0050   0.00    3.1
2019/03/11 18:50:25.000   27.894637031  -82.373362694   -20.8620   1   7   0.0041   0.0034   0.0104   0.0013   0.0007   0.0050   0.00    3.1
2019/03/11 18:50:26.000   27.894637043  -82.373362682   -20.8576   1   7   0.0041   0.0034   0.0104   0.0013   0.0007   0.0050   0.00    3.2
2019/03/11 18:50:27.000   27.894637037  -82.373362689   -20.8579   1   7   0.0041   0.0034   0.0104   0.0013   0.0007   0.0050   0.00    3.2
2019/03/11 18:50:28.000   27.894637023  -82.373362676   -20.8576   1   7   0.0041   0.0034   0.0104   0.0013   0.0007   0.0050   0.00    3.3
2019/03/11 18:50:29.000   27.894637018  -82.373362664   -20.8584   1   7   0.0041   0.0034   0.0104   0.0013   0.0007   0.0050   0.00    3.4
2019/03/11 18:50:30.000   27.894637051  -82.373362671   -20.8548   1   7   0.0041   0.0034   0.0104   0.0013   0.0007   0.0050   0.00    3.4
2019/03/11 18:50:31.000   27.894637068  -82.373362666   -20.8502   1   7   0.0041   0.0034   0.0104   0.0013   0.0007   0.0050   0.00    3.5
2019/03/11 18:50:32.000   27.894637035  -82.373362682   -20.8557   1   7   0.0041   0.0034   0.0104   0.0013   0.0007   0.0050   0.00    3.5
2019/03/11 18:50:33.000   27.894637069  -82.373362685   -20.8478   1   7   0.0042   0.0034   0.0104   0.0013   0.0007   0.0050   0.00    3.6
2019/03/11 18:50:34.000   27.894637052  -82.373362676   -20.8485   1   7   0.0042   0.0034   0.0104   0.0013   0.0007   0.0050   0.00    3.6
2019/03/11 18:50:35.000   27.894637034  -82.373362661   -20.8638   1   7   0.0042   0.0034   0.0104   0.0013   0.0007   0.0050   0.00    3.6
2019/03/11 18:50:36.000   27.894637031  -82.373362696   -20.8581   1   7   0.0042   0.0034   0.0104   0.0013   0.0007   0.0050   0.00    3.6
2019/03/11 18:50:37.000   27.894637032  -82.373362676   -20.8533   1   7   0.0042   0.0034   0.0104   0.0013   0.0007   0.0050   0.00    3.6
2019/03/11 18:50:38.000   27.894637037  -82.373362675   -20.8573   1   7   0.0042   0.0034   0.0104   0.0013   0.0007   0.0050   0.00    3.6
2019/03/11 18:50:39.000   27.894637007  -82.373362678   -20.8673   1   7   0.0042   0.0034   0.0104   0.0013   0.0007   0.0050   0.00    3.5
2019/03/11 18:50:40.000   27.894637022  -82.373362667   -20.8654   1   7   0.0042   0.0034   0.0104   0.0013   0.0007   0.0050   0.00    3.5
2019/03/11 18:50:41.000   27.894637033  -82.373362677   -20.8673   1   7   0.0042   0.0034   0.0104   0.0013   0.0007   0.0050   0.00    3.5
2019/03/11 18:50:42.000   27.894637016  -82.373362687   -20.8644   1   7   0.0042   0.0034   0.0104   0.0013   0.0007   0.0050   0.00    3.5
2019/03/11 18:50:43.000   27.894637042  -82.373362696   -20.8658   1   7   0.0042   0.0034   0.0104   0.0013   0.0007   0.0050   0.00    8.2
2019/03/11 18:50:44.000   27.894637007  -82.373362682   -20.8714   1   7   0.0042   0.0034   0.0104   0.0013   0.0007   0.0050   0.00    9.6
2019/03/11 18:50:45.000   27.894637026  -82.373362675   -20.8640   1   7   0.0042   0.0034   0.0104   0.0013   0.0007   0.0050   0.00   10.1
2019/03/11 18:50:46.000   27.894637023  -82.373362695   -20.8626   1   7   0.0042   0.0034   0.0104   0.0013   0.0007   0.0050   0.00   10.5
2019/03/11 18:50:47.000   27.894637028  -82.373362696   -20.8616   1   7   0.0042   0.0034   0.0104   0.0013   0.0007   0.0050   0.00   10.9
2019/03/11 18:50:48.000   27.894637001  -82.373362692   -20.8669   1   7   0.0042   0.0034   0.0104   0.0013   0.0007   0.0050   0.00   11.0
2019/03/11 18:50:49.000   27.894636991  -82.373362689   -20.8700   1   7   0.0042   0.0034   0.0104   0.0013   0.0007   0.0050   0.00   11.0
2019/03/11 18:50:50.000   27.894637017  -82.373362678   -20.8649   1   7   0.0042   0.0034   0.0104   0.0013   0.0007   0.0050   0.00   11.1
2019/03/11 18:50:51.000   27.894636972  -82.373362671   -20.8797   1   7   0.0042   0.0034   0.0104   0.0013   0.0007   0.0051   0.00   11.2
2019/03/11 18:50:52.000   27.894636986  -82.373362682   -20.8737   1   7   0.0042   0.0034   0.0104   0.0013   0.0007   0.0051   0.00   11.3
2019/03/11 18:50:53.000   27.894637015  -82.373362699   -20.8657   1   7   0.0042   0.0034   0.0104   0.0013   0.0007   0.0051   0.00   11.3
2019/03/11 18:50:54.000   27.894636985  -82.373362683   -20.8746   1   7   0.0042   0.0034   0.0104   0.0013   0.0007   0.0051   0.00   11.4
2019/03/11 18:50:55.000   27.894637019  -82.373362676   -20.8649   1   7   0.0042   0.0034   0.0104   0.0013   0.0007   0.0051   0.00   11.5
2019/03/11 18:50:56.000   27.894636960  -82.373362667   -20.8732   1   7   0.0042   0.0034   0.0104   0.0013   0.0007   0.0051   0.00   11.6
2019/03/11 18:50:57.000   27.894637003  -82.373362659   -20.8684   1   7   0.0042   0.0034   0.0104   0.0013   0.0007   0.0051   0.00   11.7
2019/03/11 18:50:58.000   27.894636987  -82.373362703   -20.8692   1   7   0.0042   0.0034   0.0104   0.0013   0.0007   0.0051   0.00   11.8
2019/03/11 18:50:59.000   27.894637004  -82.373362655   -20.8732   1   7   0.0042   0.0034   0.0104   0.0013   0.0007   0.0051   0.00   11.8
2019/03/11 18:51:00.000   27.894636993  -82.373362681   -20.8700   1   7   0.0042   0.0034   0.0104   0.0013   0.0007   0.0051   0.00   11.8
2019/03/11 18:51:01.000   27.894636988  -82.373362662   -20.8709   1   7   0.0042   0.0034   0.0104   0.0013   0.0007   0.0051   0.00   11.8
2019/03/11 18:51:02.000   27.894636968  -82.373362675   -20.8722   1   7   0.0042   0.0034   0.0104   0.0013   0.0007   0.0051   0.00   11.8
2019/03/11 18:51:03.000   27.894637001  -82.373362669   -20.8667   1   7   0.0042   0.0034   0.0104   0.0013   0.0007   0.0051   0.00   11.9
2019/03/11 18:51:04.000   27.894636964  -82.373362672   -20.8744   1   7   0.0042   0.0034   0.0104   0.0013   0.0007   0.0051   0.00   12.0
2019/03/11 18:51:05.000   27.894636998  -82.373362670   -20.8688   1   7   0.0042   0.0034   0.0105   0.0013   0.0007   0.0051   0.00   12.0
2019/03/11 18:51:06.000   27.894636996  -82.373362675   -20.8720   1   7   0.0042   0.0034   0.0105   0.0013   0.0007   0.0051   0.00   12.0
2019/03/11 18:51:07.000   27.894637025  -82.373362663   -20.8621   1   7   0.0042   0.0034   0.0105   0.0013   0.0007   0.0051   0.00   12.1
2019/03/11 18:51:08.000   27.894636990  -82.373362678   -20.8691   1   7   0.0042   0.0034   0.0105   0.0013   0.0007   0.0051   0.00   12.1
2019/03/11 18:51:09.000   27.894636976  -82.373362652   -20.8769   1   7   0.0042   0.0034   0.0105   0.0013   0.0007   0.0051   0.00   12.1
2019/03/11 18:51:10.000   27.894636969  -82.373362669   -20.8744   1   7   0.0042   0.0034   0.0105   0.0013   0.0007   0.0051   0.00   12.2
2019/03/11 18:51:11.000   27.894637007  -82.373362660   -20.8682   1   7   0.0042   0.0034   0.0105   0.0013   0.0007   0.0051   0.00   12.1
2019/03/11 18:51:12.000   27.894636986  -82.373362669   -20.8634   1   7   0.0042   0.0034   0.0105   0.0013   0.0007   0.0051   0.00   12.2
2019/03/11 18:51:13.000   27.894636980  -82.373362653   -20.8763   1   7   0.0042   0.0034   0.0105   0.0013   0.0007   0.0051   0.00   12.3
2019/03/11 18:51:14.000   27.894637004  -82.373362650   -20.8635   1   7   0.0042   0.0034   0.0105   0.0012   0.0007   0.0051   0.00   12.3
2019/03/11 18:51:15.000   27.894636979  -82.373362666   -20.8675   1   7   0.0042   0.0034   0.0105   0.0012   0.0007   0.0051   0.00   12.4
2019/03/11 18:51:16.000   27.894636999  -82.373362651   -20.8658   1   7   0.0042   0.0034   0.0105   0.0012   0.0007   0.0051   0.00   12.5
2019/03/11 18:51:17.000   27.894636980  -82.373362657   -20.8704   1   7   0.0042   0.0034   0.0105   0.0012   0.0007   0.0051   0.00   12.5
2019/03/11 18:51:18.000   27.894636949  -82.373362669   -20.8708   1   7   0.0042   0.0034   0.0105   0.0012   0.0007   0.0051   0.00   12.6
2019/03/11 18:51:19.000   27.894636932  -82.373362663   -20.8802   1   7   0.0042   0.0034   0.0105   0.0012   0.0007   0.0051   0.00   12.7
2019/03/11 18:51:20.000   27.894636937  -82.373362672   -20.8785   1   7   0.0042   0.0034   0.0105   0.0012   0.0007   0.0051   0.00   12.8
2019/03/11 18:51:21.000   27.894636951  -82.373362648   -20.8764   1   7   0.0042   0.0034   0.0105   0.0012   0.0007   0.0051   0.00   12.9
2019/03/11 18:51:22.000   27.894636968  -82.373362664   -20.8760   1   7   0.0042   0.0034   0.0105   0.0012   0.0007   0.0051   0.00   13.0
2019/03/11 18:51:23.000   27.894636929  -82.373362657   -20.8832   1   7   0.0042   0.0034   0.0105   0.0012   0.0007   0.0051   0.00   13.1
2019/03/11 18:51:24.000   27.894636956  -82.373362668   -20.8724   1   7   0.0042   0.0034   0.0105   0.0012   0.0007   0.0051   0.00   13.2
2019/03/11 18:51:25.000   27.894636944  -82.373362655   -20.8727   1   7   0.0042   0.0034   0.0105   0.0012   0.0007   0.0051   0.00   13.3
2019/03/11 18:51:26.000   27.894636959  -82.373362658   -20.8735   1   7   0.0042   0.0034   0.0105   0.0012   0.0007   0.0051   0.00   13.4
2019/03/11 18:51:27.000   27.894636949  -82.373362648   -20.8756   1   7   0.0042   0.0034   0.0105   0.0012   0.0007   0.0051   0.00   13.5
2019/03/11 18:51:28.000   27.894636920  -82.373362671   -20.8772   1   7   0.0042   0.0034   0.0105   0.0012   0.0007   0.0051   0.00   13.6
2019/03/11 18:51:29.000   27.894636955  -82.373362664   -20.8688   1   7   0.0042   0.0034   0.0105   0.0012   0.0008   0.0051   0.00   13.7
2019/03/11 18:51:30.000   27.894636944  -82.373362658   -20.8713   1   7   0.0042   0.0034   0.0105   0.0012   0.0008   0.0051   0.00   13.8
2019/03/11 18:51:31.000   27.894636932  -82.373362662   -20.8778   1   7   0.0042   0.0034   0.0105   0.0012   0.0008   0.0051   0.00   13.9
2019/03/11 18:51:32.000   27.894636923  -82.373362657   -20.8753   1   7   0.0042   0.0034   0.0105   0.0012   0.0008   0.0051   0.00   13.9
2019/03/11 18:51:33.000   27.894636946  -82.373362654   -20.8732   1   7   0.0042   0.0034   0.0105   0.0012   0.0008   0.0051   0.00   14.0
2019/03/11 18:51:34.000   27.894636926  -82.373362656   -20.8791   1   7   0.0042   0.0034   0.0105   0.0012   0.0008   0.0051   0.00   14.1
2019/03/11 18:51:35.000   27.894636927  -82.373362664   -20.8802   1   7   0.0042   0.0034   0.0105   0.0012   0.0008   0.0052   0.00   14.2
2019/03/11 18:51:36.000   27.894636928  -82.373362665   -20.8711   1   7   0.0042   0.0034   0.0105   0.0012   0.0008   0.0052   0.00   14.3
2019/03/11 18:51:37.000   27.894636902  -82.373362672   -20.8840   1   7   0.0042   0.0034   0.0105   0.0012   0.0008   0.0052   0.00   14.4
2019/03/11 18:51:38.000   27.894636917  -82.373362655   -20.8776   1   7   0.0042   0.0034   0.0105   0.0012   0.0008   0.0052   0.00   14.5
2019/03/11 18:51:39.000   27.894636911  -82.373362692   -20.8719   1   7   0.0042   0.0034   0.0105   0.0012   0.0008   0.0052   0.00   14.6
2019/03/11 18:51:40.000   27.894636881  -82.373362680   -20.8861   1   7   0.0042   0.0034   0.0105   0.0012   0.0008   0.0052   0.00   14.7
2019/03/11 18:51:41.000   27.894636918  -82.373362670   -20.8746   1   7   0.0042   0.0034   0.0105   0.0012   0.0008   0.0052   0.00   14.8
2019/03/11 18:51:42.000   27.894636895  -82.373362679   -20.8793   1   7   0.0042   0.0034   0.0105   0.0012   0.0008   0.0052   0.00   14.9
2019/03/11 18:51:43.000   27.894636915  -82.373362664   -20.8728   1   7   0.0042   0.0034   0.0105   0.0012   0.0008   0.0052   0.00   15.0
2019/03/11 18:51:44.000   27.894636917  -82.373362657   -20.8820   1   7   0.0042   0.0034   0.0105   0.0012   0.0008   0.0052   0.00   15.1
2019/03/11 18:51:45.000   27.894636915  -82.373362690   -20.8679   1   7   0.0042   0.0034   0.0105   0.0012   0.0008   0.0052   0.00   15.2
2019/03/11 18:51:46.000   27.894636902  -82.373362671   -20.8826   1   7   0.0042   0.0034   0.0105   0.0012   0.0008   0.0052   0.00   15.3
2019/03/11 18:51:47.000   27.894636901  -82.373362694   -20.8662   1   7   0.0042   0.0034   0.0105   0.0012   0.0008   0.0052   0.00   15.5
2019/03/11 18:51:48.000   27.894636915  -82.373362655   -20.8762   1   7   0.0042   0.0034   0.0105   0.0012   0.0008   0.0052   0.00   15.7
2019/03/11 18:51:49.000   27.894636914  -82.373362681   -20.8761   1   7   0.0042   0.0034   0.0105   0.0012   0.0008   0.0052   0.00   15.8
2019/03/11 18:51:50.000   27.894636883  -82.373362676   -20.8786   1   7   0.0042   0.0034   0.0105   0.0012   0.0008   0.0052   0.00   15.9
2019/03/11 18:51:51.000   27.894636907  -82.373362671   -20.8798   1   7   0.0042   0.0034   0.0105   0.0012   0.0008   0.0052   0.00   16.0
2019/03/11 18:51:52.000   27.894636904  -82.373362690   -20.8759   1   7   0.0042   0.0034   0.0105   0.0012   0.0008   0.0052   0.00   16.1
2019/03/11 18:51:53.000   27.894636908  -82.373362678   -20.8761   1   7   0.0042   0.0034   0.0105   0.0012   0.0008   0.0052   0.00   16.2
2019/03/11 18:51:54.000   27.894636884  -82.373362703   -20.8796   1   7   0.0042   0.0034   0.0106   0.0012   0.0008   0.0052   0.00   16.3
2019/03/11 18:51:55.000   27.894636893  -82.373362647   -20.8811   1   7   0.0043   0.0034   0.0106   0.0012   0.0008   0.0052   0.00   16.5
2019/03/11 18:51:56.000   27.894636912  -82.373362668   -20.8791   1   7   0.0043   0.0034   0.0106   0.0012   0.0008   0.0052   0.00   16.6
2019/03/11 18:51:57.000   27.894636895  -82.373362692   -20.8799   1   7   0.0043   0.0034   0.0106   0.0012   0.0008   0.0052   0.00   16.7
2019/03/11 18:51:58.000   27.894636896  -82.373362649   -20.8800   1   7   0.0043   0.0034   0.0106   0.0012   0.0008   0.0052   0.00   16.9
2019/03/11 18:51:59.000   27.894636893  -82.373362671   -20.8785   1   7   0.0043   0.0034   0.0106   0.0012   0.0008   0.0052   0.00   17.0
2019/03/11 18:52:00.000   27.894636889  -82.373362665   -20.8806   1   7   0.0043   0.0034   0.0106   0.0012   0.0008   0.0052   0.00   17.1
2019/03/11 18:52:01.000   27.894636943  -82.373362694   -20.8669   1   7   0.0043   0.0034   0.0106   0.0012   0.0008   0.0052   0.00   17.3
2019/03/11 18:52:02.000   27.894636907  -82.373362669   -20.8772   1   7   0.0043   0.0034   0.0106   0.0012   0.0008   0.0052   0.00   17.4
2019/03/11 18:52:03.000   27.894636903  -82.373362674   -20.8795   1   7   0.0043   0.0034   0.0106   0.0012   0.0008   0.0052   0.00   17.6
2019/03/11 18:52:04.000   27.894636926  -82.373362729   -20.8657   1   7   0.0043   0.0034   0.0106   0.0012   0.0008   0.0052   0.00   17.8
2019/03/11 18:52:05.000   27.894636885  -82.373362689   -20.8857   1   7   0.0043   0.0034   0.0106   0.0012   0.0008   0.0052   0.00   18.0
2019/03/11 18:52:06.000   27.894636868  -82.373362667   -20.8932   1   7   0.0043   0.0034   0.0106   0.0012   0.0008   0.0052   0.00   18.2
2019/03/11 18:52:07.000   27.894636900  -82.373362640   -20.8857   1   7   0.0043   0.0034   0.0106   0.0012   0.0008   0.0052   0.00   18.4
2019/03/11 18:52:08.000   27.894636874  -82.373362675   -20.8806   1   7   0.0043   0.0034   0.0106   0.0012   0.0008   0.0052   0.00   18.6
2019/03/11 18:52:09.000   27.894636877  -82.373362665   -20.8884   1   7   0.0043   0.0034   0.0106   0.0012   0.0008   0.0052   0.00   18.8
2019/03/11 18:52:10.000   27.894636893  -82.373362669   -20.8817   1   7   0.0043   0.0034   0.0106   0.0012   0.0008   0.0052   0.00   18.9
2019/03/11 18:52:11.000   27.894636896  -82.373362670   -20.8846   1   7   0.0043   0.0034   0.0106   0.0012   0.0008   0.0052   0.00   19.1
2019/03/11 18:52:12.000   27.894636890  -82.373362678   -20.8809   1   7   0.0043   0.0034   0.0106   0.0012   0.0008   0.0052   0.00   19.3
2019/03/11 18:52:13.000   27.894636910  -82.373362672   -20.8719   1   7   0.0043   0.0034   0.0106   0.0012   0.0008   0.0052   0.00   19.5
2019/03/11 18:52:14.000   27.894636904  -82.373362656   -20.8788   1   7   0.0043   0.0034   0.0106   0.0012   0.0008   0.0052   0.00   19.7
2019/03/11 18:52:15.000   27.894636910  -82.373362651   -20.8820   1   7   0.0043   0.0034   0.0106   0.0012   0.0008   0.0052   0.00   19.9
2019/03/11 18:52:16.000   27.894636878  -82.373362667   -20.8867   1   7   0.0043   0.0034   0.0106   0.0012   0.0008   0.0052   0.00   20.2
2019/03/11 18:52:17.000   27.894636912  -82.373362668   -20.8834   1   7   0.0043   0.0034   0.0106   0.0012   0.0008   0.0052   0.00   20.3
2019/03/11 18:52:18.000   27.894636899  -82.373362675   -20.8821   1   7   0.0043   0.0034   0.0106   0.0012   0.0008   0.0053   0.00   20.6
2019/03/11 18:52:19.000   27.894636913  -82.373362659   -20.8785   1   7   0.0043   0.0034   0.0106   0.0012   0.0008   0.0053   0.00   20.8
2019/03/11 18:52:20.000   27.894636907  -82.373362666   -20.8792   1   7   0.0043   0.0034   0.0106   0.0012   0.0008   0.0053   0.00   21.0
2019/03/11 18:52:21.000   27.894636914  -82.373362676   -20.8743   1   7   0.0043   0.0034   0.0106   0.0012   0.0008   0.0053   0.00   21.2
2019/03/11 18:52:22.000   27.894636940  -82.373362664   -20.8652   1   7   0.0043   0.0034   0.0106   0.0012   0.0008   0.0053   0.00   21.4
2019/03/11 18:52:23.000   27.894636911  -82.373362649   -20.8821   1   7   0.0043   0.0034   0.0106   0.0012   0.0008   0.0053   0.00   21.6
2019/03/11 18:52:24.000   27.894636945  -82.373362658   -20.8684   1   7   0.0043   0.0034   0.0106   0.0012   0.0008   0.0053   0.00   21.7
2019/03/11 18:52:25.000   27.894636913  -82.373362639   -20.8796   1   7   0.0043   0.0034   0.0106   0.0012   0.0008   0.0053   0.00   21.9
2019/03/11 18:52:26.000   27.894636922  -82.373362643   -20.8742   1   7   0.0043   0.0034   0.0106   0.0012   0.0008   0.0053   0.00   22.1
2019/03/11 18:52:27.000   27.894636928  -82.373362665   -20.8643   1   7   0.0043   0.0034   0.0106   0.0012   0.0008   0.0053   0.00   22.2
2019/03/11 18:52:28.000   27.894636899  -82.373362658   -20.8785   1   7   0.0043   0.0034   0.0106   0.0012   0.0008   0.0053   0.00   22.4
2019/03/11 18:52:29.000   27.894636923  -82.373362662   -20.8749   1   7   0.0043   0.0034   0.0106   0.0012   0.0008   0.0053   0.00   22.6
2019/03/11 18:52:30.000   27.894636922  -82.373362625   -20.8792   1   7   0.0043   0.0034   0.0106   0.0012   0.0008   0.0053   0.00   22.8
2019/03/11 18:52:31.000   27.894636925  -82.373362638   -20.8807   1   7   0.0043   0.0034   0.0106   0.0012   0.0008   0.0053   0.00   22.9
2019/03/11 18:52:32.000   27.894636936  -82.373362641   -20.8692   1   7   0.0043   0.0034   0.0106   0.0012   0.0008   0.0053   0.00   23.1
2019/03/11 18:52:33.000   27.894636912  -82.373362628   -20.8799   1   7   0.0043   0.0034   0.0106   0.0012   0.0008   0.0053   0.00   23.3
2019/03/11 18:52:34.000   27.894636913  -82.373362665   -20.8757   1   7   0.0043   0.0034   0.0106   0.0012   0.0008   0.0053   0.00   23.4
2019/03/11 18:52:35.000   27.894636889  -82.373362639   -20.8725   1   7   0.0043   0.0034   0.0106   0.0012   0.0008   0.0053   0.00   23.6
2019/03/11 18:52:36.000   27.894636901  -82.373362672   -20.8780   1   7   0.0043   0.0034   0.0106   0.0012   0.0008   0.0053   0.00   23.7
2019/03/11 18:52:37.000   27.894636875  -82.373362669   -20.8826   1   7   0.0043   0.0034   0.0106   0.0012   0.0008   0.0053   0.00   23.9
2019/03/11 18:52:38.000   27.894636885  -82.373362667   -20.8815   1   7   0.0043   0.0034   0.0106   0.0012   0.0008   0.0053   0.00   24.0
2019/03/11 18:52:39.000   27.894636911  -82.373362660   -20.8741   1   7   0.0043   0.0034   0.0106   0.0012   0.0008   0.0053   0.00   24.2
2019/03/11 18:52:40.000   27.894636917  -82.373362682   -20.8666   1   7   0.0043   0.0034   0.0107   0.0012   0.0008   0.0053   0.00   24.4
2019/03/11 18:52:41.000   27.894636926  -82.373362647   -20.8772   1   7   0.0043   0.0034   0.0107   0.0012   0.0008   0.0053   0.00   24.5
2019/03/11 18:52:42.000   27.894636914  -82.373362641   -20.8723   1   7   0.0043   0.0034   0.0107   0.0012   0.0008   0.0053   0.00   24.7
2019/03/11 18:52:43.000   27.894636885  -82.373362683   -20.8759   1   7   0.0043   0.0034   0.0107   0.0012   0.0008   0.0053   0.00   24.8
2019/03/11 18:52:44.000   27.894636875  -82.373362666   -20.8823   1   7   0.0043   0.0034   0.0107   0.0012   0.0008   0.0053   0.00   25.0
2019/03/11 18:52:45.000   27.894636923  -82.373362668   -20.8736   1   7   0.0043   0.0034   0.0107   0.0012   0.0008   0.0053   0.00   25.2
2019/03/11 18:52:46.000   27.894636905  -82.373362671   -20.8779   1   7   0.0043   0.0034   0.0107   0.0012   0.0008   0.0053   0.00   25.4
2019/03/11 18:52:47.000   27.894636894  -82.373362656   -20.8784   1   7   0.0043   0.0034   0.0107   0.0012   0.0008   0.0053   0.00   25.5
2019/03/11 18:52:48.000   27.894636901  -82.373362667   -20.8776   1   7   0.0043   0.0034   0.0107   0.0012   0.0008   0.0053   0.00   25.6
2019/03/11 18:52:49.000   27.894636937  -82.373362658   -20.8705   1   7   0.0043   0.0034   0.0107   0.0012   0.0008   0.0053   0.00   25.8
2019/03/11 18:52:50.000   27.894636930  -82.373362649   -20.8683   1   7   0.0043   0.0034   0.0107   0.0012   0.0008   0.0053   0.00   26.0
2019/03/11 18:52:51.000   27.894636893  -82.373362665   -20.8822   1   7   0.0043   0.0034   0.0107   0.0012   0.0008   0.0053   0.00   26.2
2019/03/11 18:52:52.000   27.894636924  -82.373362670   -20.8740   1   7   0.0043   0.0034   0.0107   0.0012   0.0008   0.0053   0.00   26.3
2019/03/11 18:52:53.000   27.894636912  -82.373362663   -20.8778   1   7   0.0043   0.0034   0.0107   0.0012   0.0008   0.0053   0.00   26.5
2019/03/11 18:52:54.000   27.894636914  -82.373362669   -20.8760   1   7   0.0043   0.0034   0.0107   0.0012   0.0008   0.0053   0.00   26.7
2019/03/11 18:52:55.000   27.894636926  -82.373362661   -20.8791   1   7   0.0043   0.0034   0.0107   0.0012   0.0008   0.0053   0.00   26.9
2019/03/11 18:52:56.000   27.894636926  -82.373362654   -20.8725   1   7   0.0043   0.0034   0.0107   0.0012   0.0008   0.0053   0.00   27.0
2019/03/11 18:52:57.000   27.894636940  -82.373362673   -20.8747   1   7   0.0043   0.0034   0.0107   0.0012   0.0008   0.0053   0.00   27.2
2019/03/11 18:52:58.000   27.894636921  -82.373362661   -20.8746   1   7   0.0043   0.0034   0.0107   0.0012   0.0008   0.0053   0.00   27.3
2019/03/11 18:52:59.000   27.894636929  -82.373362668   -20.8711   1   7   0.0043   0.0034   0.0107   0.0012   0.0008   0.0053   0.00   27.5
2019/03/11 18:53:00.000   27.894636918  -82.373362674   -20.8727   1   7   0.0043   0.0034   0.0107   0.0012   0.0008   0.0054   0.00   27.6
2019/03/11 18:53:01.000   27.894636939  -82.373362685   -20.8649   1   7   0.0043   0.0034   0.0107   0.0012   0.0008   0.0054   0.00   27.7
2019/03/11 18:53:02.000   27.894636925  -82.373362678   -20.8777   1   7   0.0043   0.0034   0.0107   0.0012   0.0008   0.0054   0.00   27.9
2019/03/11 18:53:03.000   27.894636955  -82.373362639   -20.8755   1   7   0.0043   0.0034   0.0107   0.0012   0.0008   0.0054   0.00   28.0
2019/03/11 18:53:04.000   27.894636943  -82.373362664   -20.8738   1   7   0.0043   0.0034   0.0107   0.0012   0.0008   0.0054   0.00   28.2
2019/03/11 18:53:05.000   27.894636918  -82.373362667   -20.8771   1   7   0.0043   0.0034   0.0107   0.0012   0.0008   0.0054   0.00   28.4
2019/03/11 18:53:06.000   27.894636921  -82.373362642   -20.8779   1   7   0.0043   0.0034   0.0107   0.0012   0.0008   0.0054   0.00   28.6
2019/03/11 18:53:07.000   27.894636935  -82.373362647   -20.8780   1   7   0.0043   0.0034   0.0107   0.0012   0.0008   0.0054   0.00   28.7
2019/03/11 18:53:08.000   27.894636937  -82.373362650   -20.8777   1   7   0.0043   0.0034   0.0107   0.0012   0.0008   0.0054   0.00   28.9
2019/03/11 18:53:09.000   27.894636922  -82.373362662   -20.8753   1   7   0.0043   0.0034   0.0107   0.0012   0.0008   0.0054   0.00   29.0
2019/03/11 18:53:10.000   27.894636940  -82.373362664   -20.8738   1   7   0.0043   0.0034   0.0107   0.0012   0.0008   0.0054   0.00   29.2
2019/03/11 18:53:11.000   27.894636940  -82.373362652   -20.8736   1   7   0.0043   0.0034   0.0107   0.0012   0.0008   0.0054   0.00   29.3
2019/03/11 18:53:12.000   27.894636949  -82.373362646   -20.8757   1   7   0.0044   0.0034   0.0107   0.0012   0.0008   0.0054   0.00   29.4
2019/03/11 18:53:13.000   27.894636945  -82.373362699   -20.8631   1   7   0.0044   0.0034   0.0107   0.0012   0.0008   0.0054   0.00   29.5
2019/03/11 18:53:14.000   27.894636949  -82.373362668   -20.8701   1   7   0.0044   0.0034   0.0107   0.0012   0.0008   0.0054   0.00   29.6
2019/03/11 18:53:15.000   27.894636920  -82.373362674   -20.8799   1   7   0.0044   0.0034   0.0107   0.0012   0.0008   0.0054   0.00   29.8
2019/03/11 18:53:16.000   27.894636935  -82.373362641   -20.8821   1   7   0.0044   0.0034   0.0107   0.0012   0.0008   0.0054   0.00   29.9
2019/03/11 18:53:17.000   27.894636946  -82.373362658   -20.8691   1   7   0.0044   0.0034   0.0107   0.0012   0.0008   0.0054   0.00   30.0
2019/03/11 18:53:18.000   27.894636954  -82.373362657   -20.8744   1   7   0.0044   0.0034   0.0107   0.0012   0.0008   0.0054   0.00   30.1
2019/03/11 18:53:19.000   27.894636944  -82.373362640   -20.8740   1   7   0.0044   0.0034   0.0107   0.0012   0.0008   0.0054   0.00   30.2
2019/03/11 18:53:20.000   27.894636943  -82.373362648   -20.8772   1   7   0.0044   0.0034   0.0107   0.0012   0.0008   0.0054   0.00   30.3
2019/03/11 18:53:21.000   27.894636949  -82.373362633   -20.8745   1   7   0.0044   0.0034   0.0107   0.0012   0.0008   0.0054   0.00   30.5
2019/03/11 18:53:22.000   27.894636947  -82.373362628   -20.8760   1   7   0.0044   0.0034   0.0107   0.0012   0.0008   0.0054   0.00   30.6
2019/03/11 18:53:23.000   27.894636932  -82.373362654   -20.8758   1   7   0.0044   0.0034   0.0107   0.0012   0.0008   0.0054   0.00   30.7
2019/03/11 18:53:24.000   27.894636950  -82.373362647   -20.8691   1   7   0.0044   0.0034   0.0107   0.0012   0.0008   0.0054   0.00   30.8
2019/03/11 18:53:25.000   27.894636901  -82.373362653   -20.8797   1   7   0.0044   0.0034   0.0108   0.0012   0.0008   0.0054   0.00   30.8
2019/03/11 18:53:26.000   27.894636954  -82.373362634   -20.8715   1   7   0.0044   0.0034   0.0108   0.0012   0.0008   0.0054   0.00   30.9
2019/03/11 18:53:27.000   27.894636928  -82.373362660   -20.8735   1   7   0.0044   0.0034   0.0108   0.0012   0.0008   0.0054   0.00   31.0
2019/03/11 18:53:28.000   27.894636941  -82.373362630   -20.8764   1   7   0.0044   0.0034   0.0108   0.0012   0.0008   0.0054   0.00   31.1
2019/03/11 18:53:29.000   27.894636959  -82.373362649   -20.8743   1   7   0.0044   0.0034   0.0108   0.0012   0.0008   0.0054   0.00   31.3
2019/03/11 18:53:30.000   27.894636929  -82.373362646   -20.8760   1   7   0.0044   0.0034   0.0108   0.0012   0.0008   0.0054   0.00   31.3
2019/03/11 18:53:31.000   27.894636956  -82.373362618   -20.8810   1   7   0.0044   0.0034   0.0108   0.0012   0.0008   0.0054   0.00   31.5
2019/03/11 18:53:32.000   27.894636946  -82.373362649   -20.8710   1   7   0.0044   0.0034   0.0108   0.0012   0.0008   0.0054   0.00   31.6
2019/03/11 18:53:33.000   27.894636949  -82.373362612   -20.8761   1   7   0.0044   0.0034   0.0108   0.0012   0.0008   0.0054   0.00   31.7
2019/03/11 18:53:34.000   27.894636949  -82.373362626   -20.8736   1   7   0.0044   0.0034   0.0108   0.0012   0.0008   0.0054   0.00   31.8
2019/03/11 18:53:35.000   27.894636973  -82.373362635   -20.8663   1   7   0.0044   0.0034   0.0108   0.0012   0.0008   0.0054   0.00   31.9
2019/03/11 18:53:36.000   27.894636951  -82.373362627   -20.8658   1   7   0.0044   0.0034   0.0108   0.0012   0.0008   0.0054   0.00   31.9
2019/03/11 18:53:37.000   27.894636973  -82.373362640   -20.8619   1   7   0.0044   0.0034   0.0108   0.0012   0.0008   0.0054   0.00   32.0
2019/03/11 18:53:38.000   27.894636973  -82.373362633   -20.8678   1   7   0.0044   0.0034   0.0108   0.0012   0.0008   0.0054   0.00   32.0
2019/03/11 18:53:39.000   27.894636973  -82.373362598   -20.8764   1   7   0.0044   0.0034   0.0108   0.0012   0.0008   0.0054   0.00   32.2
2019/03/11 18:53:40.000   27.894636952  -82.373362615   -20.8719   1   7   0.0044   0.0034   0.0108   0.0012   0.0008   0.0054   0.00   32.2
2019/03/11 18:53:41.000   27.894636986  -82.373362599   -20.8651   1   7   0.0044   0.0034   0.0108   0.0012   0.0008   0.0054   0.00   32.2
2019/03/11 18:53:42.000   27.894636983  -82.373362612   -20.8707   1   7   0.0044   0.0034   0.0108   0.0012   0.0008   0.0055   0.00   32.3
2019/03/11 18:53:43.000   27.894636968  -82.373362618   -20.8697   1   7   0.0044   0.0034   0.0108   0.0012   0.0008   0.0055   0.00   32.4
2019/03/11 18:53:44.000   27.894636957  -82.373362613   -20.8735   1   7   0.0044   0.0034   0.0108   0.0012   0.0008   0.0055   0.00   32.5
2019/03/11 18:53:45.000   27.894636973  -82.373362582   -20.8714   1   7   0.0044   0.0034   0.0108   0.0012   0.0008   0.0055   0.00   32.6
2019/03/11 18:53:46.000   27.894636978  -82.373362598   -20.8659   1   7   0.0044   0.0034   0.0108   0.0012   0.0008   0.0055   0.00   32.7
2019/03/11 18:53:47.000   27.894636975  -82.373362560   -20.8699   1   7   0.0044   0.0034   0.0108   0.0012   0.0008   0.0055   0.00   32.7
2019/03/11 18:53:48.000   27.894636945  -82.373362584   -20.8801   1   7   0.0044   0.0034   0.0108   0.0012   0.0008   0.0055   0.00   32.9
2019/03/11 18:53:49.000   27.894636954  -82.373362601   -20.8640   1   7   0.0044   0.0034   0.0108   0.0012   0.0008   0.0055   0.00   32.9
2019/03/11 18:53:50.000   27.894636973  -82.373362601   -20.8671   1   7   0.0044   0.0034   0.0108   0.0012   0.0008   0.0055   0.00   33.1
2019/03/11 18:53:51.000   27.894636989  -82.373362597   -20.8594   1   7   0.0044   0.0034   0.0108   0.0012   0.0008   0.0055   0.00   33.1
2019/03/11 18:53:52.000   27.894636950  -82.373362590   -20.8691   1   7   0.0044   0.0034   0.0108   0.0012   0.0008   0.0055   0.00   33.2
2019/03/11 18:53:53.000   27.894636986  -82.373362590   -20.8641   1   7   0.0044   0.0034   0.0108   0.0012   0.0008   0.0055   0.00   33.3
2019/03/11 18:53:54.000   27.894636976  -82.373362586   -20.8669   1   7   0.0044   0.0034   0.0108   0.0012   0.0008   0.0055   0.00   33.3
2019/03/11 18:53:55.000   27.894636945  -82.373362577   -20.8752   1   7   0.0044   0.0034   0.0108   0.0012   0.0008   0.0055   0.00   33.4
2019/03/11 18:53:56.000   27.894636972  -82.373362585   -20.8676   1   7   0.0044   0.0034   0.0108   0.0012   0.0008   0.0055   0.00   33.4
2019/03/11 18:53:57.000   27.894636960  -82.373362606   -20.8590   1   7   0.0044   0.0034   0.0108   0.0012   0.0008   0.0055   0.00   33.5
2019/03/11 18:53:58.000   27.894636997  -82.373362570   -20.8603   1   7   0.0044   0.0034   0.0108   0.0012   0.0008   0.0055   0.00   33.6
2019/03/11 18:53:59.000   27.894636983  -82.373362580   -20.8583   1   7   0.0044   0.0034   0.0108   0.0012   0.0008   0.0055   0.00   33.7
2019/03/11 18:54:00.000   27.894636963  -82.373362596   -20.8629   1   7   0.0044   0.0034   0.0108   0.0012   0.0008   0.0055   0.00   33.8
2019/03/11 18:54:01.000   27.894636985  -82.373362587   -20.8597   1   7   0.0044   0.0034   0.0108   0.0012   0.0008   0.0055   0.00   33.9
2019/03/11 18:54:02.000   27.894636984  -82.373362575   -20.8676   1   7   0.0044   0.0034   0.0108   0.0012   0.0008   0.0055   0.00   33.9
2019/03/11 18:54:03.000   27.894637098  -82.373362385   -20.7278   1   7   0.0044   0.0034   0.0108   0.0012   0.0008   0.0055   0.00   34.0
2019/03/11 18:54:04.000   27.894637569  -82.373361111   -19.3925   1   7   0.0044   0.0034   0.0108   0.0012   0.0008   0.0055   0.00   34.0
2019/03/11 18:54:05.000   27.894638743  -82.373361338   -16.9311   1   7   0.0044   0.0034   0.0108   0.0012   0.0008   0.0055   0.00   34.0
2019/03/11 18:54:06.000   27.894627141  -82.373341465   -14.5774   1   7   0.0044   0.0034   0.0108   0.0012   0.0008   0.0055   0.00   34.1
2019/03/11 18:54:07.000   27.894598036  -82.373306832   -12.4333   1   7   0.0044   0.0034   0.0108   0.0012   0.0008   0.0055   0.00   34.2
2019/03/11 18:54:08.000   27.894582278  -82.373279233   -11.4018   1   7   0.0044   0.0034   0.0109   0.0012   0.0008   0.0055   0.00   34.3
2019/03/11 18:54:09.000   27.894580111  -82.373282224   -12.1597   1   7   0.0044   0.0034   0.0109   0.0012   0.0008   0.0055   0.00   34.4
2019/03/11 18:54:10.000   27.894591035  -82.373314907   -13.3162   1   7   0.0044   0.0034   0.0109   0.0012   0.0008   0.0055   0.00   34.5
2019/03/11 18:54:11.000   27.894604924  -82.373359146   -13.2069   1   7   0.0044   0.0034   0.0109   0.0012   0.0008   0.0055   0.00   34.5
2019/03/11 18:54:12.000   27.894619510  -82.373381729   -12.7346   1   7   0.0044   0.0034   0.0109   0.0012   0.0008   0.0055   0.00   34.6
2019/03/11 18:54:13.000   27.894619928  -82.373376188   -12.4679   1   7   0.0044   0.0034   0.0109   0.0012   0.0008   0.0055   0.00   34.7
2019/03/11 18:54:14.000   27.894612068  -82.373358269   -12.9543   1   7   0.0044   0.0034   0.0109   0.0012   0.0008   0.0055   0.00   34.8
2019/03/11 18:54:15.000   27.894611986  -82.373351887   -14.8415   1   7   0.0044   0.0034   0.0109   0.0012   0.0008   0.0055   0.00   34.8
2019/03/11 18:54:16.000   27.894613424  -82.373348224   -16.6358   1   7   0.0044   0.0034   0.0109   0.0012   0.0008   0.0055   0.00   34.9
2019/03/11 18:54:17.000   27.894614949  -82.373349272   -17.8021   1   7   0.0044   0.0034   0.0109   0.0012   0.0008   0.0055   0.00   35.0
2019/03/11 18:54:18.000   27.894615899  -82.373352596   -18.8268   1   7   0.0044   0.0034   0.0109   0.0012   0.0008   0.0055   0.00   35.0
2019/03/11 18:54:19.000   27.894616467  -82.373352632   -19.8456   1   7   0.0044   0.0034   0.0109   0.0012   0.0008   0.0055   0.00   35.1
2019/03/11 18:54:20.000   27.894616236  -82.373353647   -20.5046   1   7   0.0044   0.0034   0.0109   0.0012   0.0008   0.0055   0.00   35.2
2019/03/11 18:54:21.000   27.894615365  -82.373354015   -20.7423   1   7   0.0044   0.0034   0.0109   0.0012   0.0008   0.0055   0.00   35.3
2019/03/11 18:54:22.000   27.894615038  -82.373354328   -20.8255   1   7   0.0044   0.0034   0.0109   0.0012   0.0008   0.0055   0.00   35.4
2019/03/11 18:54:23.000   27.894615018  -82.373354312   -20.8292   1   7   0.0044   0.0034   0.0109   0.0012   0.0008   0.0056   0.00   35.5
2019/03/11 18:54:24.000   27.894615015  -82.373354332   -20.8277   1   7   0.0044   0.0034   0.0109   0.0012   0.0008   0.0056   0.00   35.6
2019/03/11 18:54:25.000   27.894615034  -82.373354325   -20.8331   1   7   0.0045   0.0034   0.0109   0.0012   0.0008   0.0056   0.00   35.6
2019/03/11 18:54:26.000   27.894615006  -82.373354346   -20.8296   1   7   0.0045   0.0034   0.0109   0.0012   0.0008   0.0056   0.00   35.7
2019/03/11 18:54:27.000   27.894614972  -82.373354391   -20.8390   1   7   0.0045   0.0034   0.0109   0.0012   0.0008   0.0056   0.00   36.0
2019/03/11 18:54:28.000   27.894614989  -82.373354384   -20.8307   1   7   0.0045   0.0034   0.0109   0.0012   0.0008   0.0056   0.00   36.2
2019/03/11 18:54:29.000   27.894615031  -82.373354399   -20.8309   1   7   0.0045   0.0034   0.0109   0.0012   0.0008   0.0056   0.00   36.5
2019/03/11 18:54:30.000   27.894614868  -82.373354433   -20.8491   1   7   0.0045   0.0034   0.0109   0.0012   0.0008   0.0056   0.00   36.4
2019/03/11 18:54:31.000   27.894615007  -82.373354404   -20.8278   1   7   0.0045   0.0034   0.0109   0.0012   0.0008   0.0056   0.00   36.6
2019/03/11 18:54:32.000   27.894615016  -82.373354409   -20.8330   1   7   0.0045   0.0034   0.0109   0.0012   0.0008   0.0056   0.00   36.9
2019/03/11 18:54:33.000   27.894615012  -82.373354397   -20.8380   1   7   0.0045   0.0034   0.0109   0.0012   0.0008   0.0056   0.00   37.1
2019/03/11 18:54:34.000   27.894615011  -82.373354406   -20.8294   1   7   0.0045   0.0034   0.0109   0.0012   0.0008   0.0056   0.00   37.5
2019/03/11 18:54:35.000   27.894615010  -82.373354452   -20.8421   1   7   0.0045   0.0034   0.0109   0.0012   0.0008   0.0056   0.00   37.6
2019/03/11 18:54:36.000   27.894615002  -82.373354417   -20.8404   1   7   0.0045   0.0034   0.0109   0.0012   0.0008   0.0056   0.00   37.8
2019/03/11 18:54:37.000   27.894614995  -82.373354416   -20.8459   1   7   0.0045   0.0034   0.0109   0.0012   0.0008   0.0056   0.00   38.0
2019/03/11 18:54:38.000   27.894615004  -82.373354420   -20.8398   1   7   0.0045   0.0034   0.0109   0.0012   0.0008   0.0056   0.00   38.1
2019/03/11 18:54:39.000   27.894615043  -82.373354407   -20.8334   1   7   0.0045   0.0034   0.0109   0.0012   0.0008   0.0056   0.00   38.3
2019/03/11 18:54:40.000   27.894615055  -82.373354354   -20.8266   1   7   0.0045   0.0034   0.0109   0.0012   0.0008   0.0056   0.00   38.5
2019/03/11 18:54:41.000   27.894615022  -82.373354362   -20.8306   1   7   0.0045   0.0034   0.0109   0.0012   0.0008   0.0056   0.00   38.6
2019/03/11 18:54:42.000   27.894615013  -82.373354340   -20.8283   1   7   0.0045   0.0034   0.0109   0.0012   0.0008   0.0056   0.00   38.7
2019/03/11 18:54:43.000   27.894615012  -82.373354361   -20.8233   1   7   0.0045   0.0034   0.0109   0.0012   0.0008   0.0056   0.00   38.8
2019/03/11 18:54:44.000   27.894615033  -82.373354340   -20.8313   1   7   0.0045   0.0034   0.0109   0.0012   0.0008   0.0056   0.00   39.0
2019/03/11 18:54:45.000   27.894615028  -82.373354346   -20.8264   1   7   0.0045   0.0034   0.0109   0.0012   0.0008   0.0056   0.00   39.1
2019/03/11 18:54:46.000   27.894615018  -82.373354314   -20.8345   1   7   0.0045   0.0034   0.0109   0.0012   0.0008   0.0056   0.00   39.1
2019/03/11 18:54:47.000   27.894615049  -82.373354331   -20.8230   1   7   0.0045   0.0034   0.0109   0.0012   0.0008   0.0056   0.00   39.3
2019/03/11 18:54:48.000   27.894615014  -82.373354331   -20.8328   1   7   0.0045   0.0034   0.0109   0.0012   0.0008   0.0056   0.00   39.4
2019/03/11 18:54:49.000   27.894615032  -82.373354319   -20.8293   1   7   0.0045   0.0034   0.0109   0.0012   0.0008   0.0056   0.00   39.5
2019/03/11 18:54:50.000   27.894615040  -82.373354345   -20.8224   1   7   0.0045   0.0034   0.0110   0.0012   0.0008   0.0056   0.00   39.6
2019/03/11 18:54:51.000   27.894615071  -82.373354329   -20.8203   1   7   0.0045   0.0034   0.0110   0.0012   0.0008   0.0056   0.00   39.6
2019/03/11 18:54:52.000   27.894615027  -82.373354346   -20.8221   1   7   0.0045   0.0034   0.0110   0.0012   0.0008   0.0056   0.00   39.7
2019/03/11 18:54:53.000   27.894615068  -82.373353346   -19.8302   1   7   0.0045   0.0034   0.0110   0.0012   0.0008   0.0056   0.00   39.9
2019/03/11 18:54:54.000   27.894615761  -82.373353058   -17.6073   1   7   0.0045   0.0034   0.0110   0.0012   0.0008   0.0056   0.00   40.1
2019/03/11 18:54:55.000   27.894617025  -82.373354417   -15.1938   1   7   0.0045   0.0034   0.0110   0.0012   0.0008   0.0056   0.00   40.1
2019/03/11 18:54:56.000   27.894612681  -82.373347806   -12.9662   1   7   0.0045   0.0034   0.0110   0.0012   0.0008   0.0056   0.00   40.1
2019/03/11 18:54:57.000   27.894586012  -82.373316219   -10.6931   1   7   0.0045   0.0034   0.0110   0.0012   0.0008   0.0056   0.00   40.2
2019/03/11 18:54:58.000   27.894547448  -82.373284261    -8.6116   1   7   0.0045   0.0034   0.0110   0.0012   0.0008   0.0056   0.00   40.1
2019/03/11 18:54:59.000   27.894509416  -82.373268243    -6.7801   1   7   0.0045   0.0034   0.0110   0.0012   0.0008   0.0056   0.00   40.1
2019/03/11 18:55:00.000   27.894487171  -82.373252098    -5.9928   1   7   0.0045   0.0034   0.0110   0.0012   0.0008   0.0056   0.00   40.1
2019/03/11 18:55:01.000   27.894476758  -82.373243884    -6.4189   1   7   0.0045   0.0034   0.0110   0.0012   0.0008   0.0056   0.00   40.3
2019/03/11 18:55:02.000   27.894475701  -82.373241881    -6.5431   1   7   0.0045   0.0034   0.0110   0.0012   0.0008   0.0056   0.00   40.3
2019/03/11 18:55:03.000   27.894476640  -82.373243313    -6.3221   1   7   0.0045   0.0034   0.0110   0.0012   0.0008   0.0057   0.00   40.2
2019/03/11 18:55:04.000   27.894482564  -82.373247071    -4.9058   1   7   0.0045   0.0034   0.0110   0.0012   0.0008   0.0057   0.00   40.3
2019/03/11 18:55:05.000   27.894493070  -82.373249219    -2.3369   1   7   0.0045   0.0034   0.0110   0.0012   0.0008   0.0057   0.00   40.4
2019/03/11 18:55:06.000   27.894505223  -82.373247909     0.5158   1   7   0.0045   0.0034   0.0110   0.0012   0.0008   0.0057   0.00   40.5
2019/03/11 18:55:07.000   27.894517708  -82.373248157     3.4077   1   7   0.0045   0.0034   0.0110   0.0012   0.0008   0.0057   0.00   40.5
2019/03/11 18:55:08.000   27.894529877  -82.373248522     6.3062   1   7   0.0045   0.0034   0.0110   0.0012   0.0008   0.0057   0.00   40.5
2019/03/11 18:55:09.000   27.894541598  -82.373249834     9.2458   1   7   0.0045   0.0034   0.0110   0.0012   0.0008   0.0057   0.00   40.6
2019/03/11 18:55:10.000   27.894554255  -82.373251234    12.2083   1   7   0.0045   0.0034   0.0110   0.0012   0.0008   0.0057   0.00   40.7
2019/03/11 18:55:11.000   27.894567622  -82.373252099    15.0505   1   7   0.0045   0.0034   0.0110   0.0012   0.0008   0.0057   0.00   40.9
2019/03/11 18:55:12.000   27.894580300  -82.373254477    17.9002   1   7   0.0045   0.0034   0.0110   0.0012   0.0008   0.0057   0.00   41.1
2019/03/11 18:55:13.000   27.894592185  -82.373258068    20.7248   1   7   0.0045   0.0034   0.0110   0.0012   0.0008   0.0057   0.00   41.2
2019/03/11 18:55:14.000   27.894605867  -82.373260805    23.4886   1   7   0.0045   0.0034   0.0110   0.0012   0.0008   0.0057   0.00   41.3
2019/03/11 18:55:15.000   27.894622096  -82.373262914    26.3347   1   7   0.0045   0.0034   0.0110   0.0012   0.0008   0.0057   0.00   41.4
2019/03/11 18:55:16.000   27.894637345  -82.373264411    29.2984   1   7   0.0045   0.0034   0.0110   0.0012   0.0008   0.0057   0.00   41.5
2019/03/11 18:55:17.000   27.894651448  -82.373265268    32.2751   1   7   0.0045   0.0034   0.0110   0.0012   0.0008   0.0057   0.00   41.5
2019/03/11 18:55:18.000   27.894664181  -82.373266413    35.2246   1   7   0.0045   0.0034   0.0110   0.0012   0.0008   0.0057   0.00   41.7
2019/03/11 18:55:19.000   27.894677210  -82.373269574    38.1545   1   7   0.0045   0.0034   0.0110   0.0012   0.0008   0.0057   0.00   41.7
2019/03/11 18:55:20.000   27.894690529  -82.373272326    41.0266   1   7   0.0045   0.0034   0.0110   0.0012   0.0008   0.0057   0.00   41.8
2019/03/11 18:55:21.000   27.894703578  -82.373275728    43.8387   1   7   0.0045   0.0034   0.0110   0.0012   0.0008   0.0057   0.00   41.9
2019/03/11 18:55:22.000   27.894715725  -82.373278221    46.5571   1   7   0.0045   0.0034   0.0110   0.0012   0.0008   0.0057   0.00   42.1
2019/03/11 18:55:23.000   27.894727234  -82.373278847    49.1354   1   7   0.0045   0.0034   0.0110   0.0012   0.0008   0.0057   0.00   42.1
2019/03/11 18:55:24.000   27.894741186  -82.373280017    51.7055   1   7   0.0045   0.0034   0.0110   0.0012   0.0008   0.0057   0.00   42.2
2019/03/11 18:55:25.000   27.894755374  -82.373282632    54.3813   1   7   0.0045   0.0034   0.0110   0.0012   0.0008   0.0057   0.00   42.2
2019/03/11 18:55:26.000   27.894769879  -82.373285394    57.2043   1   7   0.0045   0.0034   0.0110   0.0012   0.0008   0.0057   0.00   42.3
2019/03/11 18:55:27.000   27.894783692  -82.373287849    60.1396   1   7   0.0045   0.0034   0.0110   0.0012   0.0008   0.0057   0.00   42.4
2019/03/11 18:55:28.000   27.894797396  -82.373289978    63.0483   1   7   0.0045   0.0034   0.0110   0.0012   0.0008   0.0057   0.00   42.4
2019/03/11 18:55:29.000   27.894811386  -82.373292075    65.9702   1   7   0.0045   0.0034   0.0110   0.0012   0.0008   0.0057   0.00   42.4
2019/03/11 18:55:30.000   27.894825424  -82.373293522    68.8939   1   7   0.0045   0.0034   0.0111   0.0012   0.0008   0.0057   0.00   42.5
2019/03/11 18:55:31.000   27.894839427  -82.373294472    71.8132   1   7   0.0045   0.0034   0.0111   0.0012   0.0008   0.0057   0.00   42.5
2019/03/11 18:55:32.000   27.894854045  -82.373296230    74.7273   1   7   0.0045   0.0034   0.0111   0.0012   0.0008   0.0057   0.00   42.5
2019/03/11 18:55:33.000   27.894868007  -82.373298421    77.6816   1   7   0.0045   0.0034   0.0111   0.0012   0.0008   0.0057   0.00   42.6
2019/03/11 18:55:34.000   27.894881274  -82.373299545    80.5955   1   7   0.0046   0.0034   0.0111   0.0012   0.0008   0.0057   0.00   42.6
2019/03/11 18:55:35.000   27.894894268  -82.373300275    83.4374   1   7   0.0046   0.0034   0.0111   0.0012   0.0008   0.0057   0.00   42.5
2019/03/11 18:55:36.000   27.894907816  -82.373301460    86.1994   1   7   0.0046   0.0034   0.0111   0.0012   0.0008   0.0057   0.00   42.6
2019/03/11 18:55:37.000   27.894921752  -82.373302640    88.9204   1   7   0.0046   0.0034   0.0111   0.0012   0.0008   0.0057   0.00   42.6
2019/03/11 18:55:38.000   27.894935168  -82.373304435    91.6105   1   7   0.0046   0.0034   0.0111   0.0012   0.0008   0.0057   0.00   42.6
2019/03/11 18:55:39.000   27.894948354  -82.373306714    94.3443   1   7   0.0046   0.0034   0.0111   0.0012   0.0008   0.0057   0.00   42.6
2019/03/11 18:55:40.000   27.894962246  -82.373309268    97.1084   1   7   0.0046   0.0034   0.0111   0.0012   0.0008   0.0057   0.00   42.6
2019/03/11 18:55:41.000   27.894966864  -82.373312067    99.1476   1   7   0.0046   0.0034   0.0111   0.0011   0.0008   0.0057   0.00   42.8
2019/03/11 18:55:42.000   27.894943263  -82.373321599    99.7237   1   7   0.0046   0.0034   0.0111   0.0011   0.0008   0.0058   0.00   42.8
2019/03/11 18:55:43.000   27.894897015  -82.373345117    99.8813   1   7   0.0046   0.0034   0.0111   0.0011   0.0008   0.0058   0.00   43.0
2019/03/11 18:55:44.000   27.894841928  -82.373389213    99.8263   1   7   0.0046   0.0034   0.0111   0.0011   0.0008   0.0058   0.00   43.1
2019/03/11 18:55:45.000   27.894780284  -82.373438054    99.8730   1   7   0.0046   0.0034   0.0111   0.0011   0.0008   0.0058   0.00   43.2
2019/03/11 18:55:46.000   27.894717982  -82.373483218   100.0195   1   7   0.0046   0.0034   0.0111   0.0011   0.0008   0.0058   0.00   43.3
2019/03/11 18:55:47.000   27.894653404  -82.373526851   100.1080   1   7   0.0046   0.0034   0.0111   0.0011   0.0008   0.0058   0.00   43.4
2019/03/11 18:55:48.000   27.894586365  -82.373568458   100.1480   1   7   0.0046   0.0034   0.0111   0.0011   0.0008   0.0058   0.00   43.4
2019/03/11 18:55:49.000   27.894517719  -82.373608837   100.2060   1   7   0.0046   0.0034   0.0111   0.0011   0.0008   0.0058   0.00   43.5
2019/03/11 18:55:50.000   27.894448960  -82.373649936   100.2075   1   7   0.0046   0.0034   0.0111   0.0011   0.0008   0.0058   0.00   43.5
2019/03/11 18:55:51.000   27.894380136  -82.373691687   100.1750   1   7   0.0046   0.0034   0.0111   0.0011   0.0008   0.0058   0.00   43.6
2019/03/11 18:55:52.000   27.894311852  -82.373733816   100.2153   1   7   0.0046   0.0034   0.0111   0.0011   0.0008   0.0058   0.00   43.7
2019/03/11 18:55:53.000   27.894243073  -82.373776591   100.3101   1   7   0.0046   0.0034   0.0111   0.0011   0.0008   0.0058   0.00   43.7
2019/03/11 18:55:54.000   27.894173232  -82.373820378   100.4248   1   7   0.0046   0.0034   0.0111   0.0011   0.0008   0.0058   0.00   43.7
2019/03/11 18:55:55.000   27.894103654  -82.373864127   100.4847   1   7   0.0046   0.0034   0.0111   0.0011   0.0008   0.0058   0.00   43.8
2019/03/11 18:55:56.000   27.894035065  -82.373908022   100.4418   1   7   0.0046   0.0034   0.0111   0.0011   0.0008   0.0058   0.00   43.8
2019/03/11 18:55:57.000   27.893966149  -82.373950429   100.3800   1   7   0.0046   0.0034   0.0111   0.0011   0.0008   0.0058   0.00   43.8
2019/03/11 18:55:58.000   27.893896612  -82.373994502   100.3342   1   7   0.0046   0.0034   0.0111   0.0011   0.0008   0.0058   0.00   43.9
2019/03/11 18:55:59.000   27.893827433  -82.374038397   100.2377   1   7   0.0046   0.0034   0.0111   0.0011   0.0008   0.0058   0.00   43.9
2019/03/11 18:56:00.000   27.893766812  -82.374079472   100.2875   1   7   0.0046   0.0034   0.0111   0.0011   0.0008   0.0058   0.00   44.0
2019/03/11 18:56:01.000   27.893736755  -82.374101066   100.3283   1   7   0.0046   0.0034   0.0111   0.0011   0.0008   0.0058   0.00   44.0
2019/03/11 18:56:02.000   27.893739243  -82.374105239   100.4315   1   7   0.0046   0.0034   0.0111   0.0011   0.0008   0.0058   0.00   44.0
2019/03/11 18:56:03.000   27.893766662  -82.374108640   100.6342   1   7   0.0046   0.0034   0.0111   0.0011   0.0008   0.0058   0.00   44.1
2019/03/11 18:56:04.000   27.893804639  -82.374113481   100.6691   1   7   0.0046   0.0034   0.0111   0.0011   0.0008   0.0058   0.00   44.1
2019/03/11 18:56:05.000   27.893861016  -82.374114957   100.6077   1   7   0.0046   0.0034   0.0111   0.0011   0.0008   0.0058   0.00   44.1
