     3.03           OBSERVATION DATA    M: Mixed            RINEX VERSION / TYPE
RTKCONV demo5 b31                       20190311 191450 UTC PGM / RUN BY / DATE 
log: C:\data\WGI-larrysanders\2019\0311\GPS\UAS\GP184856.R  COMMENT             
format: ComNav                                              COMMENT             
                                                            MARKER NAME         
                                                            MARKER NUMBER       
                                                            MARKER TYPE         
                                                            OBSERVER / AGENCY   
                                                            REC # / TYPE / VERS 
                                                            ANT # / TYPE        
   748680.4720 -5591274.6072  2966177.8251                  APPROX POSITION XYZ 
        0.0000        0.0000        0.0000                  ANTENNA: DELTA H/E/N
G   12 C1C L1C D1C S1C C2D L2D D2D S2D C2X L2X D2X S2X      SYS / # / OBS TYPES 
R    8 C1C L1C D1C S1C C2C L2C D2C S2C                      SYS / # / OBS TYPES 
S    4 C1C L1C D1C S1C                                      SYS / # / OBS TYPES 
  2019     3    11    18    49   15.5000000     GPS         TIME OF FIRST OBS   
  2019     3    11    19     3   59.0000000     GPS         TIME OF LAST OBS    
G                                                           SYS / PHASE SHIFT   
R                                                           SYS / PHASE SHIFT   
S                                                           SYS / PHASE SHIFT   
  0                                                         GLONASS SLOT / FRQ #
 C1C    0.000 C1P    0.000 C2C    0.000 C2P    0.000        GLONASS COD/PHS/BIS 
                                                            END OF HEADER       
> 2019  3 11 18 49 15.5000000  0  9                     
G23                                                        48.000                                                                                                                                  
G 8  21153198.555   109047617.910        2394.582          46.000                                                                                                                                  
G16  21336173.102   109149170.312       -2324.891          46.000                                                                                                                                  
G 9  21624200.156   117441495.988        2149.879          46.000                                                                                                                                  
G26  23425153.320   125935756.461       -2761.395          43.000                                                                                                                                  
G 7                                                        46.000                                                                                                                                  
G 3  24396964.648   125931782.246       -2576.168          38.000                                                                                                                                  
G31  25129876.078   134324118.496       -2167.809          44.000                                                                                                                                  
S25                                                        42.000  
> 2019  3 11 18 49 16.0000000  0 10                     
G23                                                        47.000                                                                                                                                  
G 8  21152970.680   109046454.004        2394.172          46.000    21152981.477    83914706.719        1865.637          34.000    21152983.188    84396581.719        1865.512          45.000  
G16  21336394.359   109150365.457       -2325.012          45.000    21336401.070    84015724.160       -1811.668          33.000                                                                  
G 9  21623995.633   117440454.113        2150.219          46.000    21624006.352    92308541.6171       1675.512          35.000                                                                  
G26  23425415.922   125937169.453       -2760.688          43.000    23425426.961    92413776.4961      -2151.148          31.000    23425427.914    92796319.477       -2151.066          43.000  
G 7                                                        46.000                                                          29.000                                1                         40.000  
G 3  24397209.250   125933102.996       -2577.027          39.000    24397222.555   100798479.367       -2008.113          26.000    24397224.539   101184604.332       -2007.363          42.000  
G31  25130082.359   134325234.902       -2167.613          43.000    25130088.844   100765425.2732      -1689.125          25.000                                                                  
S31                              2                         46.000  
S25                                                        42.000  
> 2019  3 11 18 49 31.0000000  0 11                     
G23  20444035.039   109084763.215         379.918          48.000    20444041.844    83962970.043         296.051          37.000                                                                  
G27                              1                         49.000                                1                         40.000                                1                         48.000  
G 8  21146148.938   109010640.160        2386.375          46.000    21146161.141    83886799.832        1859.523          36.000    21146161.352    84368674.812        1859.504          47.000  
G16  21343035.688   109185304.656       -2328.598          46.000    21343043.367    84042949.535       -1814.508          34.000                                                                  
G 9  21617869.836   117408300.840        2142.395          46.000    21617880.672    92283487.133        1669.414          37.000    21617880.703    84372086.109        1669.398          48.000  
G26  23433297.047   125978620.430       -2761.035          43.000    23433308.578    92446075.969       -2151.531          32.000    23433309.164    92828618.934       -2151.434          45.000  
G 7                                                        47.000                                                          31.000                                                          42.000  
G 3  24404562.125   125971775.832       -2575.312          40.000    24404576.953   100828613.992       -2006.801          27.000    24404577.320   101214738.953       -2006.320          45.000  
S31                              1                         45.000  
S25                                                        42.000  
S33                              1                         41.000  
> 2019  3 11 18 49 32.0000000  0 11                     
G23  20443962.734   109084383.031         379.492          48.000    20443969.492    83962673.789         295.715          37.000                                                                  
G27                                                        49.000                                                          40.000                                                          48.000  
G 8  21145694.789   109008253.668        2385.699          46.000    21145706.969    83884940.211        1858.988          36.000    21145707.328    84366815.203        1859.086          47.000  
G16  21343478.688   109187632.652       -2328.688          46.000    21343486.297    84044763.539       -1814.543          34.000                                                                  
G 9  21617462.055   117406158.254        2141.746          46.000    21617472.930    92281817.582        1668.867          37.000    21617472.922    84370416.559        1669.121          48.000  
G26  23433822.523   125981380.797       -2760.988          44.000    23433833.852    92448226.895       -2151.492          32.000    23433834.141    92830769.863       -2151.199          46.000  
G 7                                                        46.000                                                          31.000                                                          42.000  
G 3  24405052.367   125974350.434       -2575.152          40.000    24405066.766   100830620.164       -2006.633          28.000    24405067.156   101216745.145       -2006.406          45.000  
S31                                                        46.000  
S25                                                        42.000  
S33                                                        42.000  
> 2019  3 11 18 49 33.0000000  0 11                     
G23  20443890.609   109084003.750         378.797          48.000    20443897.344    83962378.250         295.148          37.000                                                                  
G27                                                        49.000                                                          40.000                                                          48.000  
G 8  21145240.891   109005867.902        2385.652          46.000    21145252.891    83883081.176        1858.949          36.000    21145253.070    84364956.180        1858.488          47.000  
G16  21343921.812   109189961.094       -2328.730          46.000    21343929.383    84046577.930       -1814.648          34.000                                                                  
G 9  21617054.656   117404016.391        2141.422          46.000    21617065.297    92280148.602        1668.621          37.000    21617065.586    84368747.586        1668.625          48.000  
G26  23434347.617   125984141.387       -2760.715          44.000    23434359.156    92450377.992       -2151.172          32.000    23434359.867    92832920.984       -2151.359          46.000  
G 7                                                        47.000                                                          31.000                                                          42.000  
G 3  24405541.977   125976925.184       -2575.172          39.000    24405556.805   100832626.461       -2006.660          28.000    24405557.562   101218751.453       -2006.574          45.000  
S31                                                        46.000  
S25                                                        42.000  
S33                                                        42.000  
> 2019  3 11 18 49 34.0000000  0 11                     
G23  20443818.570   109083625.852         377.723          48.000    20443825.461    83962083.793         294.371          38.000                                                                  
G27                                                        49.000                                                          40.000                                                          48.000  
G 8  21144787.242   109003483.418        2384.652          46.000    21144799.070    83881223.141        1858.184          36.000    21144799.469    84363098.133        1857.887          47.000  
G16  21344365.188   109192290.496       -2329.559          46.000    21344372.648    84048393.043       -1815.207          34.000                                                                  
G 9  21616647.062   117401875.770        2140.520          46.000    21616657.922    92278480.598        1667.930          37.000    21616658.219    84367079.570        1668.012          48.000  
G26  23434873.305   125986902.695       -2760.953          44.000    23434884.656    92452529.660       -2151.355          32.000    23434885.680    92835072.656       -2151.723          46.000  
G 7                                                        46.000                                                          31.000                                                          41.000  
G 3  24406031.664   125979500.617       -2575.121          40.000    24406046.977   100834633.297       -2006.578          28.000    24406047.117   101220758.266       -2006.629          45.000  
S31                                                        46.000  
S25                                                        42.000  
S33                                                        43.000  
> 2019  3 11 18 49 35.0000000  0 11                     
G23  20443746.781   109083248.961         377.516          48.000    20443753.688    83961790.109         294.176          38.000                                                                  
G27                                                        49.000                                                          40.000                                                          48.000  
G 8  21144333.445   109001099.789        2384.402          46.000    21144345.430    83879365.773        1857.977          36.000    21144346.180    84361240.762        1857.844          47.000  
G16  21344808.734   109194620.441       -2329.090          47.000    21344815.992    84050208.586       -1814.879          34.000                                                                  
G 9  21616240.047   117399735.996        2140.543          46.000    21616250.703    92276813.238        1667.934          37.000    21616250.938    84365412.230        1667.910          48.000  
G26  23435398.594   125989664.355       -2760.551          44.000    23435410.164    92454681.602       -2151.094          32.000    23435410.531    92837224.602       -2151.336          46.000  
G 7                                                        46.000                                                          31.000                                                          42.000  
G 3  24406521.703   125982076.289       -2575.180          40.000    24406537.109   100836640.320       -2006.629          28.000    24406537.336   101222765.293       -2006.098          45.000  
S31                                                        46.000  
S25                                                        43.000  
S33                                                        43.000  
> 2019  3 11 18 49 36.0000000  0 11                     
G23  20443674.953   109082871.895         376.742          48.000    20443681.891    83961496.293         293.516          38.000                                                                  
G27                                                        49.000                                                          40.000                                                          48.000  
G 8  21143879.672   108998715.848        2383.926          46.000    21143891.742    83877508.160        1857.574          36.000    21143892.453    84359383.148        1857.488          47.000  
G16  21345251.977   109196949.773       -2329.480          46.000    21345259.195    84052023.648       -1815.172          34.000                                                                  
G 9  21615832.734   117397595.918        2139.836          46.000    21615843.414    92275145.641        1667.418          37.000    21615843.789    84363744.621        1667.340          48.000  
G26  23435923.945   125992425.176       -2760.980          44.000    23435935.523    92456832.914       -2151.457          32.000    23435935.945    92839375.887       -2151.242          46.000  
G 7                                                        46.000                                                          30.000                                                          42.000  
G 3  24407011.461   125984651.055       -2574.727          39.000    24407027.125   100838646.637       -2006.230          27.000    24407027.305   101224771.613       -2006.395          45.000  
S31                                                        46.000  
S25                                                        42.000  
S33                                                        43.000  
> 2019  3 11 18 49 37.0000000  0 11                     
G23  20443603.570   109082496.020         375.512          48.000    20443610.289    83961203.402         292.582          38.000                                                                  
G27                                                        49.000                                                          39.000                                                          48.000  
G 8  21143426.492   108996332.953        2382.629          46.000    21143438.242    83875651.363        1856.566          36.000    21143438.773    84357526.352        1856.805          47.000  
G16  21345695.289   109199279.844       -2330.117          47.000    21345702.578    84053839.289       -1815.695          34.000                                                                  
G 9  21615425.695   117395456.852        2138.957          47.000    21615436.320    92273478.852        1666.711          37.000    21615436.766    84362077.828        1666.660          48.000  
G26  23436449.633   125995186.508       -2760.965          44.000    23436461.102    92458984.598       -2151.414          32.000    23436461.312    92841527.570       -2151.426          45.000  
G 7                                                        46.000                                                          31.000                                                          42.000  
G 3  24407501.008   125987226.277       -2575.059          38.000    24407517.250   100840653.297       -2006.531          27.000    24407517.516   101226778.301       -2006.664          45.000  
S31                                                        45.000  
S25                                                        42.000  
S33                                                        42.000  
> 2019  3 11 18 49 38.0000000  0 11                     
G23  20443532.492   109082121.527         375.004          48.000    20443539.016    83960911.578         292.219          38.000                                                                  
G27                                                        49.000                                                          40.000                                                          48.000  
G 8  21142972.844   108993951.309        2382.180          46.000    21142984.945    83873795.539        1856.262          36.000    21142985.141    84355670.527        1856.160          47.000  
G16  21346138.898   109201610.875       -2330.332          46.000    21346146.156    84055655.664       -1815.852          34.000                                                                  
G 9  21615019.031   117393319.031        2138.605          46.000    21615029.500    92271813.004        1666.465          37.000    21615029.781    84360411.992        1666.277          48.000  
G26  23436975.367   125997948.602       -2761.301          44.000    23436986.797    92461136.855       -2151.668          32.000    23436987.141    92843679.840       -2151.566          46.000  
G 7                                                        47.000                                                          31.000                                                          42.000  
G 3  24407991.375   125989802.160       -2574.637          39.000    24408007.617   100842660.477       -2006.172          26.000    24408007.516   101228785.465       -2006.570          45.000  
S31                                                        46.000  
S25                                                        42.000  
S33                                                        43.000  
> 2019  3 11 18 49 39.0000000  0 11                     
G23  20443461.016   109081747.473         375.500          48.000    20443467.750    83960620.109         292.621          38.000                                                                  
G27                                                        49.000                                                          40.000                                                          48.000  
G 8  21142519.414   108991569.961        2382.695          46.000    21142531.750    83871939.941        1856.664          36.000    21142532.359    84353814.934        1856.625          47.000  
G16  21346582.312   109203941.902       -2329.461          46.000    21346589.711    84057472.039       -1815.176          33.000                                                                  
G 9  21614612.430   117391181.500        2139.043          46.000    21614622.711    92270147.395        1666.758          37.000    21614623.414    84358746.379        1666.707          48.000  
G26  23437499.992   126000710.434       -2760.309          43.000    23437512.250    92463288.934       -2150.852          32.000    23437512.641    92845831.918       -2150.660          45.000  
G 7                                                        46.000                                                          30.000                                                          42.000  
G 3  24408481.297   125992377.770       -2574.684          38.000    24408497.727   100844667.457       -2006.250          27.000    24408497.344   101230792.430       -2005.676          45.000  
S31                                                        46.000  
S25                                                        42.000  
S33                                                        43.000  
> 2019  3 11 18 49 40.0000000  0 11                     
G23  20443390.031   109081373.781         374.012          48.000    20443396.578    83960328.914         291.441          37.000                                                                  
G27                                                        49.000                                                          40.000                                                          48.000  
G 8  21142066.281   108989188.828        2381.504          46.000    21142078.617    83870084.512        1855.711          36.000    21142079.258    84351959.496        1855.551          47.000  
G16  21347025.883   109206272.844       -2330.613          46.000    21347033.242    84059288.367       -1816.098          33.000                                                                  
G 9  21614205.539   117389044.172        2137.570          46.000    21614215.977    92268481.945        1665.629          37.000    21614216.188    84357080.930        1665.578          48.000  
G26  23438025.414   126003471.965       -2761.164          43.000    23438037.805    92465440.773       -2151.551          31.000    23438038.516    92847983.746       -2151.434          45.000  
G 7                                                        46.000                                                          30.000                                                          42.000  
G 3  24408971.680   125994952.965       -2574.258          40.000    24408987.688   100846674.086       -2005.926          26.000    24408987.984   101232799.070       -2006.281          45.000  
S31                                                        46.000  
S25                                                        42.000  
S33                                                        43.000  
> 2019  3 11 18 49 41.0000000  0 11                     
G23  20443318.891   109080999.137         373.703          48.000    20443325.242    83960036.988         291.188          37.000                                                                  
G27                                                        49.000                                                          40.000                                                          49.000  
G 8  21141613.266   108986806.594        2380.902          46.000    21141625.273    83868228.223        1855.219          36.000    21141625.742    84350103.219        1855.512          47.000  
G16  21347469.336   109208602.379       -2330.418          46.000    21347476.547    84061103.598       -1815.898          33.000                                                                  
G 9  21613798.852   117386905.727        2137.375          47.000    21613808.992    92266815.613        1665.480          37.000    21613809.516    84355414.609        1665.582          48.000  
G26  23438550.680   126006231.867       -2760.648          43.000    23438563.000    92467591.352       -2151.152          31.000    23438563.180    92850134.340       -2151.199          45.000  
G 7                                                        46.000                                                          31.000                                                          42.000  
G 3  24409461.625   125997526.516       -2574.504          38.000    24409477.289   100848679.445       -2006.203          27.000    24409477.430   101234804.426       -2005.930          45.000  
S31                                                        46.000  
S25                                                        42.000  
S33                                                        43.000  
> 2019  3 11 18 49 42.0000000  0 11                     
G23  20443248.023   109080626.133         372.781          48.000    20443254.203    83959746.336         290.500          38.000                                                                  
G27                                                        49.000                                                          40.000                                                          49.000  
G 8  21141160.133   108984425.875        2380.879          46.000    21141172.250    83866373.129        1855.270          36.000    21141172.531    84348248.117        1855.094          47.000  
G16  21347912.945   109210933.113       -2330.648          46.000    21347920.164    84062919.754       -1816.051          34.000                                                                  
G 9  21613392.156   117384768.777        2137.047          47.000    21613402.320    92265150.469        1665.230          37.000    21613402.406    84353749.457        1665.055          48.000  
G26  23439076.758   126008992.754       -2760.457          43.000    23439088.383    92469742.695       -2150.957          31.000    23439088.906    92852285.684       -2151.121          45.000  
G 7                                                        47.000                                                          30.000                                                          42.000  
G 3  24409950.883   126000100.977       -2574.555          39.000    24409966.984   100850685.547       -2006.184          27.000    24409967.125   101236810.477       -2005.727          45.000  
S31                                                        46.000  
S25                                                        42.000  
S33                                                        43.000  
> 2019  3 11 18 49 43.0000000  0 11                     
G23  20443177.172   109080252.891         372.480          48.000    20443183.102    83959455.500         290.254          38.000                                                                  
G27                                                        49.000                                                          40.000                                                          48.000  
G 8  21140706.836   108982044.762        2380.418          46.000    21140719.016    83864517.715        1854.863          36.000    21140719.844    84346392.703        1854.652          47.000  
G16  21348356.180   109213263.145       -2330.445          46.000    21348363.516    84064735.359       -1815.953          34.000                                                                  
G 9  21612985.367   117382631.422        2136.785          46.000    21612995.555    92263485.004        1664.984          37.000    21612996.156    84352083.984        1664.938          48.000  
G26  23439601.602   126011752.762       -2760.816          43.000    23439613.523    92471893.352       -2151.242          31.000    23439613.773    92854436.312       -2151.055          45.000  
G 7                                                        47.000                                                          31.000                                                          42.000  
G 3  24410440.875   126002674.402       -2574.059          39.000    24410456.641   100852690.793       -2005.754          27.000    24410456.805   101238815.750       -2005.668          45.000  
S31                                                        46.000  
S25                                                        42.000  
S33                                                        43.000  
> 2019  3 11 18 49 44.0000000  0 11                     
G23  20443106.344   109079881.539         371.965          48.000    20443112.398    83959166.121         289.871          38.000                                                                  
G27                                                        49.000                                                          40.000                                                          47.000  
G 8  21140254.164   108979665.410        2379.918          46.000    21140266.156    83862663.672        1854.492          36.000    21140266.742    84344538.668        1854.434          46.000  
G16  21348799.852   109215594.637       -2330.789          46.000    21348807.250    84066552.102       -1816.176          34.000                                                                  
G 9  21612578.789   117380495.820        2136.141          46.000    21612589.172    92261820.887        1664.500          37.000    21612589.727    84350419.871        1664.395          47.000  
G26  23440126.547   126014513.949       -2760.457          42.000    23440138.977    92474044.914       -2151.055          31.000    23440139.617    92856587.898       -2150.941          44.000  
G 7                                                        47.000                                                          31.000                                                          40.000  
G 3  24410930.852   126005249.023       -2574.113          38.000    24410946.680   100854696.973       -2005.789          27.000    24410946.672   101240821.938       -2005.598          43.000  
S31                                                        46.000  
S25                                                        42.000  
S33                                                        43.000  
> 2019  3 11 18 49 45.0000000  0 11                     
G23  20443035.898   109079511.816         370.820          48.000    20443041.977    83958878.035         288.969          37.000                                                                  
G27                                                        49.000                                                          40.000                                                          49.000  
G 8  21139801.438   108977287.547        2379.348          46.000    21139813.617    83860810.789        1854.008          35.000    21139814.672    84342685.785        1853.773          47.000  
G16  21349243.805   109217927.281       -2331.250          46.000    21349251.094    84068369.746       -1816.559          33.000                                                                  
G 9  21612172.523   117378361.684        2135.348          47.000    21612183.031    92260157.922        1663.938          37.000    21612183.617    84348756.906        1664.117          48.000  
G26  23440652.008   126017276.102       -2760.633          43.000    23440664.625    92476197.246       -2151.102          31.000    23440664.820    92858740.238       -2151.090          46.000  
G 7                                                        47.000                                                          30.000                                                          42.000  
G 3  24411421.117   126007824.559       -2574.043          40.000    24411436.727   100856703.848       -2005.711          26.000    24411436.867   101242828.809       -2005.488          45.000  
S31                                                        46.000  
S25                                                        42.000  
S33                                                        43.000  
> 2019  3 11 18 49 46.0000000  0 11                     
G23  20442965.492   109079142.344         370.219          48.000    20442971.664    83958590.133         288.488          38.000                                                                  
G27                                                        49.000                                                          40.000                                                          49.000  
G 8  21139349.461   108974909.793        2378.590          47.000    21139361.031    83858958.000        1853.445          36.000    21139362.367    84340832.988        1853.344          47.000  
G16  21349687.758   109220259.742       -2331.605          46.000    21349694.930    84070187.258       -1816.828          34.000                                                                  
G 9  21611766.492   117376227.648        2134.742          46.000    21611776.867    92258495.043        1663.469          37.000    21611777.445    84347094.023        1663.613          48.000  
G26  23441178.000   126020037.863       -2761.055          42.000    23441190.086    92478349.273       -2151.496          31.000    23441190.508    92860892.254       -2151.574          45.000  
G 7                                                        47.000                                                          31.000                                                          42.000  
G 3  24411910.758   126010399.523       -2573.633          39.000    24411926.609   100858710.332       -2005.422          26.000    24411927.203   101244835.320       -2005.547          45.000  
S31                                                        46.000  
S25                                                        42.000  
S33                                                        43.000  
> 2019  3 11 18 49 47.0000000  0 12                     
G23  20442895.062   109078770.453         369.465          48.000    20442900.852    83958300.352         287.848          38.000                                                                  
G27                                                        49.000                                                          40.000                                                          48.000  
G 8  21138896.500   108972529.488        2377.719          47.000    21138908.000    83857103.219        1852.738          36.000    21138909.281    84338978.203        1853.117          47.000  
G16  21350130.883   109222589.340       -2331.816          46.000    21350138.250    84072002.527       -1817.051          34.000                                                                  
G 9  21611360.008   117374091.043        2134.242          46.000    21611370.258    92256830.156        1663.008          37.000    21611370.906    84345429.141        1663.031          48.000  
G26  23441702.875   126022796.527       -2760.703          42.000    23441714.992    92480498.879       -2151.184          30.000    23441715.719    92863041.867       -2151.309          45.000  
G 7                                                        47.000                                                          31.000                                                          42.000  
G 3  24412400.250   126012971.395       -2573.961          38.000    24412415.836   100860714.379       -2005.660          26.000    24412416.492   101246839.375       -2005.742          45.000  
S31                                                        46.000  
S25                                                        42.000  
S38                              1                         45.000  
S33                                                        43.000  
> 2019  3 11 18 49 48.0000000  0 12                     
G23  20442825.070   109078404.219         368.867          48.000    20442831.109    83958014.977         287.441          38.000                                                                  
G27                                                        49.000                                                          40.000                                                          48.000  
G 8  21138444.688   108970154.684        2377.574          47.000    21138455.984    83855252.715        1852.648          36.000    21138457.070    84337127.707        1852.734          47.000  
G16  21350575.188   109224924.137       -2331.887          46.000    21350582.500    84073821.859       -1816.980          34.000                                                                  
G 9  21610954.398   117371959.926        2133.914          46.000    21610964.664    92255169.547        1662.809          37.000    21610965.242    84343768.531        1662.977          48.000  
G26  23442228.984   126025560.180       -2760.500          43.000    23442240.898    92482652.371       -2151.008          31.000    23442241.836    92865195.348       -2150.914          46.000  
G 7                                                        47.000                                                          31.000                                                          42.000  
G 3  24412890.484   126015548.164       -2573.910          39.000    24412906.016   100862722.254       -2005.641          26.000    24412906.734   101248847.250       -2005.531          45.000  
S31                                                        46.000  
S25                                                        42.000  
S38                                                        45.000  
S33                                                        43.000  
> 2019  3 11 18 49 49.0000000  0 12                     
G23  20442754.570   109078033.902         368.523          48.000    20442760.625    83957726.410         287.168          38.000                                                                  
G27  20545645.242   109076917.945         386.508          49.000    20545655.141    83952831.543         301.145          40.000    20545655.844    84390676.531         301.176          48.000  
G 8  21137992.211   108967775.648        2377.613          47.000    21138003.234    83853398.922        1852.676          36.000    21138004.234    84335273.918        1852.586          47.000  
G16  21351018.633   109227254.410       -2331.793          46.000    21351025.969    84075637.648       -1816.992          34.000                                                                  
G 9  21610548.180   117369824.578        2133.738          46.000    21610558.289    92253505.641        1662.609          37.000    21610559.133    84342104.621        1662.680          48.000  
G26  23442753.891   126028319.078       -2760.121          43.000    23442765.992    92484802.160       -2150.723          32.000    23442766.586    92867345.152       -2150.867          46.000  
G 7  23971361.195   125755447.754        2403.945          47.000    23971369.609   100614325.328        1873.164          31.000    23971370.242   101112294.316        1873.234          42.000  
G 3  24413378.695   126018120.156       -2574.141          39.000    24413395.562   100864726.406       -2005.867          26.000    24413395.750   101250851.371       -2005.109          44.000  
S31                                                        46.000  
S25                                                        42.000  
S38                                                        45.000  
S33                                                        43.000  
> 2019  3 11 18 49 50.0000000  0 12                     
G23  20442685.023   109077667.711         367.273          48.000    20442690.930    83957441.070         286.207          37.000                                                                  
G27  20545572.234   109076533.895         385.250          49.000    20545582.000    83952532.273         300.191          40.000    20545582.609    84390377.266         300.113          48.000  
G 8  21137540.125   108965400.625        2376.387          47.000    21137551.219    83851548.250        1851.719          36.000    21137552.172    84333423.242        1851.723          47.000  
G16  21351462.703   109229588.348       -2332.395          47.000    21351470.148    84077456.305       -1817.453          34.000                                                                  
G 9  21610142.875   117367693.203        2132.555          46.000    21610152.711    92251844.836        1661.730          36.000    21610153.594    84340443.816        1661.922          48.000  
G26  23443279.727   126031081.434       -2760.867          43.000    23443291.648    92486954.637       -2151.309          31.000    23443292.180    92869497.637       -2151.344          45.000  
G 7  23970904.086   125753045.953        2403.168          46.000    23970912.539   100612453.785        1872.590          31.000    23970913.711   101110422.770        1872.895          42.000  
G 3  24413868.906   126020695.496       -2573.441          38.000    24413885.461   100866733.121       -2005.336          25.000    24413886.359   101252858.133       -2005.668          45.000  
S31                                                        46.000  
S25                                                        42.000  
S38                                                        45.000  
S33                                                        43.000  
> 2019  3 11 18 49 51.0000000  0 12                     
G23  20442615.086   109077299.477         366.004          48.000    20442620.797    83957154.129         285.211          38.000                                                                  
G27  20545498.852   109076147.867         383.820          49.000    20545508.508    83952231.477         299.102          40.000    20545509.164    84390076.465         299.121          48.000  
G 8  21137087.609   108963023.414        2375.102          47.000    21137098.852    83849695.867        1850.762          36.000    21137099.984    84331570.863        1850.652          47.000  
G16  21351906.727   109231919.797       -2333.480          46.000    21351913.758    84079273.004       -1818.270          35.000                                                                  
G 9  21609736.648   117365559.629        2131.457          46.000    21609746.727    92250182.297        1660.945          37.000    21609747.359    84338781.270        1661.055          48.000  
G26  23443804.828   126033841.086       -2761.402          43.000    23443816.875    92489105.016       -2151.734          32.000    23443817.484    92871648.012       -2152.031          46.000  
G 7  23970446.711   125750641.332        2402.812          47.000    23970454.859   100610580.055        1872.332          31.000    23970455.414   101108549.066        1872.078          42.000  
G 3  24414359.000   126023268.027       -2573.137          37.000    24414374.828   100868737.699       -2004.973          26.000    24414375.797   101254862.715       -2006.047          45.000  
S31                                                        46.000  
S25                                                        42.000  
S38                                                        45.000  
S33                                                        43.000  
> 2019  3 11 18 49 52.0000000  0 12                     
G23  20442544.914   109076931.367         366.961          48.000    20442550.750    83956867.301         285.961          38.000                                                                  
G27  20545425.508   109075762.031         384.812          49.000    20545435.047    83951930.832         299.887          40.000    20545436.031    84389775.812         299.719          48.000  
G 8  21136635.266   108960646.211        2375.910          46.000    21136646.469    83847843.508        1851.363          36.000    21136647.461    84329718.484        1851.641          47.000  
G16  21352350.180   109234250.957       -2332.289          47.000    21352357.320    84081089.492       -1817.371          34.000                                                                  
G 9  21609330.633   117363426.035        2132.410          46.000    21609340.672    92248519.750        1661.637          37.000    21609341.469    84337118.730        1661.906          48.000  
G26  23444330.094   126036600.223       -2759.953          43.000    23444341.922    92491254.996       -2150.605          32.000    23444342.539    92873797.973       -2150.527          45.000  
G 7  23969989.172   125748236.168        2404.379          47.000    23969997.023   100608705.910        1873.562          31.000    23969997.719   101106674.898        1873.793          42.000  
G 3  24414848.664   126025840.074       -2573.746          38.000    24414864.312   100870741.887       -2005.676          26.000    24414865.008   101256866.832       -2004.715          45.000  
S31                                                        46.000  
S25                                                        42.000  
S38                                                        45.000  
S33                                                        43.000  
> 2019  3 11 18 49 53.0000000  0 12                     
G23  20442475.219   109076565.070         365.496          48.000    20442481.039    83956581.879         284.824          38.000                                                                  
G27  20545352.492   109075378.082         382.973          49.000    20545361.977    83951631.652         298.438          40.000    20545362.391    84389476.633         298.422          48.000  
G 8  21136183.039   108958270.656        2374.691          46.000    21136194.430    83845992.430        1850.430          36.000    21136195.852    84327867.418        1850.328          47.000  
G16  21352793.992   109236583.449       -2333.102          46.000    21352801.164    84082907.020       -1818.004          34.000                                                                  
G 9  21608924.984   117361294.098        2131.176          46.000    21608934.906    92246858.523        1660.656          37.000    21608935.914    84335457.508        1660.496          48.000  
G26  23444855.344   126039360.477       -2760.875          43.000    23444867.188    92493405.852       -2151.324          32.000    23444867.938    92875948.820       -2151.297          45.000  
G 7  23969531.398   125745832.105        2403.391          47.000    23969539.484   100606832.621        1872.848          31.000    23969540.250   101104801.590        1872.980          42.000  
G 3  24415338.133   126028413.059       -2572.992          38.000    24415353.867   100872746.785       -2004.953          26.000    24415355.297   101258871.793       -2005.441          45.000  
S31                                                        46.000  
S25                                                        42.000  
S38                                                        46.000  
S33                                                        43.000  
> 2019  3 11 18 49 54.0000000  0 12                     
G23  20442405.383   109076199.062         365.012          48.000    20442411.383    83956296.680         284.418          38.000                                                                  
G27  20545279.391   109074994.469         382.711          49.000    20545288.930    83951332.738         298.230          40.000    20545289.758    84389177.723         298.137          48.000  
G 8  21135731.219   108955895.262        2374.574          46.000    21135742.406    83844141.477        1850.332          36.000    21135743.586    84326016.449        1850.516          47.000  
G16  21353237.828   109238915.789       -2333.102          46.000    21353244.953    84084724.426       -1817.980          34.000                                                                  
G 9  21608519.180   117359162.293        2131.004          46.000    21608529.289    92245197.387        1660.543          37.000    21608530.500    84333796.367        1660.492          47.000  
G26  23445380.297   126042120.352       -2760.457          43.000    23445392.367    92495556.402       -2151.031          32.000    23445392.695    92878099.375       -2150.840          45.000  
G 7  23969073.680   125743427.586        2403.512          46.000    23969081.945   100604958.953        1872.824          31.000    23969082.633   101102927.941        1873.281          42.000  
G 3  24415828.234   126030985.664       -2573.086          38.000    24415843.477   100874751.422       -2004.984          27.000    24415844.523   101260876.418       -2005.262          45.000  
S31                                                        45.000  
S25                                                        42.000  
S38                                                        45.000  
S33                                                        43.000  
> 2019  3 11 18 49 55.0000000  0 12                     
G23  20442335.914   109075834.227         363.883          48.000    20442341.969    83956012.391         283.562          38.000                                                                  
G27  20545206.727   109074612.090         381.469          49.000    20545216.164    83951034.773         297.258          40.000    20545216.906    84388879.762         297.371          48.000  
G 8  21135279.156   108953520.871        2374.031          46.000    21135290.602    83842291.297        1849.895          36.000    21135292.297    84324166.301        1849.582          47.000  
G16  21353681.898   109241248.840       -2333.543          46.000    21353688.906    84086542.375       -1818.355          34.000                                                                  
G 9  21608113.828   117357031.504        2130.066          46.000    21608123.820    92243537.031        1659.812          37.000    21608124.602    84332136.012        1659.898          48.000  
G26  23445905.812   126044880.734       -2760.629          44.000    23445917.648    92497707.340       -2151.160          32.000    23445918.398    92880250.332       -2151.590          45.000  
G 7  23968616.570   125741023.484        2403.938          47.000    23968624.406   100603085.625        1873.207          31.000    23968625.883   101101054.625        1873.180          41.000  
G 3  24416318.203   126033558.680       -2573.375          39.000    24416333.086   100876756.359       -2005.262          27.000    24416334.484   101262881.363       -2005.523          45.000  
S31                                                        46.000  
S25                                                        43.000  
S38                                                        46.000  
S33                                                        43.000  
> 2019  3 11 18 49 56.0000000  0 12                     
G23  20442266.305   109075467.957         363.926          48.000    20442272.242    83955726.980         283.570          37.000                                                                  
G27  20545133.414   109074228.344         381.336          49.000    20545143.055    83950735.754         297.148          40.000    20545143.844    84388580.727         297.266          48.000  
G 8  21134827.016   108951144.961        2373.656          46.000    21134838.477    83840439.938        1849.613          36.000    21134839.781    84322314.918        1849.562          47.000  
G16  21354125.156   109243580.031       -2333.473          46.000    21354132.492    84088358.895       -1818.309          34.000                                                                  
G 9  21607708.250   117354899.137        2129.996          47.000    21607718.008    92241875.426        1659.750          37.000    21607718.789    84330474.422        1659.652          48.000  
G26  23446430.625   126047639.027       -2760.473          44.000    23446442.492    92499856.656       -2151.035          32.000    23446443.594    92882399.629       -2150.949          46.000  
G 7  23968158.586   125738617.250        2404.148          47.000    23968166.430   100601210.660        1873.371          30.000    23968167.180   101099179.648        1873.492          41.000  
G 3  24416807.562   126036129.543       -2572.941          39.000    24416822.461   100878759.609       -2004.941          27.000    24416823.594   101264884.598       -2004.820          45.000  
S31                                                        46.000  
S25                                                        42.000  
S38                                                        46.000  
S33                                                        43.000  
> 2019  3 11 18 49 57.0000000  0 12                     
G23  20442197.078   109075104.352         362.949          48.000    20442203.070    83955443.664         282.805          38.000                                                                  
G27  20545061.031   109073847.336         380.238          49.000    20545070.516    83950438.867         296.277          40.000    20545071.180    84388283.840         296.426          48.000  
G 8  21134375.539   108948771.516        2373.789          46.000    21134386.844    83838590.496        1849.734          36.000    21134388.391    84320465.508        1849.055          47.000  
G16  21354569.289   109245913.422       -2333.762          46.000    21354576.539    84090177.121       -1818.520          34.000                                                                  
G 9  21607302.734   117352769.273        2129.309          47.000    21607312.742    92240215.797        1659.215          37.000    21607313.477    84328814.785        1659.297          48.000  
G26  23446956.086   126050399.301       -2760.539          43.000    23446967.805    92502007.516       -2151.082          32.000    23446968.680    92884550.488       -2150.820          45.000  
G 7  23967700.852   125736212.969        2404.215          47.000    23967708.914   100599337.203        1873.367          30.000    23967709.672   101097306.172        1873.645          41.000  
G 3  24417296.914   126038702.320       -2573.023          40.000    24417312.156   100880764.367       -2004.887          28.000    24417312.711   101266889.348       -2004.832          45.000  
S31                                                        46.000  
S25                                                        42.000  
S38                                                        46.000  
S33                                                        43.000  
> 2019  3 11 18 49 58.0000000  0 12                     
G23  20442127.891   109074740.977         362.078          48.000    20442133.891    83955160.504         282.141          38.000                                                                  
G27  20544988.625   109073466.602         379.262          49.000    20544998.039    83950142.184         295.527          40.000    20544999.016    84387987.164         295.594          48.000  
G 8  21133924.203   108946398.223        2372.312          46.000    21133935.219    83836741.184        1848.570          36.000    21133936.211    84318616.156        1848.676          47.000  
G16  21355013.445   109248246.598       -2334.094          46.000    21355020.547    84091995.184       -1818.746          34.000                                                                  
G 9  21606897.297   117350639.480        2128.598          47.000    21606907.445    92238556.227        1658.629          37.000    21606908.188    84327155.211        1658.617          48.000  
G26  23447481.086   126053159.121       -2760.566          43.000    23447493.031    92504158.031       -2151.082          32.000    23447493.562    92886701.012       -2151.094          46.000  
G 7  23967243.203   125733808.191        2404.168          47.000    23967251.258   100597463.332        1873.430          30.000    23967252.773   101095432.316        1873.266          41.000  
G 3  24417786.789   126041274.578       -2573.020          40.000    24417801.562   100882768.715       -2004.848          27.000    24417802.477   101268893.695       -2004.859          45.000  
S31                                                        45.000  
S25                                                        42.000  
S38                                                        46.000  
S33                                                        43.000  
> 2019  3 11 18 49 59.0000000  0 20                     
G23  20442059.070   109074379.117         361.879          48.000    20442064.984    83954878.543         281.969          37.000                                                                  
G27  20544916.359   109073087.449         379.191          49.000    20544925.859    83949846.746         295.477          39.000    20544926.969    84387691.727         295.441          48.000  
G 8  21133472.758   108944026.281        2372.336          46.000    21133483.852    83834892.918        1848.602          35.000    21133484.781    84316767.906        1848.434          47.000  
G16  21355457.703   109250580.832       -2333.891          46.000    21355464.664    84093814.062       -1818.605          34.000                                                                  
G 9  21606492.445   117348511.051        2128.664          47.000    21606502.422    92236897.715        1658.699          37.000    21606503.039    84325496.711        1658.410          48.000  
G26  23448006.586   126055919.812       -2760.301          44.000    23448018.328    92506309.219       -2150.887          32.000    23448018.938    92888852.203       -2150.770          45.000  
G 7  23966785.719   125731404.211        2404.594          47.000    23966793.781   100595590.090        1873.742          31.000    23966795.062   101093559.090        1873.379          41.000  
G 3  24418276.367   126043847.617       -2572.688          40.000    24418291.258   100884773.699       -2004.652          27.000    24418293.031   101270898.680       -2004.625          46.000  
R 6  20883693.406   109272751.613       -2932.121          40.000                                                                  
R18  21463472.148   117498106.309        -197.195          44.000    21463478.312    92329214.059        -153.441          43.000  
R 9  21348774.344   117423803.504         992.996          44.000    21348777.477    92272007.7541        772.020          44.000  
R16  21270284.328   117557492.113       -1132.074          39.000    21270288.586    92373868.824        -880.555          37.000  
R19  21494836.969   117408752.5431       3094.902          37.000    21494841.008    92265866.535        2407.766          39.000  
R17                              1                         40.000                                                          32.000  
R 7  21113313.320   109057671.6721        662.152          46.000    21113315.695    83904256.340         514.980          44.000  
