% program   : RTKPOST ver.demo5 b31
% inp file  : D:\Data\Fla\Tampa-StPete-area\WGI-larrysanders\2019\0311\GPS\UAS\GP145212.obs
% inp file  : D:\Data\Fla\Tampa-StPete-area\WGI-larrysanders\2019\0311\GPS\MCD6\mcd60700.19o
% inp file  : D:\Data\Fla\Tampa-StPete-area\WGI-larrysanders\2019\0311\GPS\ZEFR\zefr0700.19n
% inp file  : D:\Data\Fla\Tampa-StPete-area\WGI-larrysanders\2019\0311\GPS\ZEFR\igu20441_18.sp3
% inp file  : D:\Data\Fla\Tampa-StPete-area\WGI-larrysanders\2019\0311\GPS\ZEFR\zefr0700.19g
% obs start : 2019/03/11 14:52:12.5 UTC (week2044 139950.5s)
% obs end   : 2019/03/11 15:13:07.8 UTC (week2044 141205.8s)
% pos mode  : kinematic
% freqs     : L1+L2
% solution  : combined
% elev mask : 15.0 deg
% dynamics  : on
% tidecorr  : off
% ionos opt : broadcast
% tropo opt : saastamoinen
% ephemeris : precise
% navi sys  : gps glonass sbas
% amb res   : continuous
% amb glo   : fix and hold
% val thres : 3.0
% antenna1  :                       ( 0.0000  0.0000  0.0000)
% antenna2  :                       ( 0.0000  0.0000  0.0000)
% ref pos   : 27.849816036  -82.532588893   -14.2001
%
% (lat/lon/height=WGS84/ellipsoidal,Q=1:fix,2:float,3:sbas,4:dgps,5:single,6:ppp,ns=# of satellites)
%  UTC                   latitude(deg) longitude(deg)  height(m)   Q  ns   sdn(m)   sde(m)   sdu(m)  sdne(m)  sdeu(m)  sdun(m) age(s)  ratio
2019/03/11 14:52:23.600   27.894570765  -82.373418529   -20.7422   1   5   0.0335   0.0131   0.0202  -0.0153   0.0077   0.0130   1.60  145.7
2019/03/11 14:52:23.800   27.894570733  -82.373418532   -20.7411   1   5   0.0338   0.0134   0.0204  -0.0157   0.0083   0.0126   1.80  145.9
2019/03/11 14:52:24.000   27.894570828  -82.373418591   -20.7427   1   5   0.0343   0.0140   0.0208  -0.0163   0.0095   0.0120   2.00  146.4
2019/03/11 14:52:24.200   27.894570862  -82.373418694   -20.7531   1   5   0.0360   0.0157   0.0214  -0.0182   0.0111   0.0106   2.20  146.4
2019/03/11 14:52:24.400   27.894570904  -82.373418708   -20.7585   1   5   0.0457   0.0207   0.0218  -0.0267   0.0138  -0.0050   2.40  145.1
2019/03/11 14:52:24.600   27.894570794  -82.373418665   -20.7581   1   5   0.0307   0.0122   0.0207  -0.0121   0.0087   0.0144   2.60  143.3
2019/03/11 14:52:24.800   27.894570787  -82.373418655   -20.7516   1   5   0.0308   0.0123   0.0209  -0.0122   0.0088   0.0143   2.80  141.8
2019/03/11 14:52:25.000   27.894570817  -82.373418700   -20.7476   1   5   0.0308   0.0125   0.0210  -0.0123   0.0089   0.0142   3.00  140.6
2019/03/11 14:52:25.200   27.894570797  -82.373418700   -20.7285   1   5   0.0309   0.0126   0.0211  -0.0123   0.0090   0.0142   3.20  140.8
2019/03/11 14:52:25.400   27.894570788  -82.373418647   -20.7287   1   5   0.0310   0.0127   0.0213  -0.0124   0.0090   0.0141   3.40  141.0
2019/03/11 14:52:25.600   27.894570804  -82.373418582   -20.7306   1   5   0.0310   0.0129   0.0215  -0.0125   0.0091   0.0140   3.60  140.2
2019/03/11 14:52:25.800   27.894570873  -82.373418679   -20.7511   1   5   0.0311   0.0130   0.0216  -0.0126   0.0092   0.0140   3.80  139.3
2019/03/11 14:52:26.000   27.894570924  -82.373418702   -20.7490   1   5   0.0312   0.0132   0.0218  -0.0127   0.0093   0.0139   4.00  139.2
2019/03/11 14:52:26.200   27.894570799  -82.373418627   -20.7386   1   5   0.0312   0.0133   0.0220  -0.0128   0.0094   0.0138   4.20  138.6
2019/03/11 14:52:26.400   27.894570774  -82.373418553   -20.7333   1   5   0.0313   0.0135   0.0222  -0.0129   0.0095   0.0137   4.40  138.8
2019/03/11 14:52:26.600   27.894570707  -82.373418587   -20.7330   1   5   0.0314   0.0137   0.0224  -0.0130   0.0096   0.0136   4.60  138.9
2019/03/11 14:52:26.800   27.894570666  -82.373418539   -20.7268   1   5   0.0315   0.0138   0.0223  -0.0130   0.0095   0.0137   4.80  138.5
2019/03/11 14:52:27.000   27.894570637  -82.373418526   -20.7339   1   5   0.0309   0.0120   0.0203  -0.0124   0.0090   0.0142   0.00  138.0
2019/03/11 14:52:27.200   27.894570732  -82.373418529   -20.7402   1   5   0.0316   0.0139   0.0226  -0.0132   0.0098   0.0135   0.20  137.3
2019/03/11 14:52:27.400   27.894570773  -82.373418474   -20.7345   1   5   0.0316   0.0139   0.0224  -0.0132   0.0098   0.0135   0.40  136.6
2019/03/11 14:52:27.600   27.894570763  -82.373418476   -20.7391   1   5   0.0316   0.0138   0.0223  -0.0133   0.0098   0.0135   0.60  136.6
2019/03/11 14:52:27.800   27.894570738  -82.373418527   -20.7338   1   5   0.0316   0.0136   0.0219  -0.0133   0.0096   0.0136   0.80  136.2
2019/03/11 14:52:28.000   27.894570719  -82.373418589   -20.7285   1   5   0.0308   0.0118   0.0204  -0.0125   0.0067   0.0138   1.00  135.7
2019/03/11 14:52:28.200   27.894570766  -82.373418605   -20.7431   1   5   0.0309   0.0118   0.0203  -0.0126   0.0069   0.0138   1.20  136.0
2019/03/11 14:52:28.400   27.894570948  -82.373418668   -20.7614   1   5   0.0310   0.0119   0.0202  -0.0127   0.0070   0.0138   1.40  135.5
2019/03/11 14:52:28.600   27.894570872  -82.373418582   -20.7562   1   5   0.0310   0.0120   0.0201  -0.0128   0.0072   0.0138   1.60  135.1
2019/03/11 14:52:28.800   27.894570807  -82.373418597   -20.7521   1   5   0.0312   0.0121   0.0201  -0.0130   0.0074   0.0137   1.80  135.1
2019/03/11 14:52:29.000   27.894570789  -82.373418595   -20.7446   1   5   0.0313   0.0121   0.0201  -0.0132   0.0077   0.0135   2.00  135.3
2019/03/11 14:52:29.200   27.894570740  -82.373418603   -20.7602   1   5   0.0315   0.0123   0.0202  -0.0135   0.0082   0.0131   2.20  137.4
2019/03/11 14:52:29.400   27.894570828  -82.373418567   -20.7603   1   5   0.0329   0.0134   0.0203  -0.0153   0.0092   0.0120   2.40  138.5
2019/03/11 14:52:29.600   27.894570967  -82.373418668   -20.7609   1   5   0.0422   0.0193   0.0211  -0.0244   0.0128  -0.0022   2.60  138.7
2019/03/11 14:52:29.800   27.894570415  -82.373418327   -20.7379   1   5   0.0268   0.0091   0.0199  -0.0063   0.0059   0.0157   2.80  138.1
2019/03/11 14:52:30.000   27.894570427  -82.373418383   -20.7435   1   5   0.0268   0.0090   0.0197  -0.0060   0.0054   0.0160   3.00  138.0
2019/03/11 14:52:30.200   27.894571463  -82.373418261   -20.6793   1   8   0.0239   0.0060   0.0172  -0.0033  -0.0050   0.0158   3.20   56.6
2019/03/11 14:52:30.400   27.894571479  -82.373418302   -20.6751   1   8   0.0243   0.0061   0.0175  -0.0033  -0.0050   0.0161   3.40   55.8
2019/03/11 14:52:30.600   27.894571353  -82.373418278   -20.6804   1   8   0.0247   0.0063   0.0178  -0.0032  -0.0049   0.0164   3.60   55.0
2019/03/11 14:52:30.800   27.894571210  -82.373418248   -20.6820   1   8   0.0251   0.0064   0.0181  -0.0032  -0.0049   0.0167   3.80   54.3
2019/03/11 14:52:31.000   27.894571171  -82.373418259   -20.6803   1   8   0.0255   0.0065   0.0184  -0.0032  -0.0050   0.0170   4.00   53.5
2019/03/11 14:52:31.200   27.894571159  -82.373418295   -20.6819   1   8   0.0259   0.0066   0.0187  -0.0033  -0.0050   0.0173   4.20   52.7
2019/03/11 14:52:31.400   27.894571194  -82.373418275   -20.6806   1   8   0.0263   0.0067   0.0190  -0.0033  -0.0051   0.0176   4.40   52.0
2019/03/11 14:52:31.600   27.894571206  -82.373418279   -20.6789   1   8   0.0267   0.0068   0.0194  -0.0033  -0.0050   0.0179   4.60   51.1
2019/03/11 14:52:31.800   27.894571306  -82.373418094   -20.7141   1   8   0.0272   0.0070   0.0196  -0.0033  -0.0049   0.0182   4.80   50.5
2019/03/11 14:52:32.000   27.894571333  -82.373418118   -20.7202   1   8   0.0273   0.0057   0.0177  -0.0042  -0.0045   0.0185   0.00   49.6
2019/03/11 14:52:32.200   27.894571474  -82.373418109   -20.7138   1   8   0.0283   0.0070   0.0202  -0.0035  -0.0050   0.0191   0.20   48.2
2019/03/11 14:52:32.400   27.894571455  -82.373418097   -20.7102   1   8   0.0288   0.0069   0.0202  -0.0037  -0.0050   0.0195   0.40   47.6
2019/03/11 14:52:32.600   27.894571559  -82.373418037   -20.7054   1   8   0.0293   0.0068   0.0203  -0.0039  -0.0050   0.0199   0.60   46.9
2019/03/11 14:52:32.800   27.894571578  -82.373418135   -20.6822   1   8   0.0298   0.0067   0.0203  -0.0041  -0.0050   0.0203   0.80   46.3
2019/03/11 14:52:33.000   27.894571509  -82.373418253   -20.6523   1   8   0.0305   0.0067   0.0205  -0.0043  -0.0050   0.0208   1.00   45.6
2019/03/11 14:52:33.200   27.894571487  -82.373418207   -20.6659   1   8   0.0312   0.0066   0.0206  -0.0045  -0.0051   0.0213   1.20   45.1
2019/03/11 14:52:33.400   27.894571469  -82.373418176   -20.6799   1   8   0.0320   0.0065   0.0208  -0.0047  -0.0051   0.0219   1.40   44.6
2019/03/11 14:52:33.600   27.894571463  -82.373418334   -20.6737   1   8   0.0329   0.0065   0.0210  -0.0050  -0.0052   0.0226   1.60   43.9
2019/03/11 14:52:33.800   27.894571491  -82.373418300   -20.6663   1   8   0.0338   0.0065   0.0214  -0.0053  -0.0052   0.0234   1.80   43.2
2019/03/11 14:52:34.000   27.894571464  -82.373418302   -20.6538   1   8   0.0352   0.0063   0.0218  -0.0062  -0.0057   0.0244   2.00   42.6
2019/03/11 14:52:34.200   27.894571471  -82.373418369   -20.6557   1   8   0.0377   0.0065   0.0224  -0.0072  -0.0060   0.0258   2.20   41.8
2019/03/11 14:52:34.400   27.894571370  -82.373418406   -20.6608   1   8   0.0361   0.0067   0.0220  -0.0058  -0.0050   0.0250   2.40   40.9
2019/03/11 14:52:34.600   27.894571351  -82.373418407   -20.6567   1   8   0.0374   0.0063   0.0224  -0.0065  -0.0058   0.0259   2.60   40.3
2019/03/11 14:52:34.800   27.894571483  -82.373418419   -20.6509   1   8   0.0390   0.0064   0.0233  -0.0068  -0.0060   0.0271   2.80   39.5
2019/03/11 14:52:35.000   27.894571558  -82.373418407   -20.6437   1   8   0.0408   0.0065   0.0242  -0.0070  -0.0061   0.0284   3.00   38.7
2019/03/11 14:52:35.200   27.894571721  -82.373418376   -20.6369   1   8   0.0428   0.0066   0.0251  -0.0073  -0.0063   0.0298   3.20   38.0
2019/03/11 14:52:35.400   27.894571427  -82.373418418   -20.6611   1   8   0.0448   0.0063   0.0257  -0.0075  -0.0068   0.0311   3.40   33.7
2019/03/11 14:52:35.600   27.894571535  -82.373418436   -20.6606   1   8   0.0480   0.0065   0.0274  -0.0077  -0.0068   0.0335   3.60   33.1
2019/03/11 14:52:35.800   27.894571711  -82.373418448   -20.6571   1   8   0.0527   0.0068   0.0302  -0.0077  -0.0068   0.0374   3.80   32.7
2019/03/11 14:52:36.000   27.894571870  -82.373418448   -20.6470   1   8   0.0608   0.0070   0.0344  -0.0066  -0.0063   0.0434   4.00   32.3
2019/03/11 14:52:36.200   27.894571811  -82.373418494   -20.6420   1   6   0.0675   0.0071   0.0379  -0.0076  -0.0069   0.0485   4.20   31.8
2019/03/11 14:52:36.400   27.894571960  -82.373418472   -20.6220   1   6   0.0767   0.0074   0.0417  -0.0108  -0.0088   0.0545   4.40   31.2
2019/03/11 14:52:36.600   27.894572142  -82.373418465   -20.6085   1   6   0.0809   0.0083   0.0422  -0.0154  -0.0114   0.0564   4.60   30.7
2019/03/11 14:52:36.800   27.894571237  -82.373418435   -20.6627   1   6   0.0369   0.0070   0.0240   0.0089   0.0045   0.0261   4.80    4.4
2019/03/11 14:52:37.000   27.894571119  -82.373418488   -20.6638   1   6   0.0282   0.0055   0.0184   0.0074   0.0038   0.0195   0.00    4.3
2019/03/11 14:52:37.200   27.894571114  -82.373418456   -20.6650   1   6   0.0381   0.0071   0.0250   0.0091   0.0047   0.0273   0.20    4.2
2019/03/11 14:52:37.400   27.894571198  -82.373418445   -20.6600   1   6   0.0374   0.0069   0.0245   0.0090   0.0047   0.0267   0.40    4.0
2019/03/11 14:52:37.600   27.894571299  -82.373418451   -20.6573   1   6   0.0367   0.0068   0.0240   0.0088   0.0046   0.0262   0.60    3.9
2019/03/11 14:52:37.800   27.894571536  -82.373418482   -20.6423   1   6   0.0360   0.0067   0.0236   0.0087   0.0045   0.0256   0.80    3.8
2019/03/11 14:52:38.000   27.894571404  -82.373418451   -20.6466   1   6   0.0353   0.0066   0.0231   0.0086   0.0045   0.0251   1.00    3.6
2019/03/11 14:52:38.200   27.894571492  -82.373418450   -20.6455   1   6   0.0246   0.0046   0.0161   0.0060   0.0031   0.0174  -3.80    3.6
2019/03/11 14:52:38.400   27.894571420  -82.373418469   -20.6475   1   6   0.0246   0.0046   0.0161   0.0059   0.0031   0.0175  -3.60    3.5
2019/03/11 14:52:38.600   27.894571587  -82.373418516   -20.6360   1   6   0.0266   0.0045   0.0167   0.0052   0.0024   0.0188  -3.40    3.5
2019/03/11 14:52:38.800   27.894571572  -82.373418507   -20.6400   1   6   0.0262   0.0045   0.0163   0.0051   0.0023   0.0184  -3.20    3.4
2019/03/11 14:52:39.000   27.894571626  -82.373418490   -20.6337   1   6   0.0258   0.0044   0.0161   0.0050   0.0022   0.0182  -3.00    3.3
2019/03/11 14:52:39.200   27.894571665  -82.373418484   -20.6327   1   6   0.0256   0.0043   0.0159   0.0049   0.0021   0.0180  -2.80    3.3
2019/03/11 14:52:39.400   27.894571667  -82.373418467   -20.6366   1   6   0.0253   0.0043   0.0157   0.0048   0.0020   0.0178  -2.60    3.2
2019/03/11 14:52:39.600   27.894571513  -82.373418503   -20.6437   1   6   0.0254   0.0043   0.0157   0.0048   0.0020   0.0178  -2.40    3.1
2019/03/11 14:52:39.800   27.894571520  -82.373418476   -20.6461   1   6   0.0259   0.0043   0.0160   0.0048   0.0020   0.0182  -2.20    3.1
2019/03/11 14:52:40.000   27.894571565  -82.373418501   -20.6433   1   6   0.0265   0.0044   0.0163   0.0048   0.0020   0.0186  -2.00    3.0
2019/03/11 14:52:40.200   27.894571751  -82.373418506   -20.6324   1   6   0.0270   0.0045   0.0166   0.0048   0.0020   0.0190  -1.80    3.0
2019/03/11 14:52:40.400   27.894572792  -82.373418541   -20.5690   1   6   0.0538   0.0067   0.0302  -0.0051  -0.0053   0.0379   3.40   15.1
2019/03/11 14:52:40.600   27.894572848  -82.373418526   -20.5677   1   6   0.0568   0.0069   0.0318  -0.0061  -0.0059   0.0401   3.60   14.2
2019/03/11 14:52:40.800   27.894571752  -82.373418408   -20.6313   1   6   0.0294   0.0047   0.0181   0.0049   0.0019   0.0209  -1.20    4.5
2019/03/11 14:52:41.000   27.894571532  -82.373418357   -20.6441   1   6   0.0305   0.0048   0.0187   0.0050   0.0020   0.0218  -1.00    4.5
2019/03/11 14:52:41.200   27.894571083  -82.373418381   -20.6922   1   6   0.0315   0.0048   0.0192   0.0049   0.0018   0.0224  -0.80    4.6
2019/03/11 14:52:41.400   27.894570309  -82.373418301   -20.7428   1   6   0.0318   0.0050   0.0192   0.0044   0.0011   0.0225  -0.60    4.6
2019/03/11 14:52:41.600   27.894571916  -82.373418407   -20.6680   1   6   0.0528   0.0072   0.0307   0.0032  -0.0036   0.0375   4.60    9.3
2019/03/11 14:52:41.800   27.894571513  -82.373418460   -20.6949   1   6   0.0539   0.0073   0.0311  -0.0008  -0.0044   0.0381   4.80    8.4
2019/03/11 14:52:42.000   27.894571572  -82.373418472   -20.6870   1   6   0.0516   0.0059   0.0287  -0.0066  -0.0060   0.0365   0.00    7.7
2019/03/11 14:52:42.200   27.894572214  -82.373418403   -20.6369   1   6   0.0646   0.0073   0.0370  -0.0043  -0.0055   0.0466   0.20    6.2
2019/03/11 14:52:42.400   27.894571862  -82.373418513   -20.6391   1   6   0.0689   0.0074   0.0376  -0.0079  -0.0070   0.0487   0.40    5.5
2019/03/11 14:52:42.600   27.894571525  -82.373418498   -20.6714   1   6   0.0306   0.0050   0.0182   0.0034  -0.0017   0.0213  -4.40    3.0
2019/03/11 14:52:42.800   27.894570748  -82.373418275   -20.7360   1   7   0.0200   0.0068   0.0158  -0.0045  -0.0053   0.0115   0.80    3.9
2019/03/11 14:52:43.000   27.894570739  -82.373418158   -20.7226   1   7   0.0200   0.0068   0.0159  -0.0044  -0.0049   0.0115   1.00    6.2
2019/03/11 14:52:43.200   27.894570799  -82.373418146   -20.7315   1   7   0.0201   0.0068   0.0158  -0.0044  -0.0046   0.0117   1.20    6.0
2019/03/11 14:52:43.400   27.894570810  -82.373418153   -20.7364   1   7   0.0202   0.0067   0.0157  -0.0042  -0.0045   0.0118   1.40    5.9
2019/03/11 14:52:43.600   27.894570805  -82.373418135   -20.7445   1   7   0.0195   0.0066   0.0153  -0.0037  -0.0042   0.0112   1.60    5.7
2019/03/11 14:52:43.800   27.894570787  -82.373418157   -20.7519   1   8   0.0124   0.0064   0.0139   0.0030  -0.0029   0.0060   1.80    5.5
2019/03/11 14:52:44.000   27.894570766  -82.373418137   -20.7496   1   8   0.0125   0.0063   0.0139   0.0031  -0.0027   0.0063   2.00    5.3
2019/03/11 14:52:44.200   27.894570758  -82.373418238   -20.7231   1   8   0.0127   0.0063   0.0139   0.0033  -0.0022   0.0066   2.20    5.2
2019/03/11 14:52:44.400   27.894570666  -82.373418288   -20.7068   1   8   0.0130   0.0065   0.0139   0.0038  -0.0012   0.0071   2.40    5.0
2019/03/11 14:52:44.600   27.894570552  -82.373418314   -20.6964   1   8   0.0132   0.0065   0.0140   0.0038  -0.0012   0.0073   2.60    4.8
2019/03/11 14:52:44.800   27.894570422  -82.373418294   -20.6861   1   7   0.0134   0.0066   0.0142   0.0038  -0.0012   0.0075   2.80    4.5
2019/03/11 14:52:45.000   27.894570365  -82.373418343   -20.7003   1   7   0.0137   0.0066   0.0145   0.0039  -0.0011   0.0077   3.00    4.5
2019/03/11 14:52:45.200   27.894570301  -82.373418317   -20.7115   1   7   0.0140   0.0067   0.0147   0.0040  -0.0011   0.0080   3.20    4.3
2019/03/11 14:52:45.400   27.894570254  -82.373418311   -20.7016   1   7   0.0143   0.0068   0.0149   0.0040  -0.0010   0.0083   3.40    3.5
2019/03/11 14:52:45.600   27.894570136  -82.373418327   -20.6972   1   7   0.0148   0.0072   0.0153   0.0046   0.0015   0.0087   3.60    4.1
2019/03/11 14:52:45.800   27.894570188  -82.373418353   -20.7002   1   7   0.0152   0.0075   0.0156   0.0047   0.0018   0.0090   3.80    4.0
2019/03/11 14:52:46.000   27.894570314  -82.373418458   -20.7116   1   7   0.0155   0.0076   0.0159   0.0048   0.0018   0.0093   4.00    3.8
2019/03/11 14:52:46.200   27.894570315  -82.373418394   -20.7056   1   7   0.0159   0.0078   0.0161   0.0049   0.0018   0.0096   4.20    3.7
2019/03/11 14:52:46.400   27.894570409  -82.373418415   -20.7136   1   7   0.0162   0.0079   0.0164   0.0050   0.0019   0.0099   4.40    3.6
2019/03/11 14:52:46.600   27.894570461  -82.373418482   -20.7163   1   7   0.0166   0.0080   0.0167   0.0051   0.0019   0.0102   4.60    3.5
2019/03/11 14:52:46.800   27.894570550  -82.373418383   -20.7047   1   7   0.0170   0.0081   0.0168   0.0052   0.0019   0.0104   4.80    3.4
2019/03/11 14:52:47.000   27.894570574  -82.373418360   -20.7055   1   7   0.0164   0.0064   0.0144   0.0047   0.0025   0.0105   0.00    3.2
2019/03/11 14:52:47.200   27.894570878  -82.373418461   -20.6886   1   7   0.0223   0.0082   0.0184   0.0032  -0.0020   0.0145   0.20   53.2
2019/03/11 14:52:47.400   27.894570860  -82.373418372   -20.6872   1   7   0.0224   0.0081   0.0182   0.0031  -0.0019   0.0146   0.40   53.1
2019/03/11 14:52:47.600   27.894570811  -82.373418361   -20.6847   1   7   0.0225   0.0081   0.0180   0.0029  -0.0017   0.0146   0.60   53.0
2019/03/11 14:52:47.800   27.894570785  -82.373418306   -20.6839   1   7   0.0226   0.0080   0.0178   0.0029  -0.0013   0.0146   0.80   53.1
2019/03/11 14:52:48.000   27.894570839  -82.373418301   -20.6741   1   7   0.0227   0.0081   0.0177   0.0027   0.0004   0.0146   1.00   53.1
2019/03/11 14:52:48.200   27.894570752  -82.373418272   -20.6648   1   7   0.0226   0.0083   0.0178   0.0025   0.0015   0.0149   1.20   53.1
2019/03/11 14:52:48.400   27.894570670  -82.373418373   -20.6706   1   6   0.0229   0.0082   0.0183   0.0028   0.0017   0.0158   1.40   52.8
2019/03/11 14:52:48.600   27.894570573  -82.373418451   -20.7369   1   6   0.0254   0.0081   0.0189   0.0025   0.0015   0.0176   1.60   52.3
2019/03/11 14:52:48.800   27.894571038  -82.373418389   -20.6931   1   6   0.0424   0.0081   0.0236  -0.0064  -0.0043   0.0283   1.80   52.2
2019/03/11 14:52:49.000   27.894570809  -82.373418346   -20.7013   1   6   0.0088   0.0073   0.0133   0.0037   0.0017  -0.0009   2.00   49.6
2019/03/11 14:52:49.200   27.894570744  -82.373418355   -20.7045   1   6   0.0087   0.0072   0.0132   0.0036   0.0016  -0.0010   2.20   49.4
2019/03/11 14:52:49.400   27.894570650  -82.373418354   -20.7045   1   6   0.0086   0.0071   0.0130   0.0036   0.0015  -0.0011   2.40   49.2
2019/03/11 14:52:49.600   27.894570735  -82.373418333   -20.6976   1   6   0.0086   0.0071   0.0130   0.0036   0.0015  -0.0011   2.60   49.0
2019/03/11 14:52:49.800   27.894570733  -82.373418383   -20.6869   1   6   0.0087   0.0072   0.0132   0.0036   0.0016  -0.0010   2.80   48.8
2019/03/11 14:52:50.000   27.894570779  -82.373418366   -20.6869   1   6   0.0088   0.0073   0.0134   0.0037   0.0017  -0.0009   3.00   48.8
2019/03/11 14:52:50.200   27.894570766  -82.373418367   -20.6891   1   6   0.0089   0.0073   0.0135   0.0037   0.0017  -0.0008   3.20   48.7
2019/03/11 14:52:50.400   27.894570753  -82.373418385   -20.6907   1   6   0.0090   0.0070   0.0133   0.0037  -0.0023  -0.0011   3.40   47.1
2019/03/11 14:52:50.600   27.894570751  -82.373418377   -20.6892   1   6   0.0091   0.0071   0.0135   0.0037  -0.0023  -0.0011   3.60   46.9
2019/03/11 14:52:50.800   27.894570723  -82.373418397   -20.7038   1   7   0.0086   0.0067   0.0133   0.0024  -0.0037  -0.0035   3.80   27.5
2019/03/11 14:52:51.000   27.894570724  -82.373418395   -20.7047   1   7   0.0087   0.0068   0.0135   0.0024  -0.0038  -0.0035   4.00   27.5
2019/03/11 14:52:51.200   27.894570704  -82.373418398   -20.7006   1   7   0.0088   0.0069   0.0137   0.0025  -0.0038  -0.0035   4.20   27.4
2019/03/11 14:52:51.400   27.894570695  -82.373418450   -20.6967   1   7   0.0089   0.0070   0.0138   0.0025  -0.0039  -0.0035   4.40   27.4
2019/03/11 14:52:51.600   27.894570671  -82.373418453   -20.6994   1   7   0.0090   0.0071   0.0141   0.0025  -0.0039  -0.0036   4.60   27.4
2019/03/11 14:52:51.800   27.894570699  -82.373418439   -20.7027   1   7   0.0091   0.0072   0.0140   0.0025  -0.0039  -0.0036   4.80   27.4
2019/03/11 14:52:52.000   27.894570726  -82.373418418   -20.7022   1   7   0.0076   0.0058   0.0114   0.0022  -0.0033  -0.0033   0.00   27.3
2019/03/11 14:52:52.200   27.894570710  -82.373418486   -20.6997   1   8   0.0091   0.0067   0.0141   0.0025  -0.0045  -0.0036   0.20    8.7
2019/03/11 14:52:52.400   27.894570727  -82.373418529   -20.6964   1   8   0.0090   0.0066   0.0139   0.0024  -0.0044  -0.0036   0.40    8.5
2019/03/11 14:52:52.600   27.894570690  -82.373418540   -20.6993   1   8   0.0089   0.0065   0.0137   0.0024  -0.0043  -0.0036   0.60    8.3
2019/03/11 14:52:52.800   27.894570728  -82.373418475   -20.7031   1   8   0.0088   0.0065   0.0135   0.0024  -0.0043  -0.0035   0.80    8.0
2019/03/11 14:52:53.000   27.894570662  -82.373418436   -20.7079   1   8   0.0087   0.0064   0.0133   0.0024  -0.0042  -0.0035   1.00    7.7
2019/03/11 14:52:53.200   27.894570630  -82.373418389   -20.7112   1   8   0.0086   0.0063   0.0131   0.0024  -0.0041  -0.0035   1.20    7.3
2019/03/11 14:52:53.400   27.894570624  -82.373418372   -20.7115   1   8   0.0080   0.0060   0.0127   0.0012  -0.0045  -0.0044   1.40    4.0
2019/03/11 14:52:53.600   27.894570598  -82.373418380   -20.7143   1   8   0.0079   0.0059   0.0125   0.0012  -0.0044  -0.0044   1.60    3.8
2019/03/11 14:52:53.800   27.894570556  -82.373418402   -20.7212   1   8   0.0078   0.0059   0.0124   0.0013  -0.0044  -0.0043   1.80    3.6
2019/03/11 14:52:54.000   27.894570571  -82.373418476   -20.7284   1   8   0.0077   0.0058   0.0122   0.0013  -0.0043  -0.0043   2.00    3.3
2019/03/11 14:52:54.200   27.894570563  -82.373418394   -20.7296   1   8   0.0077   0.0058   0.0121   0.0013  -0.0042  -0.0043   2.20   13.6
2019/03/11 14:52:54.400   27.894570538  -82.373418409   -20.7395   1   8   0.0076   0.0057   0.0120   0.0013  -0.0042  -0.0042   2.40   13.5
2019/03/11 14:52:54.600   27.894570560  -82.373418421   -20.7334   1   8   0.0076   0.0057   0.0120   0.0013  -0.0042  -0.0042   2.60   13.5
2019/03/11 14:52:54.800   27.894570480  -82.373418403   -20.7360   1   8   0.0077   0.0058   0.0121   0.0013  -0.0042  -0.0043   2.80   13.4
2019/03/11 14:52:55.000   27.894570476  -82.373418407   -20.7363   1   8   0.0077   0.0056   0.0123   0.0018  -0.0043  -0.0043   3.00   13.4
2019/03/11 14:52:55.200   27.894570504  -82.373418446   -20.7276   1   8   0.0078   0.0058   0.0124   0.0017  -0.0043  -0.0043   3.20   13.3
2019/03/11 14:52:55.400   27.894570474  -82.373418422   -20.7293   1   8   0.0079   0.0060   0.0126   0.0015  -0.0043  -0.0044   3.40   13.2
2019/03/11 14:52:55.600   27.894570517  -82.373418464   -20.7361   1   8   0.0080   0.0064   0.0128   0.0009  -0.0043  -0.0045   3.60   13.2
2019/03/11 14:52:55.800   27.894570501  -82.373418426   -20.7373   1   8   0.0080   0.0057   0.0129   0.0020  -0.0047  -0.0044   3.80   12.1
2019/03/11 14:52:56.000   27.894570495  -82.373418446   -20.7288   1   8   0.0081   0.0058   0.0131   0.0020  -0.0048  -0.0044   4.00   12.0
2019/03/11 14:52:56.200   27.894570485  -82.373418458   -20.7318   1   8   0.0081   0.0059   0.0133   0.0020  -0.0049  -0.0045   4.20   12.0
2019/03/11 14:52:56.400   27.894570564  -82.373418388   -20.7440   1   8   0.0068   0.0059   0.0134   0.0028  -0.0048  -0.0053   4.40    9.8
2019/03/11 14:52:56.600   27.894570606  -82.373418356   -20.7533   1   8   0.0069   0.0060   0.0136   0.0028  -0.0049  -0.0053   4.60    9.8
2019/03/11 14:52:56.800   27.894570557  -82.373418427   -20.7381   1   8   0.0069   0.0061   0.0135   0.0028  -0.0049  -0.0053   4.80    9.7
2019/03/11 14:52:57.000   27.894570459  -82.373418557   -20.7088   1   8   0.0058   0.0048   0.0110   0.0025  -0.0038  -0.0047   0.00    9.7
2019/03/11 14:52:57.200   27.894570447  -82.373418571   -20.7032   1   8   0.0069   0.0061   0.0137   0.0028  -0.0050  -0.0054   0.20    9.7
2019/03/11 14:52:57.400   27.894570440  -82.373418562   -20.7061   1   8   0.0069   0.0060   0.0135   0.0028  -0.0049  -0.0053   0.40    9.6
2019/03/11 14:52:57.600   27.894570545  -82.373418457   -20.7327   1   8   0.0068   0.0059   0.0133   0.0028  -0.0048  -0.0053   0.60    9.5
2019/03/11 14:52:57.800   27.894570555  -82.373418454   -20.7403   1   8   0.0067   0.0058   0.0132   0.0027  -0.0047  -0.0052   0.80    9.5
2019/03/11 14:52:58.000   27.894570551  -82.373418415   -20.7520   1   8   0.0047   0.0041   0.0092   0.0019  -0.0033  -0.0037  -4.00    3.0
2019/03/11 14:52:58.200   27.894570574  -82.373418386   -20.7450   1   8   0.0046   0.0040   0.0091   0.0019  -0.0032  -0.0036  -3.80    3.2
2019/03/11 14:52:58.400   27.894570542  -82.373418394   -20.7411   1   8   0.0046   0.0040   0.0089   0.0019  -0.0032  -0.0036  -3.60    3.3
2019/03/11 14:52:58.600   27.894570547  -82.373418383   -20.7444   1   8   0.0045   0.0039   0.0088   0.0019  -0.0031  -0.0036  -3.40    3.4
2019/03/11 14:52:58.800   27.894570552  -82.373418400   -20.7475   1   8   0.0045   0.0038   0.0087   0.0019  -0.0031  -0.0035  -3.20    3.6
2019/03/11 14:52:59.000   27.894570549  -82.373418404   -20.7488   1   8   0.0044   0.0038   0.0086   0.0019  -0.0030  -0.0035  -3.00    3.7
2019/03/11 14:52:59.200   27.894570572  -82.373418396   -20.7484   1   8   0.0044   0.0037   0.0085   0.0018  -0.0030  -0.0035  -2.80    3.8
2019/03/11 14:52:59.400   27.894570569  -82.373418391   -20.7453   1   8   0.0044   0.0037   0.0084   0.0018  -0.0030  -0.0034  -2.60    4.0
2019/03/11 14:52:59.600   27.894570563  -82.373418383   -20.7434   1   8   0.0044   0.0037   0.0084   0.0018  -0.0030  -0.0034  -2.40    4.1
2019/03/11 14:52:59.800   27.894570573  -82.373418379   -20.7457   1   8   0.0044   0.0037   0.0085   0.0018  -0.0030  -0.0035  -2.20    4.3
2019/03/11 14:53:00.000   27.894570590  -82.373418380   -20.7480   1   8   0.0044   0.0038   0.0086   0.0018  -0.0030  -0.0035  -2.00    4.4
2019/03/11 14:53:00.200   27.894570568  -82.373418374   -20.7490   1  10   0.0044   0.0053   0.0114   0.0014  -0.0041  -0.0039   3.20    6.7
2019/03/11 14:53:00.400   27.894570555  -82.373418383   -20.7486   1  10   0.0044   0.0054   0.0116   0.0014  -0.0041  -0.0039   3.40    6.6
2019/03/11 14:53:00.600   27.894570557  -82.373418368   -20.7507   1  10   0.0045   0.0055   0.0117   0.0015  -0.0042  -0.0039   3.60    6.5
2019/03/11 14:53:00.800   27.894570568  -82.373418341   -20.7475   1  10   0.0032   0.0039   0.0084   0.0010  -0.0030  -0.0028  -1.20    3.0
2019/03/11 14:53:01.000   27.894570555  -82.373418338   -20.7415   1  10   0.0033   0.0040   0.0085   0.0011  -0.0030  -0.0029  -1.00    3.4
2019/03/11 14:53:01.200   27.894570557  -82.373418323   -20.7441   1  10   0.0033   0.0041   0.0086   0.0011  -0.0031  -0.0029  -0.80    3.8
2019/03/11 14:53:01.400   27.894570566  -82.373418348   -20.7402   1  10   0.0034   0.0041   0.0087   0.0011  -0.0032  -0.0029  -0.60    4.2
2019/03/11 14:53:01.600   27.894570566  -82.373418349   -20.7393   1  10   0.0034   0.0042   0.0089   0.0011  -0.0032  -0.0030  -0.40    4.5
2019/03/11 14:53:01.800   27.894570563  -82.373418367   -20.7328   1  10   0.0035   0.0042   0.0089   0.0011  -0.0032  -0.0030  -0.20    4.9
2019/03/11 14:53:02.000   27.894570562  -82.373418370   -20.7312   1  10   0.0027   0.0033   0.0073   0.0009  -0.0025  -0.0025   0.00    5.3
2019/03/11 14:53:02.200   27.894570555  -82.373418389   -20.7332   1  10   0.0035   0.0042   0.0089   0.0011  -0.0032  -0.0030  -4.80    5.6
2019/03/11 14:53:02.400   27.894570548  -82.373418427   -20.7357   1  10   0.0034   0.0042   0.0089   0.0011  -0.0032  -0.0030  -4.60    5.9
2019/03/11 14:53:02.600   27.894570546  -82.373418405   -20.7358   1  10   0.0034   0.0041   0.0087   0.0011  -0.0032  -0.0029  -4.40    6.2
2019/03/11 14:53:02.800   27.894570543  -82.373418404   -20.7331   1  10   0.0033   0.0041   0.0086   0.0011  -0.0031  -0.0029  -4.20    6.5
2019/03/11 14:53:03.000   27.894570538  -82.373418453   -20.7230   1  10   0.0033   0.0040   0.0085   0.0011  -0.0031  -0.0029  -4.00    6.9
2019/03/11 14:53:03.200   27.894570521  -82.373418462   -20.7210   1  10   0.0032   0.0039   0.0084   0.0010  -0.0030  -0.0028  -3.80    7.2
2019/03/11 14:53:03.400   27.894570559  -82.373418362   -20.7364   1  10   0.0032   0.0039   0.0083   0.0010  -0.0030  -0.0028  -3.60    7.4
2019/03/11 14:53:03.600   27.894570542  -82.373418398   -20.7427   1  10   0.0031   0.0038   0.0082   0.0010  -0.0029  -0.0028  -3.40    7.9
2019/03/11 14:53:03.800   27.894570522  -82.373418407   -20.7362   1  10   0.0031   0.0038   0.0081   0.0010  -0.0029  -0.0027  -3.20    8.3
2019/03/11 14:53:04.000   27.894570541  -82.373418419   -20.7444   1  10   0.0031   0.0037   0.0080   0.0010  -0.0028  -0.0027  -3.00    8.6
2019/03/11 14:53:04.200   27.894570572  -82.373418419   -20.7413   1  10   0.0030   0.0037   0.0079   0.0010  -0.0028  -0.0027  -2.80    8.9
2019/03/11 14:53:04.400   27.894570562  -82.373418410   -20.7416   1  10   0.0030   0.0036   0.0078   0.0010  -0.0027  -0.0026  -2.60    9.1
2019/03/11 14:53:04.600   27.894570559  -82.373418394   -20.7458   1  10   0.0030   0.0036   0.0078   0.0010  -0.0027  -0.0026  -2.40    9.3
2019/03/11 14:53:04.800   27.894570561  -82.373418421   -20.7471   1  10   0.0030   0.0037   0.0079   0.0010  -0.0028  -0.0027  -2.20    8.5
2019/03/11 14:53:05.000   27.894570526  -82.373418401   -20.7514   1  10   0.0031   0.0037   0.0080   0.0010  -0.0028  -0.0027  -2.00    8.8
2019/03/11 14:53:05.200   27.894570556  -82.373418399   -20.7499   1  10   0.0031   0.0038   0.0081   0.0010  -0.0029  -0.0027  -1.80    9.0
2019/03/11 14:53:05.400   27.894570564  -82.373418405   -20.7529   1  10   0.0031   0.0038   0.0082   0.0010  -0.0029  -0.0028  -1.60    9.1
2019/03/11 14:53:05.600   27.894570569  -82.373418389   -20.7533   1  10   0.0032   0.0039   0.0083   0.0010  -0.0030  -0.0028  -1.40    9.3
2019/03/11 14:53:05.800   27.894570572  -82.373418378   -20.7546   1  10   0.0032   0.0039   0.0084   0.0010  -0.0030  -0.0028  -1.20    9.5
2019/03/11 14:53:06.000   27.894570565  -82.373418381   -20.7526   1  10   0.0033   0.0040   0.0085   0.0011  -0.0031  -0.0029  -1.00    9.8
2019/03/11 14:53:06.200   27.894570568  -82.373418364   -20.7546   1  10   0.0033   0.0041   0.0086   0.0011  -0.0031  -0.0029  -0.80   10.0
2019/03/11 14:53:06.400   27.894570578  -82.373418384   -20.7556   1  10   0.0034   0.0041   0.0087   0.0011  -0.0032  -0.0029  -0.60   10.2
2019/03/11 14:53:06.600   27.894570551  -82.373418396   -20.7472   1  10   0.0034   0.0042   0.0089   0.0011  -0.0032  -0.0030  -0.40   10.4
2019/03/11 14:53:06.800   27.894570539  -82.373418387   -20.7456   1  10   0.0035   0.0042   0.0089   0.0011  -0.0033  -0.0030  -0.20   10.6
2019/03/11 14:53:07.000   27.894570536  -82.373418404   -20.7425   1  10   0.0027   0.0033   0.0073   0.0009  -0.0025  -0.0025   0.00   10.7
2019/03/11 14:53:07.200   27.894570541  -82.373418405   -20.7464   1  10   0.0035   0.0042   0.0089   0.0011  -0.0033  -0.0030  -4.80   10.8
2019/03/11 14:53:07.400   27.894570550  -82.373418429   -20.7414   1  10   0.0034   0.0042   0.0089   0.0011  -0.0032  -0.0030  -4.60   11.0
2019/03/11 14:53:07.600   27.894570542  -82.373418419   -20.7439   1  10   0.0034   0.0041   0.0087   0.0011  -0.0032  -0.0029  -4.40   11.1
2019/03/11 14:53:07.800   27.894570552  -82.373418426   -20.7411   1  10   0.0033   0.0041   0.0086   0.0011  -0.0031  -0.0029  -4.20   11.2
2019/03/11 14:53:08.000   27.894570539  -82.373418412   -20.7437   1  10   0.0033   0.0040   0.0085   0.0011  -0.0031  -0.0029  -4.00   11.3
2019/03/11 14:53:08.200   27.894570538  -82.373418426   -20.7443   1  10   0.0032   0.0039   0.0084   0.0010  -0.0030  -0.0028  -3.80   11.4
2019/03/11 14:53:08.400   27.894570553  -82.373418429   -20.7457   1  10   0.0032   0.0039   0.0083   0.0010  -0.0030  -0.0028  -3.60   11.4
2019/03/11 14:53:08.600   27.894570536  -82.373418439   -20.7461   1  10   0.0031   0.0038   0.0082   0.0010  -0.0029  -0.0028  -3.40   11.5
2019/03/11 14:53:08.800   27.894570548  -82.373418456   -20.7435   1  10   0.0031   0.0038   0.0081   0.0010  -0.0029  -0.0027  -3.20   11.5
2019/03/11 14:53:09.000   27.894570526  -82.373418429   -20.7454   1  10   0.0031   0.0037   0.0080   0.0010  -0.0028  -0.0027  -3.00   11.6
2019/03/11 14:53:09.200   27.894570551  -82.373418447   -20.7414   1  10   0.0030   0.0037   0.0079   0.0010  -0.0028  -0.0027  -2.80   11.6
2019/03/11 14:53:09.400   27.894570532  -82.373418445   -20.7381   1  10   0.0030   0.0036   0.0078   0.0010  -0.0028  -0.0027  -2.60   11.6
2019/03/11 14:53:09.600   27.894570541  -82.373418438   -20.7364   1  10   0.0030   0.0036   0.0078   0.0010  -0.0028  -0.0027  -2.40   11.7
2019/03/11 14:53:09.800   27.894570539  -82.373418445   -20.7367   1  10   0.0030   0.0037   0.0079   0.0010  -0.0028  -0.0027  -2.20   11.7
2019/03/11 14:53:10.000   27.894570550  -82.373418460   -20.7359   1  10   0.0031   0.0037   0.0080   0.0010  -0.0028  -0.0027  -2.00   11.7
2019/03/11 14:53:10.200   27.894570554  -82.373418454   -20.7449   1  10   0.0031   0.0038   0.0081   0.0010  -0.0029  -0.0028  -1.80   11.6
2019/03/11 14:53:10.400   27.894570531  -82.373418484   -20.7370   1  10   0.0031   0.0038   0.0082   0.0010  -0.0029  -0.0028  -1.60   11.6
2019/03/11 14:53:10.600   27.894570554  -82.373418461   -20.7398   1  10   0.0032   0.0039   0.0083   0.0011  -0.0030  -0.0028  -1.40   11.6
2019/03/11 14:53:10.800   27.894570545  -82.373418444   -20.7437   1  10   0.0032   0.0039   0.0084   0.0011  -0.0030  -0.0029  -1.20   11.6
2019/03/11 14:53:11.000   27.894570539  -82.373418447   -20.7423   1  10   0.0033   0.0040   0.0085   0.0011  -0.0031  -0.0029  -1.00   11.6
2019/03/11 14:53:11.200   27.894570545  -82.373418434   -20.7458   1  10   0.0033   0.0041   0.0087   0.0011  -0.0031  -0.0029  -0.80   11.6
2019/03/11 14:53:11.400   27.894570550  -82.373418442   -20.7453   1  10   0.0034   0.0041   0.0088   0.0011  -0.0032  -0.0030  -0.60   11.7
2019/03/11 14:53:11.600   27.894570538  -82.373418465   -20.7388   1  10   0.0034   0.0042   0.0089   0.0011  -0.0033  -0.0030  -0.40   11.7
2019/03/11 14:53:11.800   27.894570541  -82.373418458   -20.7393   1  10   0.0035   0.0043   0.0090   0.0011  -0.0033  -0.0031  -0.20   11.8
2019/03/11 14:53:12.000   27.894570528  -82.373418479   -20.7370   1  10   0.0028   0.0033   0.0074   0.0009  -0.0025  -0.0026   0.00   11.7
2019/03/11 14:53:12.200   27.894570527  -82.373418447   -20.7433   1  10   0.0035   0.0043   0.0090   0.0011  -0.0033  -0.0031  -4.80   11.7
2019/03/11 14:53:12.400   27.894570539  -82.373418446   -20.7460   1  10   0.0034   0.0042   0.0089   0.0011  -0.0033  -0.0030  -4.60   11.8
2019/03/11 14:53:12.600   27.894570524  -82.373418423   -20.7398   1  10   0.0034   0.0041   0.0088   0.0011  -0.0032  -0.0030  -4.40   11.9
2019/03/11 14:53:12.800   27.894570538  -82.373418421   -20.7456   1  10   0.0033   0.0041   0.0087   0.0011  -0.0031  -0.0030  -4.20   12.0
2019/03/11 14:53:13.000   27.894570528  -82.373418391   -20.7400   1  10   0.0033   0.0040   0.0086   0.0011  -0.0031  -0.0029  -4.00   12.1
2019/03/11 14:53:13.200   27.894570545  -82.373418412   -20.7380   1  10   0.0032   0.0039   0.0085   0.0011  -0.0030  -0.0029  -3.80   12.2
2019/03/11 14:53:13.400   27.894570547  -82.373418410   -20.7372   1  10   0.0032   0.0039   0.0084   0.0010  -0.0030  -0.0029  -3.60   12.4
2019/03/11 14:53:13.600   27.894570531  -82.373418427   -20.7349   1  10   0.0032   0.0038   0.0083   0.0010  -0.0029  -0.0029  -3.40   12.5
2019/03/11 14:53:13.800   27.894570527  -82.373418426   -20.7305   1  10   0.0031   0.0038   0.0082   0.0010  -0.0029  -0.0028  -3.20   12.6
2019/03/11 14:53:14.000   27.894570526  -82.373418432   -20.7337   1  10   0.0031   0.0037   0.0081   0.0010  -0.0028  -0.0028  -3.00   12.7
2019/03/11 14:53:14.200   27.894570534  -82.373418449   -20.7317   1  10   0.0030   0.0037   0.0080   0.0010  -0.0028  -0.0028  -2.80   12.8
2019/03/11 14:53:14.400   27.894570538  -82.373418422   -20.7337   1  10   0.0030   0.0036   0.0079   0.0010  -0.0027  -0.0028  -2.60   12.9
2019/03/11 14:53:14.600   27.894570535  -82.373418437   -20.7327   1  10   0.0030   0.0036   0.0079   0.0010  -0.0027  -0.0028  -2.40   13.0
2019/03/11 14:53:14.800   27.894570521  -82.373418436   -20.7332   1  10   0.0031   0.0037   0.0080   0.0010  -0.0028  -0.0028  -2.20   13.1
2019/03/11 14:53:15.000   27.894570528  -82.373418429   -20.7320   1  10   0.0031   0.0037   0.0081   0.0010  -0.0028  -0.0029  -2.00   13.2
2019/03/11 14:53:15.200   27.894570543  -82.373418447   -20.7326   1  10   0.0031   0.0038   0.0083   0.0010  -0.0028  -0.0029  -1.80   13.3
2019/03/11 14:53:15.400   27.894570556  -82.373418433   -20.7350   1  10   0.0032   0.0039   0.0084   0.0010  -0.0029  -0.0030  -1.60   13.4
2019/03/11 14:53:15.600   27.894570541  -82.373418421   -20.7369   1  10   0.0033   0.0039   0.0086   0.0009  -0.0028  -0.0031  -1.40   13.5
2019/03/11 14:53:15.800   27.894570555  -82.373418431   -20.7393   1  10   0.0034   0.0040   0.0088   0.0008  -0.0028  -0.0033  -1.20   13.6
2019/03/11 14:53:16.000   27.894570540  -82.373418443   -20.7423   1  10   0.0036   0.0042   0.0094  -0.0006  -0.0023  -0.0038  -1.00   13.7
2019/03/11 14:53:16.200   27.894570563  -82.373418452   -20.7412   1  10   0.0035   0.0041   0.0091   0.0008  -0.0029  -0.0034  -0.80   13.9
2019/03/11 14:53:16.400   27.894570549  -82.373418404   -20.7436   1  10   0.0035   0.0042   0.0091   0.0009  -0.0030  -0.0033  -0.60   14.0
2019/03/11 14:53:16.600   27.894570628  -82.373418368   -20.7494   1  10   0.0035   0.0042   0.0091   0.0010  -0.0032  -0.0032  -0.40   14.2
2019/03/11 14:53:16.800   27.894570626  -82.373418328   -20.7463   1  10   0.0035   0.0043   0.0091   0.0010  -0.0032  -0.0032  -0.20   14.3
2019/03/11 14:53:17.000   27.894570608  -82.373418320   -20.7331   1  10   0.0028   0.0033   0.0075   0.0009  -0.0025  -0.0027   0.00   14.4
2019/03/11 14:53:17.200   27.894570601  -82.373418353   -20.7277   1  10   0.0035   0.0043   0.0091   0.0011  -0.0033  -0.0031  -4.80   14.5
2019/03/11 14:53:17.400   27.894570559  -82.373418406   -20.7246   1  10   0.0035   0.0042   0.0090   0.0011  -0.0032  -0.0031  -4.60   14.6
2019/03/11 14:53:17.600   27.894570600  -82.373418359   -20.7314   1  10   0.0034   0.0041   0.0089   0.0011  -0.0032  -0.0031  -4.40   14.7
2019/03/11 14:53:17.800   27.894570613  -82.373418369   -20.7275   1  10   0.0034   0.0041   0.0088   0.0011  -0.0031  -0.0030  -4.20   14.7
2019/03/11 14:53:18.000   27.894570563  -82.373418402   -20.7261   1  10   0.0033   0.0040   0.0087   0.0011  -0.0031  -0.0030  -4.00   14.8
2019/03/11 14:53:18.200   27.894570589  -82.373418375   -20.7300   1  10   0.0033   0.0040   0.0085   0.0011  -0.0031  -0.0030  -3.80   14.9
2019/03/11 14:53:18.400   27.894570578  -82.373418373   -20.7340   1  10   0.0032   0.0039   0.0084   0.0011  -0.0030  -0.0029  -3.60   15.0
2019/03/11 14:53:18.600   27.894570584  -82.373418345   -20.7286   1  10   0.0032   0.0039   0.0083   0.0011  -0.0030  -0.0029  -3.40    3.4
2019/03/11 14:53:18.800   27.894570530  -82.373418433   -20.7239   1  10   0.0032   0.0039   0.0083   0.0013  -0.0031  -0.0029  -3.20    3.7
2019/03/11 14:53:19.000   27.894570522  -82.373418440   -20.7288   1  10   0.0031   0.0039   0.0082   0.0013  -0.0030  -0.0029  -3.00    4.0
2019/03/11 14:53:19.200   27.894570486  -82.373418445   -20.7306   1  10   0.0031   0.0039   0.0081   0.0013  -0.0030  -0.0029  -2.80    4.3
2019/03/11 14:53:19.400   27.894570501  -82.373418466   -20.7247   1  10   0.0031   0.0038   0.0080   0.0013  -0.0030  -0.0029  -2.60    4.6
2019/03/11 14:53:19.600   27.894570534  -82.373418506   -20.7182   1  10   0.0031   0.0038   0.0080   0.0013  -0.0030  -0.0029  -2.40    4.9
2019/03/11 14:53:19.800   27.894570525  -82.373418518   -20.7171   1  10   0.0031   0.0039   0.0081   0.0013  -0.0030  -0.0029  -2.20    5.3
2019/03/11 14:53:20.000   27.894570528  -82.373418497   -20.7157   1  10   0.0032   0.0039   0.0082   0.0014  -0.0031  -0.0030  -2.00    5.6
2019/03/11 14:53:20.200   27.894570529  -82.373418544   -20.7126   1  10   0.0032   0.0040   0.0083   0.0014  -0.0031  -0.0030  -1.80    5.9
2019/03/11 14:53:20.400   27.894570572  -82.373418602   -20.7135   1  10   0.0033   0.0041   0.0085   0.0014  -0.0032  -0.0031  -1.60    6.2
2019/03/11 14:53:20.600   27.894570553  -82.373418563   -20.7215   1  10   0.0033   0.0041   0.0086   0.0014  -0.0032  -0.0031  -1.40    6.5
2019/03/11 14:53:20.800   27.894570413  -82.373418544   -20.7017   1  10   0.0034   0.0042   0.0088   0.0014  -0.0032  -0.0032  -1.20    6.7
2019/03/11 14:53:21.000   27.894570458  -82.373418687   -20.7304   1  10   0.0034   0.0043   0.0089   0.0014  -0.0032  -0.0033  -1.00    9.7
2019/03/11 14:53:21.200   27.894570516  -82.373418531   -20.7212   1  10   0.0035   0.0044   0.0090   0.0015  -0.0033  -0.0033  -0.80   10.0
2019/03/11 14:53:21.400   27.894570530  -82.373418486   -20.7309   1  10   0.0035   0.0044   0.0091   0.0015  -0.0034  -0.0033  -0.60   10.4
2019/03/11 14:53:21.600   27.894570540  -82.373418453   -20.7337   1  10   0.0035   0.0045   0.0092   0.0016  -0.0035  -0.0033  -0.40   10.8
2019/03/11 14:53:21.800   27.894570511  -82.373418482   -20.7303   1  10   0.0036   0.0047   0.0093   0.0016  -0.0035  -0.0033  -0.20   11.1
2019/03/11 14:53:22.000   27.894570517  -82.373418494   -20.7258   1  10   0.0029   0.0039   0.0077   0.0015  -0.0028  -0.0028   0.00   13.4
2019/03/11 14:53:22.200   27.894570491  -82.373418568   -20.7159   1  10   0.0036   0.0046   0.0093   0.0017  -0.0036  -0.0033  -4.80   13.8
2019/03/11 14:53:22.400   27.894570470  -82.373418512   -20.7511   1  10   0.0036   0.0046   0.0094   0.0017  -0.0036  -0.0033  -4.60   14.3
2019/03/11 14:53:22.600   27.894570470  -82.373418366   -20.7384   2  10   0.0036   0.0046   0.0093   0.0018  -0.0035  -0.0033  -4.40   14.7
2019/03/11 14:53:22.800   27.894570598  -82.373418417   -20.7464   1  10   0.0035   0.0046   0.0094   0.0018  -0.0036  -0.0033  -4.20   15.2
2019/03/11 14:53:23.000   27.894570609  -82.373418402   -20.7508   1  10   0.0036   0.0048   0.0094   0.0021  -0.0037  -0.0034  -4.00   15.6
2019/03/11 14:53:23.200   27.894570616  -82.373418358   -20.7640   1  10   0.0036   0.0049   0.0094   0.0022  -0.0039  -0.0035  -3.80   16.1
2019/03/11 14:53:23.400   27.894570582  -82.373418366   -20.7609   2  10   0.0036   0.0050   0.0093   0.0024  -0.0040  -0.0036  -3.60    3.7
2019/03/11 14:53:23.600   27.894570589  -82.373418377   -20.7529   2  10   0.0036   0.0049   0.0092   0.0024  -0.0040  -0.0036  -3.40    4.1
2019/03/11 14:53:23.800   27.894570609  -82.373418392   -20.7571   2  10   0.0035   0.0048   0.0091   0.0024  -0.0039  -0.0035  -3.20    4.4
2019/03/11 14:53:24.000   27.894570587  -82.373418429   -20.7561   2  10   0.0035   0.0048   0.0090   0.0024  -0.0039  -0.0035  -3.00    4.8
2019/03/11 14:53:24.200   27.894570576  -82.373418415   -20.7585   2  10   0.0034   0.0047   0.0089   0.0023  -0.0038  -0.0035  -2.80    5.1
2019/03/11 14:53:24.400   27.894570628  -82.373418360   -20.7636   2  10   0.0034   0.0047   0.0088   0.0023  -0.0038  -0.0034  -2.60    5.4
2019/03/11 14:53:24.600   27.894570602  -82.373418381   -20.7657   2  10   0.0034   0.0047   0.0088   0.0023  -0.0038  -0.0034  -2.40    5.7
2019/03/11 14:53:24.800   27.894570587  -82.373418336   -20.7733   2  10   0.0034   0.0047   0.0089   0.0023  -0.0039  -0.0035  -2.20    6.0
2019/03/11 14:53:25.000   27.894570579  -82.373418317   -20.7709   2  10   0.0035   0.0048   0.0090   0.0024  -0.0039  -0.0035  -2.00    6.3
2019/03/11 14:53:25.200   27.894570557  -82.373418437   -20.7584   2  10   0.0035   0.0048   0.0091   0.0024  -0.0040  -0.0036  -1.80    6.6
2019/03/11 14:53:25.400   27.894570607  -82.373418365   -20.7637   2  10   0.0036   0.0049   0.0092   0.0024  -0.0040  -0.0036  -1.60    6.8
2019/03/11 14:53:25.600   27.894570615  -82.373418414   -20.7538   2  10   0.0036   0.0050   0.0094   0.0024  -0.0041  -0.0036  -1.40    7.0
2019/03/11 14:53:25.800   27.894570642  -82.373418349   -20.7577   2  10   0.0037   0.0050   0.0095   0.0025  -0.0041  -0.0037  -1.20    7.2
2019/03/11 14:53:26.000   27.894570649  -82.373418248   -20.7668   2  10   0.0037   0.0051   0.0096   0.0025  -0.0042  -0.0037  -1.00    7.4
2019/03/11 14:53:26.200   27.894570667  -82.373418248   -20.7593   2  10   0.0038   0.0052   0.0098   0.0025  -0.0043  -0.0038  -0.80    7.6
2019/03/11 14:53:26.400   27.894570634  -82.373418340   -20.7548   2  10   0.0038   0.0052   0.0099   0.0026  -0.0043  -0.0038  -0.60    7.7
2019/03/11 14:53:26.600   27.894570623  -82.373418181   -20.7687   2  10   0.0039   0.0053   0.0100   0.0026  -0.0044  -0.0039  -0.40    7.9
2019/03/11 14:53:26.800   27.894570608  -82.373418212   -20.7769   2  10   0.0039   0.0054   0.0101   0.0026  -0.0044  -0.0039  -0.20    8.0
2019/03/11 14:53:27.000   27.894570665  -82.373418242   -20.7761   2  10   0.0031   0.0043   0.0083   0.0022  -0.0035  -0.0033   0.00    8.1
2019/03/11 14:53:27.200   27.894570635  -82.373418262   -20.7679   2  10   0.0039   0.0054   0.0101   0.0026  -0.0044  -0.0039  -4.80    8.2
2019/03/11 14:53:27.400   27.894570626  -82.373418282   -20.7664   2  10   0.0039   0.0053   0.0101   0.0026  -0.0044  -0.0039  -4.60    8.4
2019/03/11 14:53:27.600   27.894570637  -82.373418216   -20.7705   2  10   0.0039   0.0053   0.0100   0.0026  -0.0043  -0.0039  -4.40    8.5
2019/03/11 14:53:27.800   27.894570623  -82.373418200   -20.7669   2  10   0.0038   0.0052   0.0098   0.0025  -0.0043  -0.0039  -4.20    8.6
2019/03/11 14:53:28.000   27.894570641  -82.373418253   -20.7541   2  10   0.0038   0.0051   0.0098   0.0025  -0.0042  -0.0039  -4.00    8.7
2019/03/11 14:53:28.200   27.894570523  -82.373418152   -20.7727   2  10   0.0037   0.0051   0.0097   0.0025  -0.0041  -0.0039  -3.80    8.7
2019/03/11 14:53:28.400   27.894570547  -82.373418095   -20.7796   2  10   0.0037   0.0050   0.0097   0.0024  -0.0041  -0.0039  -3.60    8.8
2019/03/11 14:53:28.600   27.894570564  -82.373418110   -20.7836   2  10   0.0037   0.0050   0.0097   0.0024  -0.0039  -0.0040  -3.40    8.8
2019/03/11 14:53:28.800   27.894570527  -82.373418111   -20.7929   2   9   0.0036   0.0049   0.0095   0.0023  -0.0037  -0.0039  -3.20   18.3
2019/03/11 14:53:29.000   27.894570686  -82.373418181   -20.7916   2   9   0.0036   0.0049   0.0094   0.0023  -0.0037  -0.0038  -3.00   17.8
2019/03/11 14:53:29.200   27.894570711  -82.373418202   -20.7903   2   9   0.0035   0.0048   0.0093   0.0023  -0.0037  -0.0038  -2.80   17.4
2019/03/11 14:53:29.400   27.894570724  -82.373418209   -20.7884   2   9   0.0035   0.0048   0.0092   0.0022  -0.0036  -0.0038  -2.60   17.0
2019/03/11 14:53:29.600   27.894570739  -82.373418199   -20.7917   2   9   0.0035   0.0048   0.0092   0.0022  -0.0036  -0.0038  -2.40   16.6
2019/03/11 14:53:29.800   27.894570737  -82.373418196   -20.7883   2   9   0.0035   0.0048   0.0093   0.0023  -0.0037  -0.0038  -2.20   16.2
2019/03/11 14:53:30.000   27.894570685  -82.373418276   -20.7673   2   9   0.0036   0.0049   0.0094   0.0023  -0.0037  -0.0038  -2.00   15.8
2019/03/11 14:53:30.200   27.894570639  -82.373418251   -20.7667   2   9   0.0036   0.0050   0.0096   0.0023  -0.0038  -0.0039  -1.80   15.5
2019/03/11 14:53:30.400   27.894570624  -82.373418285   -20.7637   2   9   0.0037   0.0050   0.0097   0.0024  -0.0039  -0.0039  -1.60   15.2
2019/03/11 14:53:30.600   27.894570648  -82.373418293   -20.7621   2   9   0.0038   0.0051   0.0098   0.0024  -0.0039  -0.0040  -1.40   14.9
2019/03/11 14:53:30.800   27.894570665  -82.373418324   -20.7598   1   9   0.0038   0.0052   0.0100   0.0025  -0.0040  -0.0041  -1.20   14.6
2019/03/11 14:53:31.000   27.894570736  -82.373418026   -20.7643   1   9   0.0039   0.0053   0.0101   0.0025  -0.0040  -0.0041  -1.00   14.3
2019/03/11 14:53:31.200   27.894570709  -82.373418184   -20.7614   1   9   0.0039   0.0054   0.0103   0.0025  -0.0041  -0.0042  -0.80   14.0
2019/03/11 14:53:31.400   27.894570711  -82.373418175   -20.7530   1   9   0.0040   0.0054   0.0104   0.0026  -0.0041  -0.0042  -0.60   13.7
2019/03/11 14:53:31.600   27.894570613  -82.373418390   -20.7575   1   8   0.0041   0.0056   0.0106   0.0028  -0.0041  -0.0042  -0.40   13.2
2019/03/11 14:53:31.800   27.894570567  -82.373418417   -20.7505   1   8   0.0042   0.0057   0.0107   0.0028  -0.0042  -0.0042  -0.20   13.1
2019/03/11 14:53:32.000   27.894570577  -82.373418375   -20.7485   1   8   0.0033   0.0046   0.0088   0.0024  -0.0035  -0.0036   0.00   13.1
2019/03/11 14:53:32.200   27.894570590  -82.373418391   -20.7590   1   8   0.0042   0.0057   0.0107   0.0028  -0.0042  -0.0043  -4.80   13.1
2019/03/11 14:53:32.400   27.894570613  -82.373418354   -20.7622   1   8   0.0042   0.0057   0.0107   0.0028  -0.0043  -0.0043  -4.60   13.1
2019/03/11 14:53:32.600   27.894570622  -82.373418299   -20.7593   1   8   0.0041   0.0056   0.0106   0.0028  -0.0042  -0.0043  -4.40   13.1
2019/03/11 14:53:32.800   27.894570649  -82.373418277   -20.7549   1   8   0.0041   0.0056   0.0105   0.0028  -0.0042  -0.0042  -4.20   13.1
2019/03/11 14:53:33.000   27.894570641  -82.373418248   -20.7546   1   8   0.0040   0.0055   0.0104   0.0029  -0.0042  -0.0042  -4.00   13.1
2019/03/11 14:53:33.200   27.894570599  -82.373418266   -20.7429   1   8   0.0040   0.0055   0.0104   0.0029  -0.0043  -0.0043  -3.80   13.1
2019/03/11 14:53:33.400   27.894570602  -82.373418288   -20.7354   1   8   0.0040   0.0055   0.0105   0.0030  -0.0045  -0.0044  -3.60   13.1
2019/03/11 14:53:33.600   27.894570648  -82.373418233   -20.7517   1   9   0.0040   0.0055   0.0105   0.0029  -0.0047  -0.0045  -3.40   13.1
2019/03/11 14:53:33.800   27.894570668  -82.373418175   -20.7654   1   8   0.0044   0.0062   0.0118   0.0038  -0.0062  -0.0057  -3.20   25.8
2019/03/11 14:53:34.000   27.894570669  -82.373418170   -20.7684   1   8   0.0044   0.0063   0.0118   0.0039  -0.0063  -0.0057  -3.00   25.8
2019/03/11 14:53:34.200   27.894570598  -82.373418394   -20.7516   1   8   0.0041   0.0055   0.0115   0.0033  -0.0057  -0.0054  -2.80   25.8
2019/03/11 14:53:34.400   27.894570576  -82.373418417   -20.7432   1   8   0.0041   0.0052   0.0113   0.0032  -0.0056  -0.0053  -2.60   25.7
2019/03/11 14:53:34.600   27.894570578  -82.373418405   -20.7406   1   8   0.0040   0.0051   0.0113   0.0030  -0.0055  -0.0053  -2.40   25.7
2019/03/11 14:53:34.800   27.894570572  -82.373418392   -20.7400   1   8   0.0040   0.0051   0.0114   0.0030  -0.0055  -0.0053  -2.20   25.7
2019/03/11 14:53:35.000   27.894570572  -82.373418401   -20.7421   1   8   0.0040   0.0051   0.0115   0.0030  -0.0055  -0.0053  -2.00   25.7
2019/03/11 14:53:35.200   27.894570577  -82.373418397   -20.7420   1   8   0.0040   0.0048   0.0116   0.0027  -0.0054  -0.0053  -1.80    3.2
2019/03/11 14:53:35.400   27.894570569  -82.373418434   -20.7402   1   8   0.0040   0.0048   0.0117   0.0027  -0.0054  -0.0053  -1.60    3.7
2019/03/11 14:53:35.600   27.894570567  -82.373418421   -20.7403   1   8   0.0041   0.0049   0.0119   0.0027  -0.0055  -0.0054  -1.40    4.0
2019/03/11 14:53:35.800   27.894570548  -82.373418442   -20.7391   1   8   0.0041   0.0050   0.0120   0.0028  -0.0056  -0.0055  -1.20    4.8
2019/03/11 14:53:36.000   27.894570540  -82.373418453   -20.7339   1   8   0.0042   0.0050   0.0121   0.0028  -0.0057  -0.0055  -1.00    5.2
2019/03/11 14:53:36.200   27.894570545  -82.373418448   -20.7343   1   9   0.0040   0.0048   0.0112   0.0023  -0.0049  -0.0049  -0.80    5.5
2019/03/11 14:53:36.400   27.894570537  -82.373418451   -20.7331   1   9   0.0040   0.0048   0.0111   0.0022  -0.0048  -0.0048  -0.60    5.8
2019/03/11 14:53:36.600   27.894570548  -82.373418438   -20.7373   1   9   0.0040   0.0048   0.0110   0.0021  -0.0046  -0.0047  -0.40    6.1
2019/03/11 14:53:36.800   27.894570555  -82.373418448   -20.7353   1   9   0.0040   0.0048   0.0109   0.0020  -0.0045  -0.0046  -0.20    6.4
2019/03/11 14:53:37.000   27.894570554  -82.373418453   -20.7328   1   9   0.0031   0.0037   0.0090   0.0016  -0.0035  -0.0038   0.00    6.9
2019/03/11 14:53:37.200   27.894570553  -82.373418469   -20.7321   1   9   0.0039   0.0046   0.0106   0.0017  -0.0042  -0.0043  -4.80    7.2
2019/03/11 14:53:37.400   27.894570554  -82.373418458   -20.7336   1  10   0.0038   0.0045   0.0103   0.0016  -0.0040  -0.0042  -4.60    7.5
2019/03/11 14:53:37.600   27.894570571  -82.373418460   -20.7306   1  10   0.0037   0.0044   0.0101   0.0017  -0.0040  -0.0040  -4.40    7.7
2019/03/11 14:53:37.800   27.894570571  -82.373418459   -20.7312   1  10   0.0036   0.0044   0.0100   0.0017  -0.0040  -0.0040  -4.20    8.0
2019/03/11 14:53:38.000   27.894570554  -82.373418447   -20.7309   1  10   0.0036   0.0044   0.0100   0.0018  -0.0042  -0.0040  -4.00    8.3
2019/03/11 14:53:38.200   27.894570584  -82.373418452   -20.7356   1  10   0.0036   0.0044   0.0100   0.0020  -0.0043  -0.0041  -3.80    8.6
2019/03/11 14:53:38.400   27.894570579  -82.373418444   -20.7391   1  10   0.0034   0.0042   0.0093   0.0017  -0.0038  -0.0036  -3.60    8.9
2019/03/11 14:53:38.600   27.894570581  -82.373418434   -20.7404   1  10   0.0033   0.0040   0.0090   0.0015  -0.0036  -0.0034  -3.40    9.2
2019/03/11 14:53:38.800   27.894570566  -82.373418432   -20.7365   1  10   0.0032   0.0039   0.0087   0.0013  -0.0033  -0.0033  -3.20    9.6
2019/03/11 14:53:39.000   27.894570580  -82.373418432   -20.7305   1  10   0.0032   0.0038   0.0085   0.0013  -0.0032  -0.0031  -3.00    9.9
2019/03/11 14:53:39.200   27.894570570  -82.373418423   -20.7308   1  10   0.0031   0.0038   0.0083   0.0012  -0.0031  -0.0030  -2.80   10.2
2019/03/11 14:53:39.400   27.894570563  -82.373418442   -20.7315   1  10   0.0031   0.0037   0.0082   0.0012  -0.0030  -0.0030  -2.60   10.6
2019/03/11 14:53:39.600   27.894570566  -82.373418437   -20.7332   1  10   0.0031   0.0037   0.0081   0.0011  -0.0030  -0.0029  -2.40   10.9
2019/03/11 14:53:39.800   27.894570565  -82.373418432   -20.7337   1  10   0.0031   0.0037   0.0082   0.0011  -0.0030  -0.0029  -2.20   11.2
2019/03/11 14:53:40.000   27.894570567  -82.373418441   -20.7371   1  10   0.0031   0.0038   0.0083   0.0011  -0.0030  -0.0030  -2.00   11.5
2019/03/11 14:53:40.200   27.894570574  -82.373418433   -20.7360   1  10   0.0032   0.0038   0.0083   0.0011  -0.0030  -0.0030  -1.80   11.8
2019/03/11 14:53:40.400   27.894570562  -82.373418422   -20.7328   1  10   0.0032   0.0039   0.0084   0.0011  -0.0031  -0.0030  -1.60   12.1
2019/03/11 14:53:40.600   27.894570562  -82.373418425   -20.7369   1  10   0.0032   0.0039   0.0084   0.0011  -0.0031  -0.0029  -1.40    3.4
2019/03/11 14:53:40.800   27.894570559  -82.373418440   -20.7384   1  10   0.0032   0.0039   0.0084   0.0010  -0.0030  -0.0028  -1.20    3.1
2019/03/11 14:53:41.000   27.894570569  -82.373418422   -20.7388   1  10   0.0033   0.0040   0.0085   0.0011  -0.0031  -0.0029  -1.00    3.3
2019/03/11 14:53:41.200   27.894570552  -82.373418428   -20.7380   1  10   0.0033   0.0040   0.0086   0.0011  -0.0031  -0.0029  -0.80    3.4
2019/03/11 14:53:41.400   27.894570548  -82.373418422   -20.7375   1  10   0.0034   0.0041   0.0087   0.0011  -0.0032  -0.0029  -0.60    3.5
2019/03/11 14:53:41.600   27.894570547  -82.373418420   -20.7349   1  10   0.0034   0.0042   0.0088   0.0011  -0.0032  -0.0030  -0.40    3.7
2019/03/11 14:53:41.800   27.894570542  -82.373418429   -20.7342   1  10   0.0035   0.0042   0.0089   0.0011  -0.0033  -0.0030  -0.20    3.8
2019/03/11 14:53:42.000   27.894570560  -82.373418444   -20.7347   1  10   0.0027   0.0033   0.0073   0.0009  -0.0025  -0.0025   0.00    4.0
2019/03/11 14:53:42.200   27.894570548  -82.373418439   -20.7368   1  10   0.0035   0.0042   0.0089   0.0011  -0.0033  -0.0030  -4.80    4.1
2019/03/11 14:53:42.400   27.894570545  -82.373418421   -20.7362   1  10   0.0034   0.0042   0.0088   0.0011  -0.0032  -0.0030  -4.60    4.2
2019/03/11 14:53:42.600   27.894570549  -82.373418421   -20.7390   1  10   0.0034   0.0041   0.0087   0.0011  -0.0032  -0.0029  -4.40    4.4
2019/03/11 14:53:42.800   27.894570549  -82.373418416   -20.7392   1  10   0.0033   0.0040   0.0086   0.0011  -0.0031  -0.0029  -4.20    4.5
2019/03/11 14:53:43.000   27.894570558  -82.373418416   -20.7401   1  10   0.0033   0.0040   0.0085   0.0011  -0.0031  -0.0029  -4.00    4.6
2019/03/11 14:53:43.200   27.894570557  -82.373418424   -20.7417   1  10   0.0032   0.0039   0.0084   0.0010  -0.0030  -0.0028  -3.80    4.8
2019/03/11 14:53:43.400   27.894570555  -82.373418409   -20.7403   1  10   0.0032   0.0039   0.0083   0.0010  -0.0030  -0.0028  -3.60    4.9
2019/03/11 14:53:43.600   27.894570552  -82.373418443   -20.7378   1  10   0.0031   0.0038   0.0082   0.0010  -0.0029  -0.0028  -3.40    5.0
2019/03/11 14:53:43.800   27.894570542  -82.373418406   -20.7372   1  10   0.0031   0.0038   0.0081   0.0010  -0.0029  -0.0027  -3.20    5.2
2019/03/11 14:53:44.000   27.894570546  -82.373418426   -20.7389   1  10   0.0031   0.0037   0.0080   0.0010  -0.0028  -0.0027  -3.00    5.3
2019/03/11 14:53:44.200   27.894570547  -82.373418410   -20.7345   1  10   0.0030   0.0037   0.0079   0.0010  -0.0028  -0.0027  -2.80    5.4
2019/03/11 14:53:44.400   27.894570549  -82.373418413   -20.7377   1  10   0.0030   0.0036   0.0078   0.0010  -0.0027  -0.0026  -2.60    5.6
2019/03/11 14:53:44.600   27.894570554  -82.373418410   -20.7356   1  10   0.0030   0.0036   0.0078   0.0010  -0.0027  -0.0026  -2.40    5.7
2019/03/11 14:53:44.800   27.894570548  -82.373418431   -20.7355   1  10   0.0030   0.0037   0.0079   0.0010  -0.0028  -0.0027  -2.20    5.8
2019/03/11 14:53:45.000   27.894570559  -82.373418424   -20.7368   1  10   0.0031   0.0037   0.0080   0.0010  -0.0028  -0.0027  -2.00    6.0
2019/03/11 14:53:45.200   27.894570545  -82.373418406   -20.7398   1  10   0.0031   0.0038   0.0081   0.0010  -0.0029  -0.0027  -1.80    6.1
2019/03/11 14:53:45.400   27.894570551  -82.373418412   -20.7398   1  10   0.0031   0.0038   0.0082   0.0010  -0.0029  -0.0028  -1.60    6.3
2019/03/11 14:53:45.600   27.894570550  -82.373418391   -20.7394   1  10   0.0032   0.0039   0.0083   0.0010  -0.0030  -0.0028  -1.40    6.4
2019/03/11 14:53:45.800   27.894570549  -82.373418424   -20.7391   1  10   0.0032   0.0039   0.0084   0.0010  -0.0030  -0.0028  -1.20    6.5
