% program   : RTKPOST ver.demo5 b31
% inp file  : D:\Data\Fla\Tampa-StPete-area\WGI-larrysanders\2019\0311\GPS\UAS\GP145212.obs
% inp file  : D:\Data\Fla\Tampa-StPete-area\WGI-larrysanders\2019\0311\GPS\WGI-Base\log0070o.19O
% inp file  : D:\Data\Fla\Tampa-StPete-area\WGI-larrysanders\2019\0311\GPS\ZEFR\zefr0700.19n
% inp file  : D:\Data\Fla\Tampa-StPete-area\WGI-larrysanders\2019\0311\GPS\ZEFR\igu20441_18.sp3
% inp file  : D:\Data\Fla\Tampa-StPete-area\WGI-larrysanders\2019\0311\GPS\ZEFR\zefr0700.19g
% obs start : 2019/03/11 14:52:12.5 UTC (week2044 139950.5s)
% obs end   : 2019/03/11 15:13:07.8 UTC (week2044 141205.8s)
% pos mode  : kinematic
% freqs     : L1+L2
% solution  : combined
% elev mask : 15.0 deg
% dynamics  : on
% tidecorr  : off
% ionos opt : broadcast
% tropo opt : saastamoinen
% ephemeris : precise
% navi sys  : gps glonass sbas
% amb res   : continuous
% amb glo   : fix and hold
% val thres : 3.0
% antenna1  :                       ( 0.0000  0.0000  0.0000)
% antenna2  : SOKGRX1         NONE  ( 0.0000  0.0000  1.6850)
% ref pos   : 27.894675781  -82.373413381   -21.0610
%
% (lat/lon/height=WGS84/ellipsoidal,Q=1:fix,2:float,3:sbas,4:dgps,5:single,6:ppp,ns=# of satellites)
%  UTC                   latitude(deg) longitude(deg)  height(m)   Q  ns   sdn(m)   sde(m)   sdu(m)  sdne(m)  sdeu(m)  sdun(m) age(s)  ratio
2019/03/11 14:52:23.600   27.894570601  -82.373418387   -20.6733   1   5   0.0070   0.0078   0.0141  -0.0036   0.0054  -0.0074   0.60    3.5
2019/03/11 14:52:23.800   27.894570700  -82.373418467   -20.6782   1   5   0.0165   0.0111   0.0148  -0.0115   0.0080  -0.0110   0.80    9.2
2019/03/11 14:52:24.000   27.894570787  -82.373418522   -20.6809   1   5   0.0174   0.0115   0.0149  -0.0122   0.0085  -0.0116   0.00    6.4
2019/03/11 14:52:24.200   27.894570828  -82.373418645   -20.6914   1   5   0.0204   0.0129   0.0153  -0.0144   0.0094  -0.0128   0.20    3.5
2019/03/11 14:52:24.400   27.894570934  -82.373418652   -20.6920   1   5   0.0332   0.0183   0.0174  -0.0228   0.0131  -0.0164   0.40   13.0
2019/03/11 14:52:24.600   27.894570551  -82.373418459   -20.6859   1   5   0.0091   0.0100   0.0161  -0.0056   0.0086  -0.0081   0.60   14.4
2019/03/11 14:52:24.800   27.894570541  -82.373418446   -20.6801   1   5   0.0091   0.0100   0.0162  -0.0056   0.0087  -0.0081   0.80   14.0
2019/03/11 14:52:25.000   27.894570563  -82.373418492   -20.6767   1   5   0.0090   0.0099   0.0161  -0.0056   0.0086  -0.0081   0.00   13.3
2019/03/11 14:52:25.200   27.894570544  -82.373418494   -20.6567   1   5   0.0091   0.0100   0.0162  -0.0056   0.0087  -0.0081   0.20   12.8
2019/03/11 14:52:25.400   27.894570539  -82.373418429   -20.6554   1   5   0.0091   0.0100   0.0161  -0.0056   0.0086  -0.0081   0.40   12.3
2019/03/11 14:52:25.600   27.894570546  -82.373418361   -20.6555   1   5   0.0091   0.0100   0.0161  -0.0056   0.0086  -0.0081   0.60   11.3
2019/03/11 14:52:25.800   27.894570608  -82.373418445   -20.6744   1   5   0.0091   0.0100   0.0162  -0.0056   0.0087  -0.0081   0.80   10.6
2019/03/11 14:52:26.000   27.894570655  -82.373418474   -20.6716   1   5   0.0090   0.0099   0.0161  -0.0056   0.0086  -0.0081   0.00    9.9
2019/03/11 14:52:26.200   27.894570527  -82.373418407   -20.6626   1   5   0.0091   0.0100   0.0162  -0.0056   0.0087  -0.0081   0.20    9.3
2019/03/11 14:52:26.400   27.894570504  -82.373418335   -20.6587   1   5   0.0091   0.0100   0.0161  -0.0056   0.0086  -0.0081   0.40    9.0
2019/03/11 14:52:26.600   27.894570442  -82.373418384   -20.6606   1   5   0.0091   0.0100   0.0161  -0.0056   0.0086  -0.0081   0.60    8.5
2019/03/11 14:52:26.800   27.894570409  -82.373418361   -20.6565   1   5   0.0091   0.0100   0.0162  -0.0056   0.0087  -0.0081   0.80    8.2
2019/03/11 14:52:27.000   27.894570389  -82.373418338   -20.6642   1   5   0.0090   0.0099   0.0161  -0.0056   0.0086  -0.0081   0.00    8.2
2019/03/11 14:52:27.200   27.894570497  -82.373418333   -20.6687   1   5   0.0091   0.0100   0.0162  -0.0056   0.0087  -0.0081   0.20    7.8
2019/03/11 14:52:27.400   27.894570540  -82.373418376   -20.6774   1   5   0.0091   0.0107   0.0171  -0.0058   0.0098  -0.0083   0.40    5.0
2019/03/11 14:52:27.600   27.894570511  -82.373418369   -20.6814   1   5   0.0091   0.0107   0.0171  -0.0058   0.0099  -0.0083   0.60    3.6
2019/03/11 14:52:27.800   27.894570442  -82.373418325   -20.6636   1   5   0.0091   0.0110   0.0174  -0.0059   0.0103  -0.0084   0.80    3.1
2019/03/11 14:52:28.000   27.894570331  -82.373418252   -20.6391   1   5   0.0069   0.0080   0.0142  -0.0037   0.0058  -0.0074   0.00    3.9
2019/03/11 14:52:28.200   27.894571241  -82.373418572   -20.6487   1   5   0.0255   0.0104   0.0175  -0.0109   0.0067   0.0100   0.20  999.9
2019/03/11 14:52:28.400   27.894571424  -82.373418636   -20.6679   1   5   0.0256   0.0105   0.0175  -0.0110   0.0069   0.0099   0.40  999.9
2019/03/11 14:52:28.600   27.894571346  -82.373418553   -20.6632   1   5   0.0258   0.0106   0.0175  -0.0112   0.0070   0.0098   0.60  999.9
2019/03/11 14:52:28.800   27.894571278  -82.373418565   -20.6595   1   5   0.0260   0.0108   0.0176  -0.0115   0.0072   0.0097   0.80  999.9
2019/03/11 14:52:29.000   27.894571262  -82.373418558   -20.6521   1   5   0.0262   0.0110   0.0177  -0.0117   0.0074   0.0094   0.00  999.9
2019/03/11 14:52:29.200   27.894571210  -82.373418562   -20.6683   1   5   0.0265   0.0113   0.0179  -0.0121   0.0079   0.0087   0.20  999.9
2019/03/11 14:52:29.400   27.894571308  -82.373418542   -20.6693   1   5   0.0280   0.0124   0.0181  -0.0139   0.0088   0.0071   0.40  999.9
2019/03/11 14:52:29.600   27.894571452  -82.373418645   -20.6705   1   5   0.0371   0.0175   0.0189  -0.0222   0.0120  -0.0088   0.60  999.9
2019/03/11 14:52:29.800   27.894570870  -82.373418279   -20.6469   1   5   0.0217   0.0085   0.0176  -0.0056   0.0060   0.0117   0.80  999.9
2019/03/11 14:52:30.000   27.894570880  -82.373418330   -20.6523   1   5   0.0216   0.0083   0.0172  -0.0053   0.0056   0.0121   0.00  999.9
2019/03/11 14:52:30.200   27.894570966  -82.373418198   -20.6413   1   8   0.0096   0.0052   0.0118   0.0029  -0.0033   0.0033   0.20   22.9
2019/03/11 14:52:30.400   27.894571007  -82.373418248   -20.6358   1   8   0.0097   0.0053   0.0118   0.0029  -0.0032   0.0035   0.40   22.2
2019/03/11 14:52:30.600   27.894570932  -82.373418230   -20.6399   1   8   0.0099   0.0054   0.0119   0.0031  -0.0031   0.0038   0.60   21.9
2019/03/11 14:52:30.800   27.894570817  -82.373418209   -20.6414   1   8   0.0100   0.0054   0.0120   0.0031  -0.0031   0.0040   0.80   21.2
2019/03/11 14:52:31.000   27.894570823  -82.373418228   -20.6393   1   8   0.0101   0.0053   0.0119   0.0031  -0.0030   0.0042   0.00   20.7
2019/03/11 14:52:31.200   27.894570821  -82.373418254   -20.6407   1   8   0.0103   0.0054   0.0121   0.0031  -0.0030   0.0044   0.20   20.1
2019/03/11 14:52:31.400   27.894570857  -82.373418237   -20.6393   1   8   0.0105   0.0054   0.0121   0.0032  -0.0029   0.0047   0.40   19.4
2019/03/11 14:52:31.600   27.894570834  -82.373418251   -20.6347   1   8   0.0107   0.0054   0.0122   0.0032  -0.0028   0.0049   0.60   18.4
2019/03/11 14:52:31.800   27.894570903  -82.373418043   -20.6742   1   8   0.0109   0.0056   0.0124   0.0033  -0.0025   0.0052   0.80   17.5
2019/03/11 14:52:32.000   27.894570915  -82.373418063   -20.6788   1   8   0.0111   0.0055   0.0123   0.0033  -0.0025   0.0055   0.00   16.5
2019/03/11 14:52:32.200   27.894570985  -82.373418053   -20.6798   1   8   0.0114   0.0056   0.0125   0.0034  -0.0025   0.0057   0.20   15.4
2019/03/11 14:52:32.400   27.894570964  -82.373418045   -20.6768   1   8   0.0116   0.0055   0.0125   0.0034  -0.0025   0.0060   0.40   14.7
2019/03/11 14:52:32.600   27.894571052  -82.373417980   -20.6761   1   8   0.0119   0.0056   0.0126   0.0034  -0.0024   0.0063   0.60   14.0
2019/03/11 14:52:32.800   27.894571085  -82.373418073   -20.6536   1   8   0.0123   0.0056   0.0127   0.0034  -0.0024   0.0067   0.80   13.5
2019/03/11 14:52:33.000   27.894571023  -82.373418199   -20.6209   1   8   0.0127   0.0055   0.0127   0.0034  -0.0024   0.0070   0.00   13.0
2019/03/11 14:52:33.200   27.894570978  -82.373418144   -20.6330   1   8   0.0131   0.0056   0.0130   0.0034  -0.0024   0.0074   0.20   12.6
2019/03/11 14:52:33.400   27.894570979  -82.373418102   -20.6460   1   8   0.0137   0.0056   0.0130   0.0035  -0.0023   0.0079   0.40   12.4
2019/03/11 14:52:33.600   27.894570947  -82.373418253   -20.6398   1   8   0.0143   0.0056   0.0132   0.0035  -0.0023   0.0084   0.60   11.9
2019/03/11 14:52:33.800   27.894570967  -82.373418210   -20.6305   1   8   0.0150   0.0056   0.0135   0.0034  -0.0023   0.0091   0.80   11.4
2019/03/11 14:52:34.000   27.894570995  -82.373418209   -20.6138   1   8   0.0163   0.0055   0.0138   0.0025  -0.0029   0.0101   0.00   11.1
2019/03/11 14:52:34.200   27.894571036  -82.373418280   -20.6137   1   8   0.0193   0.0058   0.0145  -0.0015  -0.0031   0.0120   0.20   10.6
2019/03/11 14:52:34.400   27.894570935  -82.373418315   -20.6190   1   8   0.0142   0.0060   0.0134   0.0038  -0.0009   0.0084   0.40   10.0
2019/03/11 14:52:34.600   27.894570896  -82.373418314   -20.6172   1   8   0.0145   0.0056   0.0132   0.0031  -0.0024   0.0085   0.60    9.4
2019/03/11 14:52:34.800   27.894570987  -82.373418321   -20.6148   1   8   0.0151   0.0057   0.0135   0.0032  -0.0023   0.0091   0.80    8.8
2019/03/11 14:52:35.000   27.894571023  -82.373418307   -20.6109   1   8   0.0158   0.0056   0.0136   0.0034  -0.0022   0.0097   0.00    8.1
2019/03/11 14:52:35.200   27.894571102  -82.373418276   -20.6088   1   8   0.0167   0.0057   0.0140   0.0035  -0.0021   0.0104   0.20    7.4
2019/03/11 14:52:35.400   27.894570862  -82.373418339   -20.6300   1   8   0.0154   0.0051   0.0134   0.0044  -0.0022   0.0093   0.40    5.5
2019/03/11 14:52:35.600   27.894570890  -82.373418358   -20.6337   1   8   0.0169   0.0052   0.0142   0.0048  -0.0015   0.0109   0.60    5.1
2019/03/11 14:52:35.800   27.894570973  -82.373418367   -20.6360   1   8   0.0200   0.0054   0.0156   0.0056   0.0018   0.0137   0.80    4.6
2019/03/11 14:52:36.000   27.894571387  -82.373418379   -20.6138   1   8   0.0485   0.0059   0.0269  -0.0060  -0.0055   0.0340   0.00  128.0
2019/03/11 14:52:36.200   27.894571308  -82.373418422   -20.6096   1   6   0.0532   0.0059   0.0295  -0.0066  -0.0060   0.0377   0.20  129.2
2019/03/11 14:52:36.400   27.894571424  -82.373418398   -20.5898   1   6   0.0602   0.0060   0.0323  -0.0091  -0.0074   0.0423   0.40  129.5
2019/03/11 14:52:36.600   27.894571647  -82.373418383   -20.5726   1   6   0.0666   0.0068   0.0340  -0.0140  -0.0102   0.0459   0.60  130.5
2019/03/11 14:52:36.800   27.894571157  -82.373418371   -20.6031   1   6   0.0279   0.0055   0.0182   0.0073   0.0037   0.0192   0.80   15.0
2019/03/11 14:52:37.000   27.894571046  -82.373418417   -20.6063   1   6   0.0276   0.0054   0.0180   0.0073   0.0037   0.0189   0.00   14.8
2019/03/11 14:52:37.200   27.894571017  -82.373418390   -20.6059   1   6   0.0279   0.0055   0.0182   0.0073   0.0037   0.0192   0.20   14.5
2019/03/11 14:52:37.400   27.894571095  -82.373418384   -20.6020   1   6   0.0278   0.0055   0.0181   0.0073   0.0037   0.0191   0.40   14.3
2019/03/11 14:52:37.600   27.894571196  -82.373418382   -20.6006   1   6   0.0278   0.0055   0.0181   0.0073   0.0037   0.0191   0.60   14.1
2019/03/11 14:52:37.800   27.894571460  -82.373418409   -20.5854   1   6   0.0279   0.0055   0.0182   0.0073   0.0037   0.0192   0.80   13.7
2019/03/11 14:52:38.000   27.894571339  -82.373418379   -20.5896   1   6   0.0195   0.0039   0.0127   0.0052   0.0026   0.0134   0.00    4.6
2019/03/11 14:52:38.200   27.894571417  -82.373418382   -20.5910   1   6   0.0200   0.0039   0.0130   0.0052   0.0027   0.0138  -0.80    4.5
2019/03/11 14:52:38.400   27.894571316  -82.373418403   -20.5954   1   6   0.0197   0.0039   0.0128   0.0052   0.0026   0.0136  -0.60    4.5
2019/03/11 14:52:38.600   27.894571218  -82.373418438   -20.6000   1   6   0.0196   0.0039   0.0128   0.0052   0.0026   0.0135  -0.40    4.5
2019/03/11 14:52:38.800   27.894571216  -82.373418439   -20.6043   1   6   0.0197   0.0039   0.0128   0.0052   0.0026   0.0136  -0.20    4.5
2019/03/11 14:52:39.000   27.894571284  -82.373418429   -20.5984   1   6   0.0195   0.0039   0.0127   0.0051   0.0026   0.0134   0.00    4.4
2019/03/11 14:52:39.200   27.894571304  -82.373418420   -20.5978   1   6   0.0197   0.0039   0.0128   0.0052   0.0026   0.0136  -0.80    4.4
2019/03/11 14:52:39.400   27.894571287  -82.373418397   -20.6023   1   6   0.0196   0.0039   0.0128   0.0052   0.0026   0.0135  -0.60    4.3
2019/03/11 14:52:39.600   27.894571083  -82.373418435   -20.6098   1   6   0.0196   0.0039   0.0128   0.0052   0.0026   0.0135  -0.40    4.3
2019/03/11 14:52:39.800   27.894571065  -82.373418406   -20.6128   1   6   0.0197   0.0039   0.0128   0.0052   0.0026   0.0135  -0.20    4.2
2019/03/11 14:52:40.000   27.894571082  -82.373418427   -20.6107   1   6   0.0195   0.0039   0.0127   0.0052   0.0026   0.0134   0.00    4.1
2019/03/11 14:52:40.200   27.894571269  -82.373418429   -20.6009   1   6   0.0197   0.0039   0.0128   0.0052   0.0026   0.0135  -0.80    4.0
2019/03/11 14:52:40.400   27.894571232  -82.373418395   -20.5981   1   6   0.0196   0.0039   0.0128   0.0052   0.0026   0.0135  -0.60    3.9
2019/03/11 14:52:40.600   27.894571172  -82.373418376   -20.6041   1   6   0.0196   0.0039   0.0128   0.0052   0.0026   0.0135  -0.40    3.8
2019/03/11 14:52:40.800   27.894571147  -82.373418337   -20.6139   1   6   0.0197   0.0039   0.0128   0.0052   0.0026   0.0135  -0.20    3.8
2019/03/11 14:52:41.000   27.894571196  -82.373418289   -20.6130   1   6   0.0205   0.0039   0.0131   0.0050   0.0024   0.0141   0.00    3.9
2019/03/11 14:52:41.200   27.894570821  -82.373418300   -20.6567   1   6   0.0243   0.0040   0.0147   0.0041   0.0014   0.0169  -0.80    4.1
2019/03/11 14:52:41.400   27.894569950  -82.373418227   -20.7062   1   6   0.0241   0.0040   0.0144   0.0037   0.0007   0.0166  -0.60    4.1
2019/03/11 14:52:41.600   27.894572973  -82.373418436   -20.5447   1   6   0.0292   0.0055   0.0186   0.0070   0.0033   0.0200   0.60    3.6
2019/03/11 14:52:41.800   27.894572489  -82.373418475   -20.5714   1   6   0.0295   0.0056   0.0188   0.0070   0.0033   0.0203   0.80    3.6
2019/03/11 14:52:42.000   27.894572611  -82.373418453   -20.5573   1   6   0.0298   0.0055   0.0188   0.0068   0.0031   0.0205   0.00    3.5
2019/03/11 14:52:42.200   27.894572935  -82.373418391   -20.5229   1   6   0.0311   0.0056   0.0195   0.0067   0.0030   0.0215   0.20    3.6
2019/03/11 14:52:42.400   27.894572214  -82.373418545   -20.5295   1   6   0.0218   0.0040   0.0136   0.0048   0.0020   0.0150  -0.60    3.6
2019/03/11 14:52:42.600   27.894571336  -82.373418559   -20.6010   1   6   0.0195   0.0039   0.0126   0.0050   0.0022   0.0132  -0.40    3.7
2019/03/11 14:52:42.800   27.894570264  -82.373418241   -20.6971   1   7   0.0156   0.0055   0.0126  -0.0035  -0.0044   0.0079   0.80    3.5
2019/03/11 14:52:43.000   27.894570292  -82.373418166   -20.6887   1   7   0.0155   0.0055   0.0125  -0.0035  -0.0044   0.0079   0.00    3.4
2019/03/11 14:52:43.200   27.894570347  -82.373418160   -20.6983   1   7   0.0155   0.0055   0.0126  -0.0035  -0.0044   0.0079   0.20    3.4
2019/03/11 14:52:43.400   27.894570333  -82.373418122   -20.6993   1   7   0.0155   0.0058   0.0126  -0.0037  -0.0041   0.0078   0.40    3.5
2019/03/11 14:52:43.600   27.894570629  -82.373418164   -20.6937   2   7   0.0202   0.0060   0.0145  -0.0036  -0.0043   0.0122  -0.40    2.5
2019/03/11 14:52:43.800   27.894570559  -82.373418151   -20.7033   1   8   0.0076   0.0056   0.0114   0.0022  -0.0030  -0.0033   0.80    3.1
2019/03/11 14:52:44.000   27.894570593  -82.373418089   -20.6928   1   8   0.0077   0.0057   0.0115   0.0026  -0.0026  -0.0027   0.00    4.3
2019/03/11 14:52:44.200   27.894570596  -82.373418195   -20.6632   1   8   0.0079   0.0058   0.0117   0.0028  -0.0023  -0.0023   0.20    3.9
2019/03/11 14:52:44.400   27.894570563  -82.373418242   -20.6422   1   8   0.0080   0.0059   0.0118   0.0032  -0.0017  -0.0016   0.40    3.3
2019/03/11 14:52:44.600   27.894570322  -82.373418271   -20.6385   1   8   0.0115   0.0060   0.0126   0.0035  -0.0014   0.0058   0.60   25.4
2019/03/11 14:52:44.800   27.894570193  -82.373418243   -20.6243   1   7   0.0116   0.0060   0.0127   0.0035  -0.0014   0.0059   0.80   23.7
2019/03/11 14:52:45.000   27.894570151  -82.373418278   -20.6396   1   7   0.0117   0.0059   0.0126   0.0035  -0.0013   0.0061   0.00   25.6
2019/03/11 14:52:45.200   27.894570076  -82.373418258   -20.6520   1   7   0.0119   0.0060   0.0128   0.0036  -0.0013   0.0063   0.20   25.0
2019/03/11 14:52:45.400   27.894570277  -82.373418294   -20.6209   1   7   0.0067   0.0042   0.0086   0.0024  -0.0014   0.0021  -0.60    3.1
2019/03/11 14:52:45.600   27.894570195  -82.373418291   -20.6131   1   7   0.0067   0.0042   0.0086   0.0024  -0.0014   0.0022  -0.40    4.1
2019/03/11 14:52:45.800   27.894570239  -82.373418335   -20.6178   1   7   0.0067   0.0043   0.0087   0.0024  -0.0013   0.0022  -0.20    5.8
2019/03/11 14:52:46.000   27.894570368  -82.373418441   -20.6340   1   7   0.0068   0.0045   0.0087   0.0026   0.0003   0.0024   0.00    6.9
2019/03/11 14:52:46.200   27.894570343  -82.373418369   -20.6305   1   7   0.0068   0.0046   0.0088   0.0026   0.0004   0.0025  -0.80    8.6
2019/03/11 14:52:46.400   27.894570180  -82.373418365   -20.6616   1   7   0.0134   0.0064   0.0133   0.0042   0.0019   0.0078   0.40   20.2
2019/03/11 14:52:46.600   27.894570248  -82.373418440   -20.6638   1   7   0.0137   0.0064   0.0134   0.0042   0.0020   0.0081   0.60   20.1
2019/03/11 14:52:46.800   27.894570363  -82.373418338   -20.6513   1   7   0.0141   0.0064   0.0135   0.0043   0.0020   0.0085   0.80   19.5
2019/03/11 14:52:47.000   27.894570410  -82.373418326   -20.6510   1   7   0.0144   0.0064   0.0136   0.0043   0.0021   0.0088   0.00   18.7
2019/03/11 14:52:47.200   27.894570456  -82.373418390   -20.6459   1   7   0.0150   0.0064   0.0138   0.0044   0.0022   0.0093   0.20   18.2
2019/03/11 14:52:47.400   27.894570505  -82.373418292   -20.6395   1   7   0.0155   0.0064   0.0140   0.0045   0.0023   0.0097   0.40   17.2
2019/03/11 14:52:47.600   27.894570538  -82.373418287   -20.6323   1   7   0.0162   0.0064   0.0142   0.0046   0.0024   0.0103   0.60   15.8
2019/03/11 14:52:47.800   27.894570609  -82.373418241   -20.6275   1   7   0.0170   0.0064   0.0145   0.0048   0.0025   0.0110   0.80   14.1
2019/03/11 14:52:48.000   27.894570782  -82.373418238   -20.6131   1   7   0.0180   0.0064   0.0147   0.0050   0.0028   0.0118   0.00   10.7
2019/03/11 14:52:48.200   27.894570938  -82.373418338   -20.5942   1   7   0.0193   0.0064   0.0153   0.0051   0.0029   0.0128   0.20    3.8
2019/03/11 14:52:48.400   27.894570594  -82.373418299   -20.6088   1   6   0.0209   0.0072   0.0160   0.0015   0.0005   0.0143   0.40  403.4
2019/03/11 14:52:48.600   27.894570501  -82.373418391   -20.6755   1   6   0.0234   0.0072   0.0169   0.0010  -0.0006   0.0161   0.60  401.0
2019/03/11 14:52:48.800   27.894570942  -82.373418342   -20.6323   1   6   0.0402   0.0074   0.0219  -0.0067  -0.0046   0.0269   0.80  395.8
2019/03/11 14:52:49.000   27.894570733  -82.373418320   -20.6400   1   6   0.0080   0.0065   0.0118   0.0033   0.0008  -0.0015   0.00   61.1
2019/03/11 14:52:49.200   27.894570671  -82.373418326   -20.6428   1   6   0.0081   0.0066   0.0119   0.0033   0.0009  -0.0015   0.20   61.1
2019/03/11 14:52:49.400   27.894570581  -82.373418315   -20.6430   1   6   0.0081   0.0066   0.0119   0.0033   0.0009  -0.0015   0.40   60.9
2019/03/11 14:52:49.600   27.894570669  -82.373418285   -20.6361   1   6   0.0081   0.0066   0.0119   0.0033   0.0009  -0.0015   0.60   60.8
2019/03/11 14:52:49.800   27.894570670  -82.373418322   -20.6249   1   6   0.0081   0.0066   0.0119   0.0033   0.0009  -0.0015   0.80   60.6
2019/03/11 14:52:50.000   27.894570720  -82.373418299   -20.6251   1   6   0.0080   0.0065   0.0118   0.0033   0.0008  -0.0015   0.00   60.4
2019/03/11 14:52:50.200   27.894570702  -82.373418304   -20.6273   1   6   0.0081   0.0066   0.0119   0.0033   0.0009  -0.0015   0.20   60.2
2019/03/11 14:52:50.400   27.894570682  -82.373418337   -20.6291   1   6   0.0080   0.0061   0.0116   0.0032  -0.0023  -0.0018   0.40   57.9
2019/03/11 14:52:50.600   27.894570677  -82.373418331   -20.6267   1   6   0.0080   0.0061   0.0116   0.0032  -0.0023  -0.0018   0.60   57.8
2019/03/11 14:52:50.800   27.894570659  -82.373418345   -20.6374   1   7   0.0076   0.0058   0.0113   0.0022  -0.0033  -0.0032   0.80   57.9
2019/03/11 14:52:51.000   27.894570656  -82.373418344   -20.6378   1   7   0.0076   0.0058   0.0112   0.0022  -0.0032  -0.0032   0.00   57.4
2019/03/11 14:52:51.200   27.894570642  -82.373418344   -20.6349   1   7   0.0076   0.0058   0.0113   0.0022  -0.0033  -0.0032   0.20   56.9
2019/03/11 14:52:51.400   27.894570637  -82.373418399   -20.6319   1   7   0.0076   0.0058   0.0113   0.0022  -0.0033  -0.0032   0.40   56.5
2019/03/11 14:52:51.600   27.894570616  -82.373418403   -20.6358   1   7   0.0076   0.0058   0.0113   0.0022  -0.0033  -0.0032   0.60   56.1
2019/03/11 14:52:51.800   27.894570651  -82.373418389   -20.6411   1   7   0.0076   0.0058   0.0113   0.0022  -0.0033  -0.0032   0.80   55.7
2019/03/11 14:52:52.000   27.894570675  -82.373418377   -20.6438   1   7   0.0076   0.0058   0.0112   0.0022  -0.0032  -0.0032   0.00   55.3
2019/03/11 14:52:52.200   27.894570665  -82.373418440   -20.6362   1   8   0.0076   0.0053   0.0113   0.0022  -0.0035  -0.0032   0.20   18.2
2019/03/11 14:52:52.400   27.894570682  -82.373418475   -20.6309   1   8   0.0076   0.0053   0.0113   0.0022  -0.0035  -0.0032   0.40   17.4
2019/03/11 14:52:52.600   27.894570642  -82.373418486   -20.6340   1   8   0.0076   0.0053   0.0113   0.0022  -0.0035  -0.0032   0.60   16.7
2019/03/11 14:52:52.800   27.894570683  -82.373418414   -20.6368   1   8   0.0076   0.0053   0.0113   0.0022  -0.0035  -0.0032   0.80   16.0
2019/03/11 14:52:53.000   27.894570617  -82.373418367   -20.6420   1   8   0.0076   0.0053   0.0112   0.0022  -0.0035  -0.0032   0.00   15.1
2019/03/11 14:52:53.200   27.894570581  -82.373418322   -20.6470   1   8   0.0076   0.0053   0.0113   0.0022  -0.0035  -0.0033   0.20   14.2
2019/03/11 14:52:53.400   27.894570591  -82.373418295   -20.6457   1   8   0.0072   0.0052   0.0110   0.0015  -0.0038  -0.0040   0.40   13.2
2019/03/11 14:52:53.600   27.894570569  -82.373418307   -20.6479   1   8   0.0072   0.0052   0.0110   0.0015  -0.0038  -0.0040   0.60   12.1
2019/03/11 14:52:53.800   27.894570528  -82.373418335   -20.6569   1   8   0.0072   0.0052   0.0111   0.0015  -0.0038  -0.0040   0.80   11.3
2019/03/11 14:52:54.000   27.894570545  -82.373418413   -20.6641   1   8   0.0071   0.0052   0.0110   0.0015  -0.0038  -0.0040   0.00   10.2
2019/03/11 14:52:54.200   27.894570537  -82.373418347   -20.6655   1   8   0.0051   0.0037   0.0078   0.0010  -0.0027  -0.0028  -0.80    3.1
2019/03/11 14:52:54.400   27.894570510  -82.373418354   -20.6758   1   8   0.0051   0.0037   0.0078   0.0010  -0.0027  -0.0028  -0.60    3.3
2019/03/11 14:52:54.600   27.894570536  -82.373418362   -20.6702   1   8   0.0051   0.0037   0.0078   0.0010  -0.0027  -0.0028  -0.40    3.6
2019/03/11 14:52:54.800   27.894570458  -82.373418341   -20.6708   1   8   0.0051   0.0037   0.0078   0.0010  -0.0027  -0.0028  -0.20    3.8
2019/03/11 14:52:55.000   27.894570453  -82.373418347   -20.6724   1   8   0.0050   0.0034   0.0078   0.0014  -0.0027  -0.0028   0.00    5.4
2019/03/11 14:52:55.200   27.894570490  -82.373418391   -20.6643   1   8   0.0050   0.0035   0.0078   0.0014  -0.0027  -0.0028  -0.80    5.8
2019/03/11 14:52:55.400   27.894570460  -82.373418356   -20.6628   1   8   0.0050   0.0036   0.0078   0.0013  -0.0027  -0.0028  -0.60    6.1
2019/03/11 14:52:55.600   27.894570501  -82.373418393   -20.6692   1   8   0.0050   0.0037   0.0078   0.0012  -0.0027  -0.0028  -0.40    6.4
2019/03/11 14:52:55.800   27.894570485  -82.373418344   -20.6710   1   8   0.0050   0.0034   0.0078   0.0014  -0.0027  -0.0028  -0.20    6.8
2019/03/11 14:52:56.000   27.894570484  -82.373418359   -20.6636   1   8   0.0050   0.0034   0.0078   0.0014  -0.0027  -0.0028   0.00    7.2
2019/03/11 14:52:56.200   27.894570473  -82.373418371   -20.6627   1   8   0.0050   0.0034   0.0078   0.0014  -0.0027  -0.0028  -0.80    7.5
2019/03/11 14:52:56.400   27.894570496  -82.373418303   -20.6736   1   8   0.0058   0.0048   0.0110   0.0025  -0.0038  -0.0046   0.40   24.7
2019/03/11 14:52:56.600   27.894570536  -82.373418273   -20.6811   1   8   0.0041   0.0034   0.0077   0.0017  -0.0027  -0.0033  -0.40    5.3
2019/03/11 14:52:56.800   27.894570493  -82.373418321   -20.6724   1   8   0.0041   0.0034   0.0078   0.0017  -0.0027  -0.0033  -0.20    5.9
2019/03/11 14:52:57.000   27.894570388  -82.373418451   -20.6446   1   8   0.0041   0.0034   0.0077   0.0017  -0.0027  -0.0033   0.00    6.6
2019/03/11 14:52:57.200   27.894570379  -82.373418447   -20.6365   1   8   0.0041   0.0034   0.0078   0.0017  -0.0027  -0.0033  -0.80    7.4
2019/03/11 14:52:57.400   27.894570366  -82.373418443   -20.6358   1   8   0.0041   0.0034   0.0077   0.0017  -0.0027  -0.0033  -0.60    8.1
2019/03/11 14:52:57.600   27.894570469  -82.373418357   -20.6613   1   8   0.0041   0.0034   0.0077   0.0017  -0.0027  -0.0033  -0.40    8.7
2019/03/11 14:52:57.800   27.894570483  -82.373418357   -20.6694   1   8   0.0041   0.0034   0.0078   0.0017  -0.0027  -0.0033  -0.20    9.1
2019/03/11 14:52:58.000   27.894570479  -82.373418320   -20.6799   1   8   0.0041   0.0034   0.0077   0.0017  -0.0027  -0.0033   0.00    9.6
2019/03/11 14:52:58.200   27.894570496  -82.373418300   -20.6731   1   8   0.0041   0.0034   0.0078   0.0017  -0.0027  -0.0033  -0.80    9.9
2019/03/11 14:52:58.400   27.894570461  -82.373418309   -20.6694   1   8   0.0041   0.0034   0.0077   0.0017  -0.0027  -0.0033  -0.60   10.2
2019/03/11 14:52:58.600   27.894570462  -82.373418299   -20.6729   1   8   0.0041   0.0034   0.0077   0.0017  -0.0027  -0.0033  -0.40   10.5
2019/03/11 14:52:58.800   27.894570464  -82.373418320   -20.6763   1   8   0.0041   0.0034   0.0078   0.0017  -0.0027  -0.0033  -0.20   10.7
2019/03/11 14:52:59.000   27.894570457  -82.373418329   -20.6772   1   8   0.0041   0.0034   0.0077   0.0017  -0.0027  -0.0033   0.00   10.9
2019/03/11 14:52:59.200   27.894570480  -82.373418318   -20.6771   1   8   0.0041   0.0034   0.0078   0.0017  -0.0027  -0.0033  -0.80   11.2
2019/03/11 14:52:59.400   27.894570477  -82.373418313   -20.6740   1   8   0.0041   0.0034   0.0077   0.0017  -0.0027  -0.0033  -0.60   11.4
2019/03/11 14:52:59.600   27.894570471  -82.373418303   -20.6721   1   8   0.0041   0.0034   0.0077   0.0017  -0.0027  -0.0033  -0.40   11.6
2019/03/11 14:52:59.800   27.894570478  -82.373418300   -20.6740   1   8   0.0041   0.0034   0.0078   0.0017  -0.0027  -0.0033  -0.20   11.8
2019/03/11 14:53:00.000   27.894570497  -82.373418299   -20.6770   1   8   0.0041   0.0034   0.0077   0.0017  -0.0027  -0.0032   0.00   12.1
2019/03/11 14:53:00.200   27.894570526  -82.373418283   -20.6753   1  10   0.0039   0.0047   0.0102   0.0013  -0.0035  -0.0035   0.20    8.5
2019/03/11 14:53:00.400   27.894570514  -82.373418296   -20.6760   1  10   0.0039   0.0047   0.0102   0.0013  -0.0035  -0.0035   0.40    8.4
2019/03/11 14:53:00.600   27.894570501  -82.373418303   -20.6747   1  10   0.0027   0.0033   0.0072   0.0009  -0.0025  -0.0025  -0.40    7.1
2019/03/11 14:53:00.800   27.894570510  -82.373418301   -20.6754   1  10   0.0028   0.0033   0.0073   0.0009  -0.0025  -0.0025  -0.20    8.6
2019/03/11 14:53:01.000   27.894570495  -82.373418308   -20.6699   1  10   0.0027   0.0033   0.0072   0.0009  -0.0025  -0.0025   0.00   10.0
2019/03/11 14:53:01.200   27.894570496  -82.373418295   -20.6719   1  10   0.0028   0.0033   0.0073   0.0009  -0.0025  -0.0025  -0.80   11.2
2019/03/11 14:53:01.400   27.894570504  -82.373418325   -20.6675   1  10   0.0027   0.0033   0.0072   0.0009  -0.0025  -0.0025  -0.60   12.0
2019/03/11 14:53:01.600   27.894570503  -82.373418323   -20.6660   1  10   0.0027   0.0033   0.0072   0.0009  -0.0025  -0.0025  -0.40   12.8
2019/03/11 14:53:01.800   27.894570495  -82.373418340   -20.6597   1  10   0.0028   0.0033   0.0073   0.0009  -0.0025  -0.0025  -0.20   13.6
2019/03/11 14:53:02.000   27.894570492  -82.373418338   -20.6590   1  10   0.0027   0.0033   0.0072   0.0009  -0.0025  -0.0025   0.00   14.2
2019/03/11 14:53:02.200   27.894570490  -82.373418362   -20.6589   1  10   0.0028   0.0033   0.0073   0.0009  -0.0025  -0.0025  -0.80   14.9
2019/03/11 14:53:02.400   27.894570485  -82.373418404   -20.6596   1  10   0.0027   0.0033   0.0072   0.0009  -0.0025  -0.0025  -0.60   15.3
2019/03/11 14:53:02.600   27.894570482  -82.373418385   -20.6586   1  10   0.0027   0.0033   0.0072   0.0009  -0.0025  -0.0025  -0.40   15.8
2019/03/11 14:53:02.800   27.894570480  -82.373418385   -20.6555   1  10   0.0028   0.0033   0.0073   0.0009  -0.0025  -0.0025  -0.20   15.9
2019/03/11 14:53:03.000   27.894570476  -82.373418430   -20.6459   1  10   0.0027   0.0033   0.0072   0.0009  -0.0025  -0.0025   0.00   15.5
2019/03/11 14:53:03.200   27.894570460  -82.373418432   -20.6436   1  10   0.0028   0.0033   0.0073   0.0009  -0.0025  -0.0025  -0.80   15.4
2019/03/11 14:53:03.400   27.894570498  -82.373418336   -20.6593   1  10   0.0027   0.0033   0.0072   0.0009  -0.0025  -0.0025  -0.60   14.8
2019/03/11 14:53:03.600   27.894570480  -82.373418361   -20.6670   1  10   0.0027   0.0033   0.0072   0.0009  -0.0025  -0.0025  -0.40   14.6
2019/03/11 14:53:03.800   27.894570461  -82.373418367   -20.6600   1  10   0.0028   0.0033   0.0073   0.0009  -0.0025  -0.0025  -0.20   14.3
2019/03/11 14:53:04.000   27.894570481  -82.373418384   -20.6681   1  10   0.0027   0.0033   0.0072   0.0009  -0.0025  -0.0025   0.00   14.0
2019/03/11 14:53:04.200   27.894570511  -82.373418383   -20.6651   1  10   0.0028   0.0033   0.0073   0.0009  -0.0025  -0.0025  -0.80   13.8
2019/03/11 14:53:04.400   27.894570501  -82.373418372   -20.6652   1  10   0.0027   0.0033   0.0072   0.0009  -0.0025  -0.0025  -0.60   13.4
2019/03/11 14:53:04.600   27.894570508  -82.373418335   -20.6729   1  10   0.0027   0.0033   0.0072   0.0009  -0.0025  -0.0025  -0.40    9.6
2019/03/11 14:53:04.800   27.894570513  -82.373418344   -20.6729   1  10   0.0028   0.0033   0.0072   0.0009  -0.0025  -0.0025  -0.20    9.6
2019/03/11 14:53:05.000   27.894570480  -82.373418324   -20.6776   1  10   0.0027   0.0033   0.0072   0.0009  -0.0024  -0.0025   0.00    9.5
2019/03/11 14:53:05.200   27.894570512  -82.373418323   -20.6765   1  10   0.0028   0.0033   0.0072   0.0009  -0.0025  -0.0025  -0.80    9.5
2019/03/11 14:53:05.400   27.894570524  -82.373418330   -20.6791   1  10   0.0027   0.0033   0.0072   0.0009  -0.0025  -0.0025  -0.60    9.4
2019/03/11 14:53:05.600   27.894570530  -82.373418330   -20.6798   1  10   0.0027   0.0033   0.0072   0.0009  -0.0025  -0.0025  -0.40    9.4
2019/03/11 14:53:05.800   27.894570532  -82.373418320   -20.6812   1  10   0.0028   0.0033   0.0072   0.0009  -0.0025  -0.0025  -0.20    9.4
2019/03/11 14:53:06.000   27.894570527  -82.373418329   -20.6796   1  10   0.0027   0.0033   0.0072   0.0009  -0.0024  -0.0025   0.00    9.4
2019/03/11 14:53:06.200   27.894570530  -82.373418312   -20.6815   1  10   0.0028   0.0033   0.0072   0.0009  -0.0025  -0.0025  -0.80    9.4
2019/03/11 14:53:06.400   27.894570541  -82.373418332   -20.6823   1  10   0.0027   0.0033   0.0072   0.0009  -0.0025  -0.0025  -0.60    9.4
2019/03/11 14:53:06.600   27.894570512  -82.373418339   -20.6735   1  10   0.0027   0.0033   0.0072   0.0009  -0.0025  -0.0025  -0.40    9.4
2019/03/11 14:53:06.800   27.894570499  -82.373418327   -20.6723   1  10   0.0028   0.0033   0.0072   0.0009  -0.0025  -0.0025  -0.20    9.4
2019/03/11 14:53:07.000   27.894570485  -82.373418336   -20.6713   1  10   0.0027   0.0033   0.0072   0.0009  -0.0024  -0.0025   0.00    9.2
2019/03/11 14:53:07.200   27.894570498  -82.373418347   -20.6726   1  10   0.0028   0.0033   0.0072   0.0009  -0.0025  -0.0025  -0.80    9.2
2019/03/11 14:53:07.400   27.894570507  -82.373418374   -20.6677   1  10   0.0027   0.0033   0.0072   0.0009  -0.0025  -0.0025  -0.60    9.2
2019/03/11 14:53:07.600   27.894570499  -82.373418368   -20.6705   1  10   0.0027   0.0033   0.0072   0.0009  -0.0025  -0.0025  -0.40    9.1
2019/03/11 14:53:07.800   27.894570507  -82.373418375   -20.6682   1  10   0.0028   0.0033   0.0072   0.0009  -0.0025  -0.0025  -0.20    9.1
2019/03/11 14:53:08.000   27.894570493  -82.373418362   -20.6708   1  10   0.0027   0.0033   0.0072   0.0009  -0.0024  -0.0025   0.00    9.1
2019/03/11 14:53:08.200   27.894570491  -82.373418369   -20.6721   1  10   0.0028   0.0033   0.0072   0.0009  -0.0025  -0.0025  -0.80    9.1
2019/03/11 14:53:08.400   27.894570506  -82.373418367   -20.6738   1  10   0.0027   0.0033   0.0072   0.0009  -0.0025  -0.0025  -0.60    9.1
2019/03/11 14:53:08.600   27.894570497  -82.373418361   -20.6772   1  10   0.0027   0.0033   0.0072   0.0009  -0.0025  -0.0025  -0.40    9.1
2019/03/11 14:53:08.800   27.894570509  -82.373418372   -20.6745   1  10   0.0028   0.0033   0.0072   0.0009  -0.0025  -0.0025  -0.20    9.1
2019/03/11 14:53:09.000   27.894570486  -82.373418340   -20.6770   1  10   0.0027   0.0033   0.0072   0.0009  -0.0024  -0.0025   0.00    9.0
2019/03/11 14:53:09.200   27.894570508  -82.373418352   -20.6737   1  10   0.0028   0.0033   0.0072   0.0009  -0.0025  -0.0025  -0.80    9.0
2019/03/11 14:53:09.400   27.894570489  -82.373418349   -20.6706   1  10   0.0027   0.0033   0.0072   0.0009  -0.0025  -0.0025  -0.60    9.0
2019/03/11 14:53:09.600   27.894570494  -82.373418340   -20.6689   1  10   0.0027   0.0033   0.0072   0.0009  -0.0025  -0.0025  -0.40    9.0
2019/03/11 14:53:09.800   27.894570493  -82.373418344   -20.6694   1  10   0.0028   0.0033   0.0072   0.0009  -0.0025  -0.0025  -0.20    9.0
2019/03/11 14:53:10.000   27.894570504  -82.373418357   -20.6691   1  10   0.0027   0.0033   0.0072   0.0009  -0.0024  -0.0025   0.00    9.0
2019/03/11 14:53:10.200   27.894570510  -82.373418358   -20.6780   1  10   0.0028   0.0033   0.0072   0.0009  -0.0025  -0.0025  -0.80    8.9
2019/03/11 14:53:10.400   27.894570493  -82.373418391   -20.6698   1  10   0.0027   0.0033   0.0072   0.0009  -0.0025  -0.0025  -0.60    8.8
2019/03/11 14:53:10.600   27.894570518  -82.373418372   -20.6728   1  10   0.0027   0.0033   0.0072   0.0009  -0.0025  -0.0025  -0.40    8.7
2019/03/11 14:53:10.800   27.894570512  -82.373418359   -20.6769   1  10   0.0028   0.0033   0.0072   0.0009  -0.0025  -0.0025  -0.20    8.6
2019/03/11 14:53:11.000   27.894570508  -82.373418372   -20.6737   1  10   0.0027   0.0033   0.0072   0.0009  -0.0025  -0.0025   0.00    8.6
2019/03/11 14:53:11.200   27.894570513  -82.373418358   -20.6768   1  10   0.0028   0.0033   0.0072   0.0009  -0.0025  -0.0025  -0.80    8.5
2019/03/11 14:53:11.400   27.894570516  -82.373418371   -20.6762   1  10   0.0028   0.0033   0.0073   0.0009  -0.0025  -0.0025  -0.60    8.5
2019/03/11 14:53:11.600   27.894570502  -82.373418393   -20.6696   1  10   0.0028   0.0033   0.0073   0.0009  -0.0025  -0.0025  -0.40    8.4
2019/03/11 14:53:11.800   27.894570504  -82.373418382   -20.6709   1  10   0.0028   0.0033   0.0073   0.0009  -0.0025  -0.0025  -0.20    8.4
2019/03/11 14:53:12.000   27.894570488  -82.373418389   -20.6705   1  10   0.0027   0.0033   0.0072   0.0009  -0.0025  -0.0025   0.00    8.4
2019/03/11 14:53:12.200   27.894570487  -82.373418371   -20.6731   1  10   0.0028   0.0033   0.0073   0.0009  -0.0025  -0.0025  -0.80    8.4
2019/03/11 14:53:12.400   27.894570494  -82.373418374   -20.6743   1  10   0.0028   0.0033   0.0073   0.0009  -0.0025  -0.0025  -0.60    8.4
2019/03/11 14:53:12.600   27.894570473  -82.373418347   -20.6684   1  10   0.0028   0.0033   0.0073   0.0009  -0.0025  -0.0025  -0.40    8.4
2019/03/11 14:53:12.800   27.894570487  -82.373418344   -20.6745   1  10   0.0028   0.0033   0.0073   0.0009  -0.0025  -0.0025  -0.20    8.5
2019/03/11 14:53:13.000   27.894570474  -82.373418312   -20.6681   1  10   0.0027   0.0033   0.0072   0.0009  -0.0025  -0.0025   0.00    8.6
2019/03/11 14:53:13.200   27.894570493  -82.373418327   -20.6680   1  10   0.0028   0.0033   0.0073   0.0009  -0.0025  -0.0026  -0.80    8.7
2019/03/11 14:53:13.400   27.894570496  -82.373418326   -20.6672   1  10   0.0028   0.0033   0.0073   0.0009  -0.0025  -0.0026  -0.60    8.7
2019/03/11 14:53:13.600   27.894570485  -82.373418338   -20.6657   1  10   0.0028   0.0033   0.0073   0.0009  -0.0025  -0.0026  -0.40    8.8
2019/03/11 14:53:13.800   27.894570484  -82.373418335   -20.6624   1  10   0.0028   0.0033   0.0073   0.0009  -0.0025  -0.0026  -0.20    8.9
2019/03/11 14:53:14.000   27.894570484  -82.373418339   -20.6660   1  10   0.0028   0.0033   0.0073   0.0009  -0.0025  -0.0026   0.00    9.0
2019/03/11 14:53:14.200   27.894570492  -82.373418356   -20.6643   1  10   0.0028   0.0033   0.0073   0.0009  -0.0025  -0.0026  -0.80    9.0
2019/03/11 14:53:14.400   27.894570493  -82.373418332   -20.6660   1  10   0.0028   0.0033   0.0073   0.0009  -0.0025  -0.0026  -0.60    9.1
2019/03/11 14:53:14.600   27.894570489  -82.373418347   -20.6651   1  10   0.0028   0.0033   0.0073   0.0009  -0.0025  -0.0026  -0.40    9.2
2019/03/11 14:53:14.800   27.894570475  -82.373418346   -20.6656   1  10   0.0028   0.0033   0.0074   0.0009  -0.0025  -0.0026  -0.20    9.3
2019/03/11 14:53:15.000   27.894570482  -82.373418340   -20.6642   1  10   0.0028   0.0033   0.0073   0.0009  -0.0024  -0.0026   0.00    9.3
2019/03/11 14:53:15.200   27.894570498  -82.373418358   -20.6636   1  10   0.0028   0.0034   0.0074   0.0009  -0.0025  -0.0026  -0.80    9.4
2019/03/11 14:53:15.400   27.894570510  -82.373418344   -20.6653   1  10   0.0028   0.0033   0.0074   0.0008  -0.0024  -0.0027  -0.60    9.5
2019/03/11 14:53:15.600   27.894570492  -82.373418331   -20.6656   1  10   0.0028   0.0033   0.0075   0.0008  -0.0024  -0.0027  -0.40    9.5
2019/03/11 14:53:15.800   27.894570507  -82.373418341   -20.6669   1  10   0.0029   0.0034   0.0076   0.0007  -0.0023  -0.0028  -0.20    9.6
2019/03/11 14:53:16.000   27.894570490  -82.373418368   -20.6697   1  10   0.0030   0.0034   0.0080  -0.0003  -0.0019  -0.0032   0.00    9.8
2019/03/11 14:53:16.200   27.894570504  -82.373418375   -20.6683   1  10   0.0029   0.0034   0.0076   0.0007  -0.0023  -0.0029  -0.80    9.9
2019/03/11 14:53:16.400   27.894570493  -82.373418324   -20.6699   1  10   0.0028   0.0033   0.0075   0.0008  -0.0024  -0.0028  -0.60   10.1
2019/03/11 14:53:16.600   27.894570586  -82.373418294   -20.6782   1  10   0.0028   0.0033   0.0074   0.0008  -0.0024  -0.0027  -0.40   10.3
2019/03/11 14:53:16.800   27.894570579  -82.373418259   -20.6769   1  10   0.0028   0.0034   0.0074   0.0009  -0.0025  -0.0027  -0.20   10.4
2019/03/11 14:53:17.000   27.894570565  -82.373418259   -20.6668   1  10   0.0028   0.0033   0.0073   0.0009  -0.0024  -0.0026   0.00   10.5
2019/03/11 14:53:17.200   27.894570567  -82.373418270   -20.6594   1  10   0.0028   0.0034   0.0074   0.0009  -0.0025  -0.0026  -0.80   10.6
2019/03/11 14:53:17.400   27.894570527  -82.373418319   -20.6555   1  10   0.0028   0.0033   0.0074   0.0009  -0.0025  -0.0026  -0.60   10.8
2019/03/11 14:53:17.600   27.894570570  -82.373418274   -20.6621   1  10   0.0028   0.0033   0.0074   0.0009  -0.0025  -0.0026  -0.40   10.9
2019/03/11 14:53:17.800   27.894570588  -82.373418282   -20.6574   1  10   0.0028   0.0034   0.0074   0.0009  -0.0025  -0.0026  -0.20   11.0
2019/03/11 14:53:18.000   27.894570530  -82.373418312   -20.6552   1  10   0.0028   0.0033   0.0073   0.0009  -0.0025  -0.0026   0.00   11.2
2019/03/11 14:53:18.200   27.894570557  -82.373418284   -20.6594   1  10   0.0028   0.0034   0.0074   0.0009  -0.0025  -0.0026  -0.80   11.4
2019/03/11 14:53:18.400   27.894570548  -82.373418277   -20.6648   1  10   0.0028   0.0033   0.0073   0.0009  -0.0025  -0.0026  -0.60   11.6
2019/03/11 14:53:18.600   27.894570554  -82.373418242   -20.6596   1  10   0.0028   0.0033   0.0073   0.0009  -0.0025  -0.0026  -0.40   11.8
2019/03/11 14:53:18.800   27.894570539  -82.373418243   -20.6611   1  10   0.0028   0.0034   0.0074   0.0009  -0.0025  -0.0026  -0.20   12.0
2019/03/11 14:53:19.000   27.894570533  -82.373418243   -20.6662   1  10   0.0028   0.0033   0.0073   0.0009  -0.0025  -0.0026   0.00    3.4
2019/03/11 14:53:19.200   27.894570493  -82.373418252   -20.6680   1  10   0.0028   0.0034   0.0074   0.0009  -0.0025  -0.0026  -0.80    3.6
2019/03/11 14:53:19.400   27.894570507  -82.373418274   -20.6627   1  10   0.0028   0.0033   0.0073   0.0009  -0.0025  -0.0026  -0.60    4.0
2019/03/11 14:53:19.600   27.894570534  -82.373418313   -20.6560   1  10   0.0028   0.0033   0.0073   0.0009  -0.0025  -0.0026  -0.40    4.2
2019/03/11 14:53:19.800   27.894570524  -82.373418322   -20.6543   1  10   0.0028   0.0034   0.0074   0.0009  -0.0026  -0.0026  -0.20    4.5
2019/03/11 14:53:20.000   27.894570522  -82.373418303   -20.6521   1  10   0.0028   0.0033   0.0073   0.0009  -0.0025  -0.0026   0.00    4.8
2019/03/11 14:53:20.200   27.894570522  -82.373418354   -20.6479   1  10   0.0028   0.0034   0.0074   0.0009  -0.0026  -0.0026  -0.80    5.1
2019/03/11 14:53:20.400   27.894570566  -82.373418408   -20.6482   1  10   0.0028   0.0034   0.0074   0.0010  -0.0026  -0.0027  -0.60    5.4
2019/03/11 14:53:20.600   27.894570550  -82.373418382   -20.6542   1  10   0.0028   0.0034   0.0075   0.0010  -0.0026  -0.0027  -0.40    5.7
2019/03/11 14:53:20.800   27.894570404  -82.373418363   -20.6293   1  10   0.0028   0.0035   0.0075   0.0010  -0.0026  -0.0028  -0.20    6.0
2019/03/11 14:53:21.000   27.894570441  -82.373418509   -20.6619   1  10   0.0028   0.0034   0.0075   0.0010  -0.0025  -0.0027   0.00    8.8
2019/03/11 14:53:21.200   27.894570473  -82.373418390   -20.6512   1  10   0.0029   0.0036   0.0075   0.0012  -0.0026  -0.0027  -0.80    9.1
2019/03/11 14:53:21.400   27.894570501  -82.373418347   -20.6626   1  10   0.0028   0.0036   0.0074   0.0012  -0.0027  -0.0027  -0.60    9.5
2019/03/11 14:53:21.600   27.894570512  -82.373418314   -20.6651   1  10   0.0028   0.0036   0.0074   0.0013  -0.0027  -0.0027  -0.40    9.8
2019/03/11 14:53:21.800   27.894570480  -82.373418349   -20.6615   1  10   0.0028   0.0037   0.0075   0.0013  -0.0027  -0.0027  -0.20   10.0
2019/03/11 14:53:22.000   27.894570481  -82.373418346   -20.6574   1  10   0.0028   0.0038   0.0074   0.0014  -0.0027  -0.0027   0.00   16.1
2019/03/11 14:53:22.200   27.894570464  -82.373418411   -20.6453   1  10   0.0029   0.0037   0.0075   0.0014  -0.0027  -0.0027  -0.80   16.5
2019/03/11 14:53:22.400   27.894570431  -82.373418354   -20.6862   1  10   0.0029   0.0037   0.0075   0.0014  -0.0027  -0.0027  -0.60   17.0
2019/03/11 14:53:22.600   27.894570444  -82.373418167   -20.6705   2  10   0.0029   0.0037   0.0076   0.0015  -0.0028  -0.0027  -0.40    3.1
2019/03/11 14:53:22.800   27.894570575  -82.373418220   -20.6779   2  10   0.0029   0.0038   0.0077   0.0015  -0.0028  -0.0028  -0.20    3.6
2019/03/11 14:53:23.000   27.894570583  -82.373418202   -20.6823   2  10   0.0029   0.0040   0.0079   0.0017  -0.0030  -0.0029   0.00    3.9
2019/03/11 14:53:23.200   27.894570589  -82.373418166   -20.6951   2  10   0.0030   0.0042   0.0080   0.0019  -0.0033  -0.0030  -0.80    4.3
2019/03/11 14:53:23.400   27.894570578  -82.373418150   -20.6981   2  10   0.0031   0.0042   0.0080   0.0020  -0.0033  -0.0031  -0.60    4.9
2019/03/11 14:53:23.600   27.894570590  -82.373418159   -20.6901   2  10   0.0031   0.0042   0.0080   0.0020  -0.0034  -0.0031  -0.40    5.3
2019/03/11 14:53:23.800   27.894570614  -82.373418178   -20.6944   2  10   0.0031   0.0042   0.0080   0.0020  -0.0034  -0.0031  -0.20    5.7
2019/03/11 14:53:24.000   27.894570591  -82.373418217   -20.6943   2  10   0.0030   0.0042   0.0080   0.0020  -0.0033  -0.0031   0.00    6.0
2019/03/11 14:53:24.200   27.894570578  -82.373418209   -20.6960   2  10   0.0031   0.0042   0.0080   0.0020  -0.0034  -0.0031  -0.80    6.4
2019/03/11 14:53:24.400   27.894570630  -82.373418154   -20.7002   2  10   0.0031   0.0042   0.0080   0.0020  -0.0034  -0.0031  -0.60    6.7
2019/03/11 14:53:24.600   27.894570589  -82.373418205   -20.6988   2  10   0.0031   0.0043   0.0081   0.0021  -0.0034  -0.0031  -0.40    7.0
2019/03/11 14:53:24.800   27.894570570  -82.373418165   -20.7059   2  10   0.0031   0.0043   0.0081   0.0021  -0.0035  -0.0032  -0.20    7.2
2019/03/11 14:53:25.000   27.894570562  -82.373418152   -20.7022   2  10   0.0031   0.0043   0.0081   0.0021  -0.0035  -0.0032   0.00    7.5
2019/03/11 14:53:25.200   27.894570541  -82.373418266   -20.6900   2  10   0.0031   0.0043   0.0082   0.0021  -0.0035  -0.0032  -0.80    7.8
2019/03/11 14:53:25.400   27.894570591  -82.373418198   -20.6954   2  10   0.0031   0.0043   0.0081   0.0021  -0.0035  -0.0032  -0.60    8.1
2019/03/11 14:53:25.600   27.894570606  -82.373418247   -20.6860   2  10   0.0031   0.0043   0.0081   0.0021  -0.0035  -0.0032  -0.40    8.4
2019/03/11 14:53:25.800   27.894570637  -82.373418183   -20.6910   2  10   0.0031   0.0043   0.0082   0.0021  -0.0035  -0.0032  -0.20    8.6
2019/03/11 14:53:26.000   27.894570642  -82.373418089   -20.7012   2  10   0.0031   0.0043   0.0081   0.0021  -0.0035  -0.0032   0.00    8.8
2019/03/11 14:53:26.200   27.894570665  -82.373418083   -20.6936   2  10   0.0031   0.0043   0.0082   0.0021  -0.0035  -0.0032  -0.80    8.9
2019/03/11 14:53:26.400   27.894570634  -82.373418176   -20.6907   2  10   0.0031   0.0043   0.0082   0.0021  -0.0035  -0.0032  -0.60    9.0
2019/03/11 14:53:26.600   27.894570624  -82.373418009   -20.7068   2  10   0.0031   0.0043   0.0082   0.0021  -0.0035  -0.0032  -0.40    9.1
2019/03/11 14:53:26.800   27.894570607  -82.373418039   -20.7171   2  10   0.0031   0.0043   0.0082   0.0021  -0.0035  -0.0032  -0.20    9.1
2019/03/11 14:53:27.000   27.894570659  -82.373418103   -20.7133   2  10   0.0031   0.0043   0.0081   0.0021  -0.0035  -0.0032   0.00    9.2
2019/03/11 14:53:27.200   27.894570636  -82.373418101   -20.7038   2  10   0.0031   0.0043   0.0082   0.0021  -0.0035  -0.0033  -0.80    9.2
2019/03/11 14:53:27.400   27.894570628  -82.373418117   -20.7013   2  10   0.0031   0.0043   0.0082   0.0021  -0.0035  -0.0033  -0.60    9.3
2019/03/11 14:53:27.600   27.894570636  -82.373418054   -20.7049   2  10   0.0031   0.0043   0.0082   0.0021  -0.0035  -0.0033  -0.40    9.3
2019/03/11 14:53:27.800   27.894570620  -82.373418045   -20.7000   2  10   0.0032   0.0043   0.0083   0.0021  -0.0035  -0.0033  -0.20    9.3
2019/03/11 14:53:28.000   27.894570640  -82.373418103   -20.6846   2  10   0.0031   0.0043   0.0082   0.0021  -0.0035  -0.0033   0.00    9.3
2019/03/11 14:53:28.200   27.894570509  -82.373417999   -20.7038   2  10   0.0032   0.0043   0.0084   0.0021  -0.0035  -0.0034  -0.80    9.2
2019/03/11 14:53:28.400   27.894570527  -82.373417927   -20.7112   2  10   0.0032   0.0043   0.0085   0.0021  -0.0035  -0.0035  -0.60    9.1
2019/03/11 14:53:28.600   27.894570540  -82.373417939   -20.7128   2  10   0.0032   0.0043   0.0085   0.0021  -0.0034  -0.0035  -0.40    9.0
2019/03/11 14:53:28.800   27.894570500  -82.373417934   -20.7220   2   9   0.0032   0.0044   0.0085   0.0020  -0.0033  -0.0035  -0.20   16.5
2019/03/11 14:53:29.000   27.894570654  -82.373418016   -20.7197   2   9   0.0032   0.0043   0.0085   0.0020  -0.0033  -0.0035   0.00   16.0
2019/03/11 14:53:29.200   27.894570680  -82.373418044   -20.7183   2   9   0.0032   0.0044   0.0085   0.0020  -0.0033  -0.0035  -0.80   15.6
2019/03/11 14:53:29.400   27.894570694  -82.373418057   -20.7170   2   9   0.0032   0.0044   0.0085   0.0020  -0.0033  -0.0035  -0.60   15.2
2019/03/11 14:53:29.600   27.894570713  -82.373418045   -20.7218   2   9   0.0032   0.0044   0.0085   0.0021  -0.0033  -0.0035  -0.40   14.9
2019/03/11 14:53:29.800   27.894570715  -82.373418042   -20.7194   2   9   0.0032   0.0044   0.0086   0.0021  -0.0033  -0.0035  -0.20   14.5
2019/03/11 14:53:30.000   27.894570665  -82.373418123   -20.6986   2   9   0.0032   0.0044   0.0085   0.0021  -0.0033  -0.0035   0.00   14.3
2019/03/11 14:53:30.200   27.894570612  -82.373418106   -20.6959   2   9   0.0032   0.0044   0.0086   0.0021  -0.0033  -0.0035  -0.80   14.0
2019/03/11 14:53:30.400   27.894570596  -82.373418136   -20.6917   2   9   0.0032   0.0044   0.0085   0.0021  -0.0033  -0.0035  -0.60   13.7
2019/03/11 14:53:30.600   27.894570618  -82.373418140   -20.6882   2   9   0.0032   0.0044   0.0086   0.0021  -0.0033  -0.0035  -0.40   13.3
2019/03/11 14:53:30.800   27.894570626  -82.373418179   -20.6828   2   9   0.0032   0.0044   0.0086   0.0021  -0.0034  -0.0035  -0.20   13.0
2019/03/11 14:53:31.000   27.894570700  -82.373417844   -20.6875   2   9   0.0032   0.0044   0.0085   0.0021  -0.0033  -0.0035   0.00   12.7
2019/03/11 14:53:31.200   27.894570676  -82.373418019   -20.6827   2   9   0.0033   0.0045   0.0086   0.0021  -0.0034  -0.0035  -0.80   12.5
2019/03/11 14:53:31.400   27.894570685  -82.373417993   -20.6739   2   9   0.0033   0.0045   0.0086   0.0022  -0.0034  -0.0035  -0.60   12.3
2019/03/11 14:53:31.600   27.894570579  -82.373418241   -20.6779   1   8   0.0033   0.0046   0.0086   0.0023  -0.0033  -0.0035  -0.40   19.3
2019/03/11 14:53:31.800   27.894570539  -82.373418256   -20.6724   1   8   0.0033   0.0046   0.0087   0.0023  -0.0033  -0.0035  -0.20   19.3
2019/03/11 14:53:32.000   27.894570543  -82.373418236   -20.6727   1   8   0.0033   0.0046   0.0086   0.0023  -0.0033  -0.0035   0.00   19.3
2019/03/11 14:53:32.200   27.894570559  -82.373418233   -20.6820   1   8   0.0033   0.0046   0.0087   0.0023  -0.0034  -0.0035  -0.80   19.2
2019/03/11 14:53:32.400   27.894570578  -82.373418194   -20.6855   1   8   0.0033   0.0046   0.0087   0.0024  -0.0034  -0.0035  -0.60   19.2
2019/03/11 14:53:32.600   27.894570583  -82.373418138   -20.6816   1   8   0.0033   0.0046   0.0087   0.0024  -0.0035  -0.0036  -0.40   19.2
2019/03/11 14:53:32.800   27.894570613  -82.373418110   -20.6775   1   8   0.0034   0.0047   0.0088   0.0024  -0.0035  -0.0036  -0.20   19.1
2019/03/11 14:53:33.000   27.894570601  -82.373418080   -20.6779   1   8   0.0034   0.0047   0.0087   0.0024  -0.0035  -0.0036   0.00   19.1
2019/03/11 14:53:33.200   27.894570565  -82.373418090   -20.6678   1   8   0.0034   0.0047   0.0089   0.0025  -0.0037  -0.0037  -0.80   19.1
2019/03/11 14:53:33.400   27.894570572  -82.373418110   -20.6607   1   8   0.0035   0.0048   0.0091   0.0026  -0.0038  -0.0038  -0.60   19.0
2019/03/11 14:53:33.600   27.894570604  -82.373418084   -20.6772   1   9   0.0034   0.0048   0.0092   0.0025  -0.0040  -0.0040  -0.40   19.0
2019/03/11 14:53:33.800   27.894570643  -82.373417998   -20.6952   1   8   0.0038   0.0054   0.0105   0.0033  -0.0054  -0.0050  -0.20   23.1
2019/03/11 14:53:34.000   27.894570644  -82.373417992   -20.6983   1   8   0.0038   0.0055   0.0105   0.0034  -0.0055  -0.0050   0.00   23.1
2019/03/11 14:53:34.200   27.894570549  -82.373418285   -20.6758   1   8   0.0037   0.0049   0.0104   0.0029  -0.0051  -0.0048  -0.80   23.1
2019/03/11 14:53:34.400   27.894570518  -82.373418314   -20.6685   1   8   0.0037   0.0047   0.0104   0.0028  -0.0050  -0.0048  -0.60   23.1
2019/03/11 14:53:34.600   27.894570523  -82.373418294   -20.6671   1   8   0.0036   0.0046   0.0103   0.0027  -0.0049  -0.0048  -0.40   23.2
2019/03/11 14:53:34.800   27.894570520  -82.373418275   -20.6679   1   8   0.0036   0.0045   0.0103   0.0026  -0.0048  -0.0047  -0.20   23.2
2019/03/11 14:53:35.000   27.894570522  -82.373418277   -20.6709   1   8   0.0035   0.0044   0.0102   0.0025  -0.0047  -0.0047   0.00   23.2
2019/03/11 14:53:35.200   27.894570509  -82.373418308   -20.6682   1   8   0.0034   0.0042   0.0102   0.0022  -0.0046  -0.0046  -0.80    3.7
2019/03/11 14:53:35.400   27.894570498  -82.373418356   -20.6652   1   8   0.0034   0.0040   0.0101   0.0021  -0.0045  -0.0045  -0.60    4.0
2019/03/11 14:53:35.600   27.894570498  -82.373418342   -20.6655   1   8   0.0034   0.0040   0.0101   0.0021  -0.0044  -0.0045  -0.40    4.5
2019/03/11 14:53:35.800   27.894570482  -82.373418357   -20.6647   1   8   0.0034   0.0040   0.0101   0.0021  -0.0044  -0.0045  -0.20    5.5
2019/03/11 14:53:36.000   27.894570472  -82.373418366   -20.6592   1   8   0.0034   0.0040   0.0100   0.0021  -0.0043  -0.0045   0.00    5.9
2019/03/11 14:53:36.200   27.894570477  -82.373418363   -20.6582   1   9   0.0032   0.0038   0.0093   0.0017  -0.0038  -0.0040  -0.80    6.4
2019/03/11 14:53:36.400   27.894570467  -82.373418372   -20.6561   1   9   0.0031   0.0037   0.0091   0.0016  -0.0036  -0.0038  -0.60    6.9
2019/03/11 14:53:36.600   27.894570477  -82.373418358   -20.6595   1   9   0.0031   0.0037   0.0089   0.0015  -0.0035  -0.0037  -0.40    7.4
2019/03/11 14:53:36.800   27.894570485  -82.373418372   -20.6576   1   9   0.0031   0.0037   0.0088   0.0015  -0.0034  -0.0037  -0.20    7.8
2019/03/11 14:53:37.000   27.894570474  -82.373418385   -20.6564   1   9   0.0031   0.0036   0.0087   0.0015  -0.0033  -0.0036   0.00    8.3
2019/03/11 14:53:37.200   27.894570480  -82.373418402   -20.6541   1   9   0.0031   0.0036   0.0086   0.0013  -0.0032  -0.0035  -0.80    8.7
2019/03/11 14:53:37.400   27.894570480  -82.373418389   -20.6559   1  10   0.0030   0.0035   0.0084   0.0012  -0.0030  -0.0034  -0.60    9.1
2019/03/11 14:53:37.600   27.894570495  -82.373418393   -20.6541   1  10   0.0030   0.0035   0.0083   0.0013  -0.0030  -0.0033  -0.40    9.5
2019/03/11 14:53:37.800   27.894570496  -82.373418395   -20.6563   1  10   0.0030   0.0035   0.0083   0.0013  -0.0031  -0.0033  -0.20    9.9
2019/03/11 14:53:38.000   27.894570479  -82.373418387   -20.6570   1  10   0.0030   0.0035   0.0084   0.0014  -0.0033  -0.0033   0.00   10.3
2019/03/11 14:53:38.200   27.894570504  -82.373418394   -20.6604   1  10   0.0030   0.0037   0.0085   0.0016  -0.0035  -0.0035  -0.80   10.7
2019/03/11 14:53:38.400   27.894570507  -82.373418379   -20.6665   1  10   0.0029   0.0036   0.0081   0.0014  -0.0032  -0.0031  -0.60   11.1
2019/03/11 14:53:38.600   27.894570506  -82.373418370   -20.6677   1  10   0.0029   0.0035   0.0079   0.0012  -0.0030  -0.0030  -0.40   11.5
2019/03/11 14:53:38.800   27.894570491  -82.373418369   -20.6631   1  10   0.0029   0.0034   0.0078   0.0012  -0.0029  -0.0029  -0.20   11.9
2019/03/11 14:53:39.000   27.894570505  -82.373418369   -20.6567   1  10   0.0028   0.0034   0.0076   0.0011  -0.0027  -0.0028   0.00   12.2
2019/03/11 14:53:39.200   27.894570496  -82.373418361   -20.6572   1  10   0.0028   0.0034   0.0076   0.0011  -0.0027  -0.0028  -0.80   12.6
2019/03/11 14:53:39.400   27.894570491  -82.373418383   -20.6584   1  10   0.0028   0.0034   0.0075   0.0010  -0.0027  -0.0027  -0.60   12.9
2019/03/11 14:53:39.600   27.894570497  -82.373418380   -20.6597   1  10   0.0028   0.0034   0.0075   0.0010  -0.0027  -0.0027  -0.40   13.3
2019/03/11 14:53:39.800   27.894570498  -82.373418376   -20.6598   1  10   0.0028   0.0034   0.0075   0.0010  -0.0026  -0.0027  -0.20   13.7
2019/03/11 14:53:40.000   27.894570502  -82.373418387   -20.6627   1  10   0.0028   0.0033   0.0074   0.0010  -0.0026  -0.0027   0.00   14.0
2019/03/11 14:53:40.200   27.894570506  -82.373418375   -20.6597   1  10   0.0028   0.0034   0.0074   0.0010  -0.0026  -0.0026  -0.80    3.1
2019/03/11 14:53:40.400   27.894570492  -82.373418362   -20.6544   1  10   0.0028   0.0033   0.0074   0.0010  -0.0026  -0.0026  -0.60    3.2
2019/03/11 14:53:40.600   27.894570496  -82.373418360   -20.6594   1  10   0.0028   0.0033   0.0073   0.0010  -0.0026  -0.0026  -0.40    3.6
2019/03/11 14:53:40.800   27.894570502  -82.373418361   -20.6627   1  10   0.0028   0.0033   0.0072   0.0009  -0.0025  -0.0025  -0.20    3.2
2019/03/11 14:53:41.000   27.894570512  -82.373418338   -20.6610   1  10   0.0027   0.0033   0.0072   0.0009  -0.0025  -0.0025   0.00    3.3
2019/03/11 14:53:41.200   27.894570497  -82.373418345   -20.6605   1  10   0.0028   0.0033   0.0072   0.0009  -0.0025  -0.0025  -0.80    3.5
2019/03/11 14:53:41.400   27.894570496  -82.373418341   -20.6604   1  10   0.0027   0.0033   0.0072   0.0009  -0.0025  -0.0025  -0.60    3.7
2019/03/11 14:53:41.600   27.894570498  -82.373418337   -20.6590   1  10   0.0027   0.0033   0.0072   0.0009  -0.0025  -0.0025  -0.40    3.9
2019/03/11 14:53:41.800   27.894570496  -82.373418347   -20.6594   1  10   0.0028   0.0033   0.0072   0.0009  -0.0025  -0.0025  -0.20    4.0
2019/03/11 14:53:42.000   27.894570503  -82.373418376   -20.6628   1  10   0.0027   0.0033   0.0072   0.0009  -0.0025  -0.0025   0.00    4.2
2019/03/11 14:53:42.200   27.894570498  -82.373418357   -20.6628   1  10   0.0028   0.0033   0.0072   0.0009  -0.0025  -0.0025  -0.80    4.4
2019/03/11 14:53:42.400   27.894570492  -82.373418337   -20.6621   1  10   0.0027   0.0033   0.0072   0.0009  -0.0025  -0.0025  -0.60    4.5
2019/03/11 14:53:42.600   27.894570493  -82.373418340   -20.6652   1  10   0.0027   0.0033   0.0072   0.0009  -0.0025  -0.0025  -0.40    4.7
2019/03/11 14:53:42.800   27.894570492  -82.373418333   -20.6655   1  10   0.0028   0.0033   0.0072   0.0009  -0.0025  -0.0025  -0.20    4.8
2019/03/11 14:53:43.000   27.894570496  -82.373418335   -20.6659   1  10   0.0027   0.0033   0.0072   0.0009  -0.0025  -0.0025   0.00    5.0
2019/03/11 14:53:43.200   27.894570498  -82.373418345   -20.6674   1  10   0.0028   0.0033   0.0072   0.0009  -0.0025  -0.0025  -0.80    5.1
2019/03/11 14:53:43.400   27.894570496  -82.373418335   -20.6655   1  10   0.0027   0.0033   0.0072   0.0009  -0.0025  -0.0025  -0.60    5.3
2019/03/11 14:53:43.600   27.894570495  -82.373418373   -20.6635   1  10   0.0027   0.0033   0.0072   0.0009  -0.0025  -0.0025  -0.40    5.5
2019/03/11 14:53:43.800   27.894570486  -82.373418340   -20.6624   1  10   0.0028   0.0033   0.0072   0.0009  -0.0025  -0.0025  -0.20    5.6
2019/03/11 14:53:44.000   27.894570493  -82.373418365   -20.6641   1  10   0.0027   0.0033   0.0072   0.0009  -0.0025  -0.0025   0.00    5.8
2019/03/11 14:53:44.200   27.894570495  -82.373418350   -20.6593   1  10   0.0028   0.0033   0.0072   0.0009  -0.0025  -0.0025  -0.80    5.9
2019/03/11 14:53:44.400   27.894570498  -82.373418352   -20.6620   1  10   0.0027   0.0033   0.0072   0.0009  -0.0025  -0.0025  -0.60    6.0
2019/03/11 14:53:44.600   27.894570506  -82.373418349   -20.6595   1  10   0.0027   0.0033   0.0072   0.0009  -0.0025  -0.0025  -0.40    6.2
2019/03/11 14:53:44.800   27.894570501  -82.373418371   -20.6586   1  10   0.0028   0.0033   0.0072   0.0009  -0.0025  -0.0025  -0.20    6.3
2019/03/11 14:53:45.000   27.894570513  -82.373418365   -20.6593   1  10   0.0027   0.0033   0.0072   0.0009  -0.0025  -0.0025   0.00    6.5
2019/03/11 14:53:45.200   27.894570498  -82.373418344   -20.6622   1  10   0.0028   0.0033   0.0072   0.0009  -0.0025  -0.0025  -0.80    6.6
2019/03/11 14:53:45.400   27.894570502  -82.373418352   -20.6624   1  10   0.0027   0.0033   0.0072   0.0009  -0.0025  -0.0025  -0.60    6.7
2019/03/11 14:53:45.600   27.894570499  -82.373418328   -20.6618   1  10   0.0027   0.0033   0.0072   0.0009  -0.0025  -0.0025  -0.40    6.8
2019/03/11 14:53:45.800   27.894570497  -82.373418359   -20.6620   1  10   0.0028   0.0033   0.0072   0.0009  -0.0025  -0.0025  -0.20    7.0
