% program   : RTKPOST ver.demo5 b31
% inp file  : D:\Data\Fla\Tampa-StPete-area\WGI-larrysanders\2019\0311\GPS\UAS\GP145212.obs
% inp file  : D:\Data\Fla\Tampa-StPete-area\WGI-larrysanders\2019\0311\GPS\FLD7\fld7070o00.19o
% inp file  : D:\Data\Fla\Tampa-StPete-area\WGI-larrysanders\2019\0311\GPS\ZEFR\zefr0700.19n
% inp file  : D:\Data\Fla\Tampa-StPete-area\WGI-larrysanders\2019\0311\GPS\ZEFR\igu20441_18.sp3
% inp file  : D:\Data\Fla\Tampa-StPete-area\WGI-larrysanders\2019\0311\GPS\ZEFR\zefr0700.19g
% obs start : 2019/03/11 14:52:12.5 UTC (week2044 139950.5s)
% obs end   : 2019/03/11 15:13:07.8 UTC (week2044 141205.8s)
% pos mode  : kinematic
% freqs     : L1+L2
% solution  : combined
% elev mask : 15.0 deg
% dynamics  : on
% tidecorr  : off
% ionos opt : broadcast
% tropo opt : saastamoinen
% ephemeris : precise
% navi sys  : gps glonass sbas
% amb res   : continuous
% amb glo   : fix and hold
% val thres : 3.0
% antenna1  :                       ( 0.0000  0.0000  0.0000)
% antenna2  :                       ( 0.0000  0.0000  0.0000)
% ref pos   : 27.969540778  -82.364053375   -12.8370
%
% (lat/lon/height=WGS84/ellipsoidal,Q=1:fix,2:float,3:sbas,4:dgps,5:single,6:ppp,ns=# of satellites)
%  UTC                   latitude(deg) longitude(deg)  height(m)   Q  ns   sdn(m)   sde(m)   sdu(m)  sdne(m)  sdeu(m)  sdun(m) age(s)  ratio
2019/03/11 14:52:23.600   27.894570671  -82.373418414   -20.8144   1   5   0.0070   0.0078   0.0141  -0.0036   0.0054  -0.0074   0.60    3.5
2019/03/11 14:52:23.800   27.894570925  -82.373418399   -20.7907   2   5   0.0230   0.0118   0.0175  -0.0122   0.0087  -0.0037  -0.20    0.0
2019/03/11 14:52:24.000   27.894571020  -82.373418453   -20.7929   2   5   0.0235   0.0124   0.0180  -0.0128   0.0096  -0.0053   0.00    0.0
2019/03/11 14:52:24.200   27.894571057  -82.373418583   -20.8049   2   5   0.0257   0.0141   0.0188  -0.0149   0.0111  -0.0076  -0.80    0.0
2019/03/11 14:52:24.400   27.894570817  -82.373418580   -20.8280   1   5   0.0333   0.0183   0.0174  -0.0229   0.0132  -0.0165   0.40    3.0
2019/03/11 14:52:24.600   27.894570595  -82.373418483   -20.8262   1   5   0.0091   0.0100   0.0161  -0.0056   0.0086  -0.0081   0.60    4.3
2019/03/11 14:52:24.800   27.894570588  -82.373418480   -20.8209   1   5   0.0091   0.0100   0.0162  -0.0056   0.0087  -0.0081   0.80    4.3
2019/03/11 14:52:25.000   27.894570613  -82.373418535   -20.8180   1   5   0.0090   0.0099   0.0161  -0.0056   0.0086  -0.0081   0.00    4.3
2019/03/11 14:52:25.200   27.894570592  -82.373418536   -20.7977   1   5   0.0091   0.0100   0.0162  -0.0056   0.0087  -0.0081   0.20    4.2
2019/03/11 14:52:25.400   27.894570587  -82.373418468   -20.7961   1   5   0.0091   0.0100   0.0161  -0.0056   0.0086  -0.0081   0.40    4.1
2019/03/11 14:52:25.600   27.894570594  -82.373418398   -20.7962   1   5   0.0091   0.0100   0.0161  -0.0056   0.0086  -0.0081   0.60    4.1
2019/03/11 14:52:25.800   27.894570656  -82.373418482   -20.8151   1   5   0.0091   0.0100   0.0162  -0.0056   0.0087  -0.0081   0.80    4.2
2019/03/11 14:52:26.000   27.894570702  -82.373418507   -20.8119   1   5   0.0090   0.0099   0.0161  -0.0056   0.0086  -0.0081   0.00    4.2
2019/03/11 14:52:26.200   27.894570571  -82.373418427   -20.8017   1   5   0.0091   0.0100   0.0162  -0.0056   0.0087  -0.0081   0.20    4.2
2019/03/11 14:52:26.400   27.894570546  -82.373418342   -20.7963   1   5   0.0091   0.0100   0.0161  -0.0056   0.0086  -0.0081   0.40    4.1
2019/03/11 14:52:26.600   27.894570480  -82.373418376   -20.7966   1   5   0.0091   0.0100   0.0161  -0.0056   0.0086  -0.0081   0.60    4.1
2019/03/11 14:52:26.800   27.894570444  -82.373418338   -20.7907   1   5   0.0091   0.0100   0.0162  -0.0056   0.0087  -0.0081   0.80    4.0
2019/03/11 14:52:27.000   27.894570422  -82.373418301   -20.7972   1   5   0.0090   0.0099   0.0161  -0.0056   0.0086  -0.0081   0.00    3.9
2019/03/11 14:52:27.200   27.894570536  -82.373418303   -20.8026   1   5   0.0091   0.0100   0.0162  -0.0056   0.0087  -0.0081   0.20    3.8
2019/03/11 14:52:27.400   27.894570933  -82.373418329   -20.7837   2   5   0.0186   0.0113   0.0185  -0.0083   0.0097   0.0037  -0.60    0.0
2019/03/11 14:52:27.600   27.894570918  -82.373418331   -20.7888   2   5   0.0186   0.0114   0.0186  -0.0084   0.0098   0.0036  -0.40    0.0
2019/03/11 14:52:27.800   27.894570887  -82.373418388   -20.7846   2   5   0.0186   0.0114   0.0185  -0.0084   0.0097   0.0036  -0.20    0.0
2019/03/11 14:52:28.000   27.894570417  -82.373418287   -20.7818   1   5   0.0069   0.0080   0.0142  -0.0037   0.0058  -0.0074   0.00    3.4
2019/03/11 14:52:28.200   27.894571628  -82.373418598   -20.7700   1   5   0.0272   0.0104   0.0179  -0.0111   0.0066   0.0117   0.20  621.9
2019/03/11 14:52:28.400   27.894571810  -82.373418671   -20.7881   1   5   0.0273   0.0105   0.0179  -0.0113   0.0067   0.0116   0.40  629.7
2019/03/11 14:52:28.600   27.894571729  -82.373418594   -20.7820   1   5   0.0274   0.0107   0.0180  -0.0115   0.0068   0.0115   0.60  636.5
2019/03/11 14:52:28.800   27.894571654  -82.373418610   -20.7766   1   5   0.0276   0.0109   0.0180  -0.0117   0.0070   0.0114   0.80  638.8
2019/03/11 14:52:29.000   27.894571628  -82.373418606   -20.7679   1   5   0.0278   0.0110   0.0181  -0.0120   0.0073   0.0111   0.00  640.7
2019/03/11 14:52:29.200   27.894571578  -82.373418606   -20.7847   1   5   0.0280   0.0113   0.0183  -0.0123   0.0078   0.0106   0.20  624.2
2019/03/11 14:52:29.400   27.894571678  -82.373418582   -20.7864   1   5   0.0295   0.0124   0.0186  -0.0141   0.0087   0.0093   0.40  616.5
2019/03/11 14:52:29.600   27.894571815  -82.373418676   -20.7879   1   5   0.0383   0.0175   0.0193  -0.0224   0.0119  -0.0064   0.60  617.4
2019/03/11 14:52:29.800   27.894571262  -82.373418322   -20.7658   1   5   0.0235   0.0085   0.0180  -0.0059   0.0058   0.0132   0.80  623.7
2019/03/11 14:52:30.000   27.894571276  -82.373418374   -20.7728   1   5   0.0234   0.0083   0.0177  -0.0057   0.0054   0.0135   0.00  625.9
2019/03/11 14:52:30.200   27.894572359  -82.373418275   -20.7087   1   8   0.0209   0.0053   0.0150  -0.0031  -0.0045   0.0136   0.20   74.0
2019/03/11 14:52:30.400   27.894572372  -82.373418322   -20.7044   1   8   0.0212   0.0053   0.0151  -0.0031  -0.0044   0.0138   0.40   73.7
2019/03/11 14:52:30.600   27.894572250  -82.373418300   -20.7106   1   8   0.0215   0.0054   0.0153  -0.0030  -0.0043   0.0141   0.60   73.4
2019/03/11 14:52:30.800   27.894572104  -82.373418275   -20.7135   1   8   0.0218   0.0055   0.0154  -0.0031  -0.0043   0.0143   0.80   72.2
2019/03/11 14:52:31.000   27.894572066  -82.373418289   -20.7133   1   8   0.0222   0.0054   0.0155  -0.0032  -0.0043   0.0146   0.00   71.2
2019/03/11 14:52:31.200   27.894572052  -82.373418314   -20.7153   1   8   0.0225   0.0055   0.0157  -0.0032  -0.0044   0.0148   0.20   70.2
2019/03/11 14:52:31.400   27.894572082  -82.373418297   -20.7141   1   8   0.0229   0.0055   0.0158  -0.0033  -0.0044   0.0151   0.40   69.2
2019/03/11 14:52:31.600   27.894572084  -82.373418312   -20.7080   1   8   0.0232   0.0055   0.0160  -0.0034  -0.0043   0.0154   0.60   68.1
2019/03/11 14:52:31.800   27.894572185  -82.373418105   -20.7455   1   8   0.0237   0.0057   0.0162  -0.0034  -0.0042   0.0157   0.80   67.2
2019/03/11 14:52:32.000   27.894572213  -82.373418126   -20.7489   1   8   0.0241   0.0056   0.0163  -0.0035  -0.0042   0.0161   0.00   66.1
2019/03/11 14:52:32.200   27.894572332  -82.373418113   -20.7469   1   8   0.0245   0.0057   0.0166  -0.0036  -0.0043   0.0164   0.20   65.2
2019/03/11 14:52:32.400   27.894572330  -82.373418101   -20.7426   1   8   0.0250   0.0057   0.0167  -0.0037  -0.0043   0.0168   0.40   64.4
2019/03/11 14:52:32.600   27.894572437  -82.373418033   -20.7404   1   8   0.0255   0.0057   0.0169  -0.0038  -0.0044   0.0172   0.60   63.7
2019/03/11 14:52:32.800   27.894572476  -82.373418121   -20.7170   1   8   0.0261   0.0057   0.0172  -0.0039  -0.0044   0.0176   0.80   63.2
2019/03/11 14:52:33.000   27.894572400  -82.373418244   -20.6849   1   8   0.0267   0.0057   0.0173  -0.0041  -0.0044   0.0180   0.00   62.6
2019/03/11 14:52:33.200   27.894572361  -82.373418197   -20.6981   1   8   0.0274   0.0057   0.0177  -0.0042  -0.0045   0.0185   0.20   62.2
2019/03/11 14:52:33.400   27.894572332  -82.373418162   -20.7144   1   8   0.0281   0.0057   0.0179  -0.0043  -0.0046   0.0191   0.40   61.8
2019/03/11 14:52:33.600   27.894572309  -82.373418322   -20.7093   1   8   0.0289   0.0057   0.0182  -0.0045  -0.0046   0.0197   0.60   61.2
2019/03/11 14:52:33.800   27.894572328  -82.373418288   -20.7018   1   8   0.0298   0.0058   0.0187  -0.0047  -0.0047   0.0204   0.80   60.5
2019/03/11 14:52:34.000   27.894572304  -82.373418291   -20.6892   1   8   0.0311   0.0057   0.0191  -0.0055  -0.0051   0.0213   0.00   59.7
2019/03/11 14:52:34.200   27.894572311  -82.373418365   -20.6905   1   8   0.0334   0.0060   0.0198  -0.0064  -0.0054   0.0226   0.20   58.8
2019/03/11 14:52:34.400   27.894572200  -82.373418404   -20.6957   1   8   0.0313   0.0061   0.0193  -0.0051  -0.0046   0.0215   0.40   57.8
2019/03/11 14:52:34.600   27.894572158  -82.373418404   -20.6934   1   8   0.0323   0.0058   0.0196  -0.0058  -0.0052   0.0221   0.60   56.9
2019/03/11 14:52:34.800   27.894572249  -82.373418415   -20.6906   1   8   0.0334   0.0059   0.0201  -0.0060  -0.0053   0.0229   0.80   56.0
2019/03/11 14:52:35.000   27.894572265  -82.373418404   -20.6870   1   8   0.0346   0.0059   0.0206  -0.0062  -0.0054   0.0239   0.00   55.0
2019/03/11 14:52:35.200   27.894572333  -82.373418367   -20.6833   1   8   0.0361   0.0059   0.0212  -0.0064  -0.0056   0.0249   0.20   54.1
2019/03/11 14:52:35.400   27.894571942  -82.373418403   -20.7094   1   8   0.0374   0.0054   0.0215  -0.0066  -0.0060   0.0257   0.40   45.7
2019/03/11 14:52:35.600   27.894571987  -82.373418421   -20.7101   1   8   0.0397   0.0055   0.0226  -0.0067  -0.0060   0.0274   0.60   45.3
2019/03/11 14:52:35.800   27.894572113  -82.373418430   -20.7077   1   8   0.0430   0.0057   0.0244  -0.0067  -0.0059   0.0300   0.80   45.1
2019/03/11 14:52:36.000   27.894572260  -82.373418425   -20.6981   1   8   0.0485   0.0059   0.0269  -0.0060  -0.0056   0.0340   0.00   44.7
2019/03/11 14:52:36.200   27.894572243  -82.373418464   -20.6928   1   6   0.0533   0.0059   0.0295  -0.0066  -0.0060   0.0377   0.20   44.1
2019/03/11 14:52:36.400   27.894572411  -82.373418437   -20.6728   1   6   0.0602   0.0061   0.0323  -0.0092  -0.0074   0.0424   0.40   43.4
2019/03/11 14:52:36.600   27.894572649  -82.373418421   -20.6581   1   6   0.0666   0.0068   0.0340  -0.0140  -0.0102   0.0459   0.60   42.8
2019/03/11 14:52:36.800   27.894571536  -82.373418362   -20.7251   1   6   0.0279   0.0055   0.0182   0.0073   0.0037   0.0192   0.80    5.2
2019/03/11 14:52:37.000   27.894571459  -82.373418405   -20.7289   1   6   0.0276   0.0054   0.0180   0.0073   0.0037   0.0189   0.00    5.1
2019/03/11 14:52:37.200   27.894571413  -82.373418382   -20.7286   1   6   0.0279   0.0055   0.0182   0.0073   0.0037   0.0192   0.20    4.9
2019/03/11 14:52:37.400   27.894571473  -82.373418380   -20.7249   1   6   0.0278   0.0055   0.0181   0.0073   0.0037   0.0191   0.40    4.8
2019/03/11 14:52:37.600   27.894571554  -82.373418382   -20.7239   1   6   0.0278   0.0055   0.0181   0.0073   0.0037   0.0191   0.60    4.7
2019/03/11 14:52:37.800   27.894571798  -82.373418414   -20.7092   1   6   0.0279   0.0055   0.0182   0.0073   0.0037   0.0192   0.80    4.5
2019/03/11 14:52:38.000   27.894571649  -82.373418388   -20.7145   1   6   0.0276   0.0054   0.0180   0.0073   0.0037   0.0189   0.00    4.3
2019/03/11 14:52:38.200   27.894571736  -82.373418381   -20.7132   1   6   0.0279   0.0055   0.0182   0.0073   0.0037   0.0192   0.20    4.1
2019/03/11 14:52:38.400   27.894571616  -82.373418394   -20.7158   1   6   0.0278   0.0055   0.0181   0.0073   0.0037   0.0191   0.40    3.9
2019/03/11 14:52:38.600   27.894571526  -82.373418419   -20.7183   1   6   0.0278   0.0055   0.0181   0.0073   0.0037   0.0191   0.60    3.7
2019/03/11 14:52:38.800   27.894571645  -82.373418414   -20.7127   1   6   0.0286   0.0055   0.0184   0.0072   0.0036   0.0196   0.80    3.3
2019/03/11 14:52:39.000   27.894572651  -82.373418455   -20.6526   1   6   0.0390   0.0057   0.0226   0.0032  -0.0027   0.0271   0.00   32.2
2019/03/11 14:52:39.200   27.894572714  -82.373418452   -20.6522   1   6   0.0399   0.0057   0.0230   0.0030  -0.0029   0.0278   0.20   30.7
2019/03/11 14:52:39.400   27.894572722  -82.373418440   -20.6571   1   6   0.0405   0.0057   0.0232   0.0023  -0.0032   0.0282   0.40   29.4
2019/03/11 14:52:39.600   27.894572621  -82.373418480   -20.6623   1   6   0.0413   0.0057   0.0236   0.0013  -0.0034   0.0288   0.60   28.1
2019/03/11 14:52:39.800   27.894572702  -82.373418458   -20.6616   1   6   0.0423   0.0058   0.0240  -0.0014  -0.0037   0.0295   0.80   26.9
2019/03/11 14:52:40.000   27.894572860  -82.373418493   -20.6528   1   6   0.0430   0.0057   0.0243  -0.0028  -0.0040   0.0300   0.00   25.7
2019/03/11 14:52:40.200   27.894573143  -82.373418499   -20.6352   1   6   0.0442   0.0058   0.0248  -0.0035  -0.0043   0.0308   0.20   24.5
2019/03/11 14:52:40.400   27.894573201  -82.373418473   -20.6249   1   6   0.0453   0.0058   0.0252  -0.0044  -0.0047   0.0315   0.40   23.4
2019/03/11 14:52:40.600   27.894573273  -82.373418459   -20.6210   1   6   0.0470   0.0059   0.0260  -0.0054  -0.0052   0.0328   0.60   22.1
2019/03/11 14:52:40.800   27.894573458  -82.373418424   -20.6136   1   6   0.0499   0.0060   0.0276  -0.0064  -0.0058   0.0350   0.80   20.9
2019/03/11 14:52:41.000   27.894573480  -82.373418374   -20.6138   1   6   0.0543   0.0059   0.0298  -0.0073  -0.0064   0.0383   0.00   19.5
2019/03/11 14:52:41.200   27.894573126  -82.373418398   -20.6610   1   6   0.0616   0.0061   0.0329  -0.0097  -0.0077   0.0433   0.20   17.7
2019/03/11 14:52:41.400   27.894572313  -82.373418342   -20.7100   1   6   0.0677   0.0069   0.0345  -0.0142  -0.0104   0.0467   0.40   15.7
2019/03/11 14:52:41.600   27.894572233  -82.373418336   -20.7224   1   6   0.0421   0.0058   0.0238  -0.0022  -0.0038   0.0292   0.60   14.0
2019/03/11 14:52:41.800   27.894571820  -82.373418387   -20.7487   1   6   0.0436   0.0058   0.0245  -0.0034  -0.0043   0.0303   0.80   12.5
2019/03/11 14:52:42.000   27.894571952  -82.373418376   -20.7381   1   6   0.0458   0.0058   0.0258  -0.0045  -0.0049   0.0322   0.00   11.0
2019/03/11 14:52:42.200   27.894572361  -82.373418332   -20.6993   1   6   0.0502   0.0058   0.0281  -0.0050  -0.0052   0.0355   0.20    9.6
2019/03/11 14:52:42.400   27.894572083  -82.373418452   -20.6960   1   6   0.0556   0.0059   0.0300  -0.0074  -0.0063   0.0389   0.40    8.3
2019/03/11 14:52:42.600   27.894570977  -82.373418422   -20.7810   1   6   0.0520   0.0066   0.0266  -0.0110  -0.0081   0.0350   0.60    7.0
2019/03/11 14:52:42.800   27.894570746  -82.373418206   -20.8100   1   7   0.0176   0.0055   0.0133  -0.0032  -0.0042   0.0100   0.80    5.6
2019/03/11 14:52:43.000   27.894570809  -82.373418095   -20.7948   1   7   0.0177   0.0056   0.0134  -0.0030  -0.0039   0.0101   0.00    6.8
2019/03/11 14:52:43.200   27.894570829  -82.373418072   -20.8053   1   7   0.0179   0.0058   0.0136  -0.0031  -0.0038   0.0104   0.20    6.6
2019/03/11 14:52:43.400   27.894570814  -82.373418068   -20.8116   1   7   0.0182   0.0058   0.0137  -0.0030  -0.0037   0.0106   0.40    6.5
2019/03/11 14:52:43.600   27.894570797  -82.373418043   -20.8198   1   7   0.0176   0.0058   0.0134  -0.0027  -0.0036   0.0100   0.60    6.3
2019/03/11 14:52:43.800   27.894570733  -82.373418057   -20.8276   1   8   0.0108   0.0057   0.0122   0.0028  -0.0026   0.0047   0.80    6.0
2019/03/11 14:52:44.000   27.894570702  -82.373418034   -20.8248   1   8   0.0109   0.0057   0.0122   0.0029  -0.0024   0.0049   0.00    5.8
2019/03/11 14:52:44.200   27.894570695  -82.373418151   -20.7975   1   8   0.0111   0.0058   0.0125   0.0031  -0.0021   0.0052   0.20    5.6
2019/03/11 14:52:44.400   27.894570608  -82.373418211   -20.7816   1   8   0.0113   0.0060   0.0126   0.0035  -0.0014   0.0056   0.40    5.4
2019/03/11 14:52:44.600   27.894570502  -82.373418248   -20.7721   1   8   0.0115   0.0060   0.0126   0.0035  -0.0014   0.0058   0.60    5.2
2019/03/11 14:52:44.800   27.894570373  -82.373418234   -20.7602   1   7   0.0116   0.0060   0.0127   0.0035  -0.0014   0.0059   0.80    5.0
2019/03/11 14:52:45.000   27.894570332  -82.373418282   -20.7772   1   7   0.0117   0.0059   0.0126   0.0035  -0.0013   0.0061   0.00    5.0
2019/03/11 14:52:45.200   27.894570254  -82.373418258   -20.7883   1   7   0.0119   0.0060   0.0128   0.0036  -0.0013   0.0063   0.20    4.9
2019/03/11 14:52:45.400   27.894570198  -82.373418254   -20.7786   1   7   0.0121   0.0060   0.0128   0.0036  -0.0013   0.0064   0.40    4.2
2019/03/11 14:52:45.600   27.894570063  -82.373418280   -20.7759   1   7   0.0124   0.0062   0.0130   0.0039   0.0013   0.0069   0.60    4.8
2019/03/11 14:52:45.800   27.894570110  -82.373418308   -20.7813   1   7   0.0126   0.0064   0.0131   0.0041   0.0018   0.0071   0.80    4.6
2019/03/11 14:52:46.000   27.894570228  -82.373418412   -20.7944   1   7   0.0128   0.0064   0.0131   0.0041   0.0018   0.0073   0.00    4.4
2019/03/11 14:52:46.200   27.894570228  -82.373418334   -20.7870   1   7   0.0131   0.0064   0.0132   0.0041   0.0019   0.0076   0.20    4.3
2019/03/11 14:52:46.400   27.894570325  -82.373418356   -20.7937   1   7   0.0134   0.0064   0.0133   0.0042   0.0019   0.0078   0.40    4.2
2019/03/11 14:52:46.600   27.894570390  -82.373418429   -20.7953   1   7   0.0137   0.0064   0.0134   0.0042   0.0020   0.0081   0.60    4.1
2019/03/11 14:52:46.800   27.894570503  -82.373418323   -20.7821   1   7   0.0141   0.0064   0.0135   0.0043   0.0020   0.0085   0.80    3.9
2019/03/11 14:52:47.000   27.894570549  -82.373418308   -20.7815   1   7   0.0144   0.0064   0.0136   0.0043   0.0021   0.0088   0.00    3.8
2019/03/11 14:52:47.200   27.894570595  -82.373418376   -20.7782   1   7   0.0150   0.0064   0.0138   0.0044   0.0022   0.0093   0.20    3.6
2019/03/11 14:52:47.400   27.894570642  -82.373418280   -20.7737   1   7   0.0155   0.0064   0.0140   0.0045   0.0023   0.0097   0.40    3.4
2019/03/11 14:52:47.600   27.894570844  -82.373418305   -20.7600   1   7   0.0203   0.0066   0.0153   0.0011  -0.0018   0.0132   0.60   64.1
2019/03/11 14:52:47.800   27.894570813  -82.373418250   -20.7629   1   7   0.0205   0.0067   0.0153   0.0012  -0.0016   0.0133   0.80   64.0
2019/03/11 14:52:48.000   27.894570873  -82.373418228   -20.7555   1   7   0.0207   0.0068   0.0152   0.0010  -0.0012   0.0133   0.00   63.7
2019/03/11 14:52:48.200   27.894570787  -82.373418209   -20.7451   1   7   0.0207   0.0072   0.0155   0.0008  -0.0003   0.0136   0.20   63.6
2019/03/11 14:52:48.400   27.894570695  -82.373418298   -20.7501   1   6   0.0209   0.0072   0.0160   0.0015   0.0005   0.0143   0.40   63.6
2019/03/11 14:52:48.600   27.894570593  -82.373418389   -20.8171   1   6   0.0234   0.0072   0.0169   0.0010  -0.0006   0.0161   0.60   64.0
2019/03/11 14:52:48.800   27.894571067  -82.373418341   -20.7722   1   6   0.0402   0.0074   0.0219  -0.0067  -0.0046   0.0269   0.80   64.2
2019/03/11 14:52:49.000   27.894570811  -82.373418300   -20.7809   1   6   0.0080   0.0065   0.0118   0.0033   0.0008  -0.0015   0.00   48.9
2019/03/11 14:52:49.200   27.894570745  -82.373418314   -20.7839   1   6   0.0081   0.0066   0.0119   0.0033   0.0009  -0.0015   0.20   48.8
2019/03/11 14:52:49.400   27.894570650  -82.373418309   -20.7842   1   6   0.0081   0.0066   0.0119   0.0033   0.0009  -0.0015   0.40   48.8
2019/03/11 14:52:49.600   27.894570734  -82.373418286   -20.7775   1   6   0.0081   0.0066   0.0119   0.0033   0.0009  -0.0015   0.60   48.8
2019/03/11 14:52:49.800   27.894570730  -82.373418331   -20.7666   1   6   0.0081   0.0066   0.0119   0.0033   0.0009  -0.0015   0.80   48.7
2019/03/11 14:52:50.000   27.894570776  -82.373418315   -20.7668   1   6   0.0080   0.0065   0.0118   0.0033   0.0008  -0.0015   0.00   48.6
2019/03/11 14:52:50.200   27.894570765  -82.373418312   -20.7681   1   6   0.0081   0.0066   0.0119   0.0033   0.0009  -0.0015   0.20   48.6
2019/03/11 14:52:50.400   27.894570755  -82.373418323   -20.7680   1   6   0.0080   0.0061   0.0116   0.0032  -0.0023  -0.0018   0.40   48.5
2019/03/11 14:52:50.600   27.894570756  -82.373418312   -20.7652   1   6   0.0080   0.0061   0.0116   0.0032  -0.0023  -0.0018   0.60   48.4
2019/03/11 14:52:50.800   27.894570728  -82.373418333   -20.7778   1   7   0.0076   0.0058   0.0113   0.0022  -0.0033  -0.0032   0.80   40.3
2019/03/11 14:52:51.000   27.894570731  -82.373418326   -20.7776   1   7   0.0076   0.0058   0.0112   0.0022  -0.0032  -0.0032   0.00   40.2
2019/03/11 14:52:51.200   27.894570709  -82.373418324   -20.7739   1   7   0.0076   0.0058   0.0113   0.0022  -0.0033  -0.0032   0.20   40.0
2019/03/11 14:52:51.400   27.894570698  -82.373418377   -20.7699   1   7   0.0076   0.0058   0.0113   0.0022  -0.0033  -0.0032   0.40   39.9
2019/03/11 14:52:51.600   27.894570669  -82.373418380   -20.7725   1   7   0.0076   0.0058   0.0113   0.0022  -0.0033  -0.0032   0.60   39.8
2019/03/11 14:52:51.800   27.894570697  -82.373418364   -20.7765   1   7   0.0076   0.0058   0.0113   0.0022  -0.0033  -0.0032   0.80   39.7
2019/03/11 14:52:52.000   27.894570715  -82.373418350   -20.7784   1   7   0.0076   0.0058   0.0112   0.0022  -0.0032  -0.0032   0.00   39.6
2019/03/11 14:52:52.200   27.894570709  -82.373418428   -20.7728   1   8   0.0076   0.0053   0.0113   0.0022  -0.0035  -0.0032   0.20   12.8
2019/03/11 14:52:52.400   27.894570729  -82.373418466   -20.7691   1   8   0.0076   0.0053   0.0113   0.0022  -0.0035  -0.0032   0.40   12.3
2019/03/11 14:52:52.600   27.894570693  -82.373418481   -20.7740   1   8   0.0076   0.0053   0.0113   0.0022  -0.0035  -0.0032   0.60   11.9
2019/03/11 14:52:52.800   27.894570739  -82.373418414   -20.7788   1   8   0.0076   0.0053   0.0113   0.0022  -0.0035  -0.0032   0.80   11.4
2019/03/11 14:52:53.000   27.894570677  -82.373418371   -20.7855   1   8   0.0076   0.0053   0.0112   0.0022  -0.0035  -0.0032   0.00   10.9
2019/03/11 14:52:53.200   27.894570639  -82.373418322   -20.7898   1   8   0.0076   0.0053   0.0113   0.0022  -0.0035  -0.0033   0.20   10.2
2019/03/11 14:52:53.400   27.894570637  -82.373418297   -20.7891   1   8   0.0072   0.0052   0.0110   0.0015  -0.0038  -0.0040   0.40    7.6
2019/03/11 14:52:53.600   27.894570613  -82.373418306   -20.7907   1   8   0.0072   0.0052   0.0110   0.0015  -0.0038  -0.0040   0.60    7.1
2019/03/11 14:52:53.800   27.894570571  -82.373418330   -20.7990   1   8   0.0072   0.0052   0.0111   0.0015  -0.0038  -0.0040   0.80    6.7
2019/03/11 14:52:54.000   27.894570586  -82.373418404   -20.8057   1   8   0.0071   0.0052   0.0110   0.0015  -0.0038  -0.0040   0.00    6.1
2019/03/11 14:52:54.200   27.894570571  -82.373418340   -20.8073   1   8   0.0072   0.0052   0.0111   0.0015  -0.0039  -0.0040   0.20    5.5
2019/03/11 14:52:54.400   27.894570543  -82.373418356   -20.8171   1   8   0.0072   0.0052   0.0110   0.0015  -0.0038  -0.0040   0.40    5.0
2019/03/11 14:52:54.600   27.894570561  -82.373418367   -20.8106   1   8   0.0072   0.0052   0.0110   0.0015  -0.0038  -0.0040   0.60    4.4
2019/03/11 14:52:54.800   27.894570474  -82.373418349   -20.8126   1   8   0.0072   0.0052   0.0111   0.0015  -0.0038  -0.0040   0.80    3.9
2019/03/11 14:52:55.000   27.894570462  -82.373418331   -20.8124   1   8   0.0071   0.0050   0.0110   0.0019  -0.0038  -0.0040   0.00   28.3
2019/03/11 14:52:55.200   27.894570497  -82.373418374   -20.8039   1   8   0.0071   0.0051   0.0111   0.0018  -0.0038  -0.0040   0.20   28.1
2019/03/11 14:52:55.400   27.894570475  -82.373418350   -20.8053   1   8   0.0071   0.0053   0.0110   0.0016  -0.0038  -0.0040   0.40   27.9
2019/03/11 14:52:55.600   27.894570522  -82.373418391   -20.8128   1   8   0.0072   0.0056   0.0111   0.0012  -0.0037  -0.0040   0.60   27.8
2019/03/11 14:52:55.800   27.894570517  -82.373418375   -20.8131   1   8   0.0071   0.0048   0.0111   0.0020  -0.0039  -0.0040   0.80   16.5
2019/03/11 14:52:56.000   27.894570519  -82.373418393   -20.8051   1   8   0.0071   0.0048   0.0110   0.0020  -0.0038  -0.0040   0.00   16.4
2019/03/11 14:52:56.200   27.894570514  -82.373418405   -20.8070   1   8   0.0071   0.0048   0.0111   0.0020  -0.0039  -0.0040   0.20   16.2
2019/03/11 14:52:56.400   27.894570546  -82.373418341   -20.8185   1   8   0.0058   0.0048   0.0110   0.0025  -0.0038  -0.0046   0.40   16.1
2019/03/11 14:52:56.600   27.894570593  -82.373418308   -20.8284   1   8   0.0058   0.0048   0.0110   0.0025  -0.0038  -0.0046   0.60   16.0
2019/03/11 14:52:56.800   27.894570547  -82.373418366   -20.8168   1   8   0.0058   0.0048   0.0110   0.0025  -0.0038  -0.0046   0.80   16.0
2019/03/11 14:52:57.000   27.894570449  -82.373418498   -20.7897   1   8   0.0058   0.0048   0.0109   0.0024  -0.0038  -0.0046   0.00   15.9
2019/03/11 14:52:57.200   27.894570441  -82.373418486   -20.7835   1   8   0.0058   0.0048   0.0110   0.0025  -0.0038  -0.0046   0.20   15.7
2019/03/11 14:52:57.400   27.894570430  -82.373418473   -20.7846   1   8   0.0058   0.0048   0.0110   0.0025  -0.0038  -0.0046   0.40   15.5
2019/03/11 14:52:57.600   27.894570534  -82.373418381   -20.8097   1   8   0.0058   0.0048   0.0110   0.0025  -0.0038  -0.0046   0.60   15.3
2019/03/11 14:52:57.800   27.894570542  -82.373418378   -20.8164   1   8   0.0058   0.0048   0.0110   0.0025  -0.0038  -0.0046   0.80   15.2
2019/03/11 14:52:58.000   27.894570540  -82.373418333   -20.8276   1   8   0.0041   0.0034   0.0077   0.0017  -0.0027  -0.0033   0.00    3.1
2019/03/11 14:52:58.200   27.894570563  -82.373418313   -20.8209   1   8   0.0041   0.0034   0.0078   0.0017  -0.0027  -0.0033  -0.80    3.2
2019/03/11 14:52:58.400   27.894570532  -82.373418322   -20.8171   1   8   0.0041   0.0034   0.0077   0.0017  -0.0027  -0.0033  -0.60    3.4
2019/03/11 14:52:58.600   27.894570538  -82.373418312   -20.8206   1   8   0.0041   0.0034   0.0077   0.0017  -0.0027  -0.0033  -0.40    3.5
2019/03/11 14:52:58.800   27.894570545  -82.373418333   -20.8241   1   8   0.0041   0.0034   0.0078   0.0017  -0.0027  -0.0033  -0.20    3.7
2019/03/11 14:52:59.000   27.894570543  -82.373418342   -20.8249   1   8   0.0041   0.0034   0.0077   0.0017  -0.0027  -0.0033   0.00    3.8
2019/03/11 14:52:59.200   27.894570566  -82.373418333   -20.8252   1   8   0.0041   0.0034   0.0078   0.0017  -0.0027  -0.0033  -0.80    3.9
2019/03/11 14:52:59.400   27.894570562  -82.373418330   -20.8224   1   8   0.0041   0.0034   0.0077   0.0017  -0.0027  -0.0033  -0.60    4.0
2019/03/11 14:52:59.600   27.894570555  -82.373418322   -20.8211   1   8   0.0041   0.0034   0.0077   0.0017  -0.0027  -0.0033  -0.40    4.1
2019/03/11 14:52:59.800   27.894570563  -82.373418320   -20.8236   1   8   0.0041   0.0034   0.0078   0.0017  -0.0027  -0.0033  -0.20    4.2
2019/03/11 14:53:00.000   27.894570580  -82.373418321   -20.8263   1   8   0.0041   0.0034   0.0077   0.0017  -0.0027  -0.0032   0.00    4.3
2019/03/11 14:53:00.200   27.894570586  -82.373418309   -20.8248   1  10   0.0039   0.0047   0.0102   0.0013  -0.0035  -0.0035   0.20    8.1
2019/03/11 14:53:00.400   27.894570574  -82.373418319   -20.8238   1  10   0.0039   0.0047   0.0102   0.0013  -0.0035  -0.0035   0.40    8.0
2019/03/11 14:53:00.600   27.894570573  -82.373418307   -20.8252   1  10   0.0039   0.0047   0.0102   0.0013  -0.0035  -0.0035   0.60    7.9
2019/03/11 14:53:00.800   27.894570580  -82.373418304   -20.8229   1  10   0.0039   0.0047   0.0102   0.0013  -0.0035  -0.0035   0.80    7.8
2019/03/11 14:53:01.000   27.894570567  -82.373418301   -20.8152   1  10   0.0027   0.0033   0.0072   0.0009  -0.0024  -0.0025   0.00    3.2
2019/03/11 14:53:01.200   27.894570569  -82.373418287   -20.8182   1  10   0.0028   0.0033   0.0072   0.0009  -0.0025  -0.0025  -0.80    3.6
2019/03/11 14:53:01.400   27.894570578  -82.373418318   -20.8149   1  10   0.0027   0.0033   0.0072   0.0009  -0.0025  -0.0025  -0.60    3.9
2019/03/11 14:53:01.600   27.894570578  -82.373418318   -20.8145   1  10   0.0027   0.0033   0.0072   0.0009  -0.0025  -0.0025  -0.40    4.3
2019/03/11 14:53:01.800   27.894570572  -82.373418335   -20.8091   1  10   0.0028   0.0033   0.0072   0.0009  -0.0025  -0.0025  -0.20    4.7
2019/03/11 14:53:02.000   27.894570570  -82.373418335   -20.8091   1  10   0.0027   0.0033   0.0072   0.0009  -0.0024  -0.0025   0.00    5.0
2019/03/11 14:53:02.200   27.894570569  -82.373418358   -20.8100   1  10   0.0028   0.0033   0.0072   0.0009  -0.0025  -0.0025  -0.80    5.3
2019/03/11 14:53:02.400   27.894570566  -82.373418400   -20.8115   1  10   0.0027   0.0033   0.0072   0.0009  -0.0025  -0.0025  -0.60    5.6
2019/03/11 14:53:02.600   27.894570565  -82.373418379   -20.8114   1  10   0.0027   0.0033   0.0072   0.0009  -0.0025  -0.0025  -0.40    5.8
2019/03/11 14:53:02.800   27.894570564  -82.373418379   -20.8094   1  10   0.0028   0.0033   0.0072   0.0009  -0.0025  -0.0025  -0.20    6.0
2019/03/11 14:53:03.000   27.894570561  -82.373418424   -20.8005   1  10   0.0027   0.0033   0.0072   0.0009  -0.0024  -0.0025   0.00    6.2
2019/03/11 14:53:03.200   27.894570546  -82.373418426   -20.7979   1  10   0.0028   0.0033   0.0072   0.0009  -0.0025  -0.0025  -0.80    6.3
2019/03/11 14:53:03.400   27.894570584  -82.373418330   -20.8133   1  10   0.0027   0.0033   0.0072   0.0009  -0.0025  -0.0025  -0.60    6.4
2019/03/11 14:53:03.600   27.894570566  -82.373418357   -20.8206   1  10   0.0027   0.0033   0.0072   0.0009  -0.0025  -0.0025  -0.40    6.8
2019/03/11 14:53:03.800   27.894570547  -82.373418363   -20.8131   1  10   0.0028   0.0033   0.0072   0.0009  -0.0025  -0.0025  -0.20    7.1
2019/03/11 14:53:04.000   27.894570567  -82.373418381   -20.8208   1  10   0.0027   0.0033   0.0072   0.0009  -0.0024  -0.0025   0.00    7.4
2019/03/11 14:53:04.200   27.894570596  -82.373418383   -20.8175   1  10   0.0028   0.0033   0.0072   0.0009  -0.0025  -0.0025  -0.80    7.6
2019/03/11 14:53:04.400   27.894570584  -82.373418375   -20.8173   1  10   0.0027   0.0033   0.0072   0.0009  -0.0025  -0.0025  -0.60    7.5
2019/03/11 14:53:04.600   27.894570581  -82.373418355   -20.8210   1  10   0.0027   0.0033   0.0072   0.0009  -0.0025  -0.0025  -0.40    7.4
2019/03/11 14:53:04.800   27.894570584  -82.373418367   -20.8207   1  10   0.0028   0.0033   0.0072   0.0009  -0.0025  -0.0025  -0.20    7.4
2019/03/11 14:53:05.000   27.894570549  -82.373418355   -20.8258   1  10   0.0027   0.0033   0.0072   0.0009  -0.0024  -0.0025   0.00    7.7
2019/03/11 14:53:05.200   27.894570576  -82.373418348   -20.8232   1  10   0.0028   0.0033   0.0072   0.0009  -0.0025  -0.0025  -0.80    7.8
2019/03/11 14:53:05.400   27.894570582  -82.373418349   -20.8240   1  10   0.0027   0.0033   0.0072   0.0009  -0.0025  -0.0025  -0.60    7.8
2019/03/11 14:53:05.600   27.894570583  -82.373418342   -20.8227   1  10   0.0027   0.0033   0.0072   0.0009  -0.0025  -0.0025  -0.40    7.8
2019/03/11 14:53:05.800   27.894570579  -82.373418326   -20.8222   1  10   0.0028   0.0033   0.0072   0.0009  -0.0025  -0.0025  -0.20    7.9
2019/03/11 14:53:06.000   27.894570570  -82.373418329   -20.8189   1  10   0.0027   0.0033   0.0072   0.0009  -0.0024  -0.0025   0.00    7.9
2019/03/11 14:53:06.200   27.894570576  -82.373418317   -20.8225   1  10   0.0028   0.0033   0.0072   0.0009  -0.0025  -0.0025  -0.80    8.0
2019/03/11 14:53:06.400   27.894570592  -82.373418340   -20.8252   1  10   0.0027   0.0033   0.0072   0.0009  -0.0025  -0.0025  -0.60    8.0
2019/03/11 14:53:06.600   27.894570568  -82.373418352   -20.8183   1  10   0.0027   0.0033   0.0072   0.0009  -0.0025  -0.0025  -0.40    8.0
2019/03/11 14:53:06.800   27.894570558  -82.373418344   -20.8190   1  10   0.0028   0.0033   0.0072   0.0009  -0.0025  -0.0025  -0.20    8.0
2019/03/11 14:53:07.000   27.894570549  -82.373418357   -20.8196   1  10   0.0027   0.0033   0.0072   0.0009  -0.0024  -0.0025   0.00    7.9
2019/03/11 14:53:07.200   27.894570564  -82.373418367   -20.8213   1  10   0.0028   0.0033   0.0072   0.0009  -0.0025  -0.0025  -0.80    7.9
2019/03/11 14:53:07.400   27.894570575  -82.373418393   -20.8166   1  10   0.0027   0.0033   0.0072   0.0009  -0.0025  -0.0025  -0.60    7.9
2019/03/11 14:53:07.600   27.894570569  -82.373418386   -20.8197   1  10   0.0027   0.0033   0.0072   0.0009  -0.0025  -0.0025  -0.40    7.9
2019/03/11 14:53:07.800   27.894570579  -82.373418392   -20.8178   1  10   0.0028   0.0033   0.0072   0.0009  -0.0025  -0.0025  -0.20    7.9
2019/03/11 14:53:08.000   27.894570567  -82.373418377   -20.8206   1  10   0.0027   0.0033   0.0072   0.0009  -0.0024  -0.0025   0.00    7.9
2019/03/11 14:53:08.200   27.894570564  -82.373418386   -20.8209   1  10   0.0028   0.0033   0.0072   0.0009  -0.0025  -0.0025  -0.80    7.9
2019/03/11 14:53:08.400   27.894570577  -82.373418386   -20.8212   1  10   0.0027   0.0033   0.0072   0.0009  -0.0025  -0.0025  -0.60    7.8
2019/03/11 14:53:08.600   27.894570566  -82.373418383   -20.8231   1  10   0.0027   0.0033   0.0072   0.0009  -0.0025  -0.0025  -0.40    7.8
2019/03/11 14:53:08.800   27.894570577  -82.373418397   -20.8191   1  10   0.0028   0.0033   0.0072   0.0009  -0.0025  -0.0025  -0.20    7.8
2019/03/11 14:53:09.000   27.894570553  -82.373418366   -20.8203   1  10   0.0027   0.0033   0.0072   0.0009  -0.0024  -0.0025   0.00    7.7
2019/03/11 14:53:09.200   27.894570576  -82.373418381   -20.8175   1  10   0.0028   0.0033   0.0072   0.0009  -0.0025  -0.0025  -0.80    7.7
2019/03/11 14:53:09.400   27.894570558  -82.373418379   -20.8149   1  10   0.0027   0.0033   0.0072   0.0009  -0.0025  -0.0025  -0.60    7.7
2019/03/11 14:53:09.600   27.894570565  -82.373418372   -20.8137   1  10   0.0027   0.0033   0.0072   0.0009  -0.0025  -0.0025  -0.40    7.7
2019/03/11 14:53:09.800   27.894570564  -82.373418378   -20.8148   1  10   0.0028   0.0033   0.0072   0.0009  -0.0025  -0.0025  -0.20    7.7
2019/03/11 14:53:10.000   27.894570577  -82.373418393   -20.8148   1  10   0.0027   0.0033   0.0072   0.0009  -0.0024  -0.0025   0.00    7.6
2019/03/11 14:53:10.200   27.894570582  -82.373418390   -20.8241   1  10   0.0028   0.0033   0.0072   0.0009  -0.0025  -0.0025  -0.80    7.6
2019/03/11 14:53:10.400   27.894570564  -82.373418418   -20.8162   1  10   0.0027   0.0033   0.0072   0.0009  -0.0025  -0.0025  -0.60    7.5
2019/03/11 14:53:10.600   27.894570589  -82.373418395   -20.8196   1  10   0.0027   0.0033   0.0072   0.0009  -0.0025  -0.0025  -0.40    7.5
2019/03/11 14:53:10.800   27.894570583  -82.373418377   -20.8241   1  10   0.0028   0.0033   0.0072   0.0009  -0.0025  -0.0025  -0.20    7.5
2019/03/11 14:53:11.000   27.894570581  -82.373418381   -20.8224   1  10   0.0027   0.0033   0.0072   0.0009  -0.0025  -0.0025   0.00    7.4
2019/03/11 14:53:11.200   27.894570583  -82.373418370   -20.8244   1  10   0.0028   0.0033   0.0072   0.0009  -0.0025  -0.0025  -0.80    7.4
2019/03/11 14:53:11.400   27.894570582  -82.373418386   -20.8223   1  10   0.0028   0.0033   0.0073   0.0009  -0.0025  -0.0025  -0.60    7.4
2019/03/11 14:53:11.600   27.894570564  -82.373418411   -20.8142   1  10   0.0028   0.0033   0.0073   0.0009  -0.0025  -0.0025  -0.40    7.4
2019/03/11 14:53:11.800   27.894570562  -82.373418402   -20.8142   1  10   0.0028   0.0033   0.0073   0.0009  -0.0025  -0.0025  -0.20    7.4
2019/03/11 14:53:12.000   27.894570544  -82.373418412   -20.8125   1  10   0.0027   0.0033   0.0072   0.0009  -0.0025  -0.0025   0.00    7.4
2019/03/11 14:53:12.200   27.894570546  -82.373418395   -20.8159   1  10   0.0028   0.0033   0.0073   0.0009  -0.0025  -0.0025  -0.80    7.4
2019/03/11 14:53:12.400   27.894570559  -82.373418399   -20.8180   1  10   0.0028   0.0033   0.0073   0.0009  -0.0025  -0.0025  -0.60    7.4
2019/03/11 14:53:12.600   27.894570541  -82.373418372   -20.8130   1  10   0.0028   0.0033   0.0073   0.0009  -0.0025  -0.0025  -0.40    7.5
2019/03/11 14:53:12.800   27.894570556  -82.373418369   -20.8184   1  10   0.0028   0.0033   0.0073   0.0009  -0.0025  -0.0026  -0.20    7.6
2019/03/11 14:53:13.000   27.894570547  -82.373418338   -20.8127   1  10   0.0027   0.0033   0.0073   0.0009  -0.0025  -0.0026   0.00    7.7
2019/03/11 14:53:13.200   27.894570563  -82.373418349   -20.8123   1  10   0.0028   0.0033   0.0073   0.0009  -0.0025  -0.0026  -0.80    7.8
2019/03/11 14:53:13.400   27.894570564  -82.373418343   -20.8110   1  10   0.0028   0.0033   0.0073   0.0009  -0.0025  -0.0026  -0.60    7.9
2019/03/11 14:53:13.600   27.894570550  -82.373418351   -20.8090   1  10   0.0028   0.0033   0.0073   0.0009  -0.0025  -0.0026  -0.40    8.0
2019/03/11 14:53:13.800   27.894570545  -82.373418345   -20.8053   1  10   0.0028   0.0033   0.0073   0.0009  -0.0025  -0.0026  -0.20    8.1
2019/03/11 14:53:14.000   27.894570543  -82.373418344   -20.8084   1  10   0.0028   0.0033   0.0073   0.0009  -0.0025  -0.0026   0.00    8.2
2019/03/11 14:53:14.200   27.894570554  -82.373418368   -20.8076   1  10   0.0028   0.0033   0.0073   0.0009  -0.0025  -0.0026  -0.80    8.3
2019/03/11 14:53:14.400   27.894570559  -82.373418349   -20.8102   1  10   0.0028   0.0033   0.0073   0.0009  -0.0025  -0.0026  -0.60    8.4
2019/03/11 14:53:14.600   27.894570560  -82.373418371   -20.8102   1  10   0.0028   0.0033   0.0073   0.0009  -0.0025  -0.0026  -0.40    8.5
2019/03/11 14:53:14.800   27.894570549  -82.373418376   -20.8117   1  10   0.0028   0.0033   0.0074   0.0009  -0.0025  -0.0026  -0.20    8.5
2019/03/11 14:53:15.000   27.894570560  -82.373418376   -20.8110   1  10   0.0028   0.0033   0.0073   0.0009  -0.0024  -0.0026   0.00    8.6
2019/03/11 14:53:15.200   27.894570575  -82.373418394   -20.8105   1  10   0.0028   0.0034   0.0074   0.0009  -0.0025  -0.0026  -0.80    8.7
2019/03/11 14:53:15.400   27.894570586  -82.373418378   -20.8120   1  10   0.0028   0.0033   0.0074   0.0008  -0.0024  -0.0027  -0.60    8.8
2019/03/11 14:53:15.600   27.894570566  -82.373418365   -20.8122   1  10   0.0028   0.0033   0.0075   0.0008  -0.0024  -0.0027  -0.40    8.8
2019/03/11 14:53:15.800   27.894570579  -82.373418375   -20.8136   1  10   0.0029   0.0034   0.0076   0.0007  -0.0023  -0.0028  -0.20    8.9
2019/03/11 14:53:16.000   27.894570560  -82.373418400   -20.8159   1  10   0.0030   0.0034   0.0080  -0.0003  -0.0019  -0.0032   0.00    9.5
2019/03/11 14:53:16.200   27.894570576  -82.373418399   -20.8157   1  10   0.0029   0.0034   0.0076   0.0007  -0.0023  -0.0029  -0.80    9.7
2019/03/11 14:53:16.400   27.894570565  -82.373418338   -20.8175   1  10   0.0028   0.0033   0.0075   0.0008  -0.0024  -0.0028  -0.60    9.9
2019/03/11 14:53:16.600   27.894570658  -82.373418299   -20.8259   1  10   0.0028   0.0033   0.0074   0.0008  -0.0024  -0.0027  -0.40   10.0
2019/03/11 14:53:16.800   27.894570651  -82.373418254   -20.8250   1  10   0.0028   0.0034   0.0074   0.0009  -0.0025  -0.0027  -0.20   10.1
2019/03/11 14:53:17.000   27.894570637  -82.373418245   -20.8150   1  10   0.0028   0.0033   0.0073   0.0009  -0.0024  -0.0026   0.00   10.2
2019/03/11 14:53:17.200   27.894570636  -82.373418262   -20.8070   1  10   0.0028   0.0034   0.0074   0.0009  -0.0025  -0.0026  -0.80   10.3
2019/03/11 14:53:17.400   27.894570590  -82.373418318   -20.8023   1  10   0.0028   0.0033   0.0074   0.0009  -0.0025  -0.0026  -0.60   10.4
2019/03/11 14:53:17.600   27.894570630  -82.373418280   -20.8082   1  10   0.0028   0.0033   0.0074   0.0009  -0.0025  -0.0026  -0.40   10.5
2019/03/11 14:53:17.800   27.894570644  -82.373418294   -20.8029   1  10   0.0028   0.0034   0.0074   0.0009  -0.0025  -0.0026  -0.20   10.5
2019/03/11 14:53:18.000   27.894570582  -82.373418331   -20.8000   1  10   0.0028   0.0033   0.0073   0.0009  -0.0025  -0.0026   0.00   10.7
2019/03/11 14:53:18.200   27.894570608  -82.373418305   -20.8035   1  10   0.0028   0.0034   0.0074   0.0009  -0.0025  -0.0026  -0.80   10.8
2019/03/11 14:53:18.400   27.894570599  -82.373418299   -20.8080   1  10   0.0028   0.0033   0.0073   0.0009  -0.0025  -0.0026  -0.60   10.9
2019/03/11 14:53:18.600   27.894570605  -82.373418266   -20.8020   1  10   0.0028   0.0033   0.0073   0.0009  -0.0025  -0.0026  -0.40   11.0
2019/03/11 14:53:18.800   27.894570588  -82.373418269   -20.8025   1  10   0.0028   0.0034   0.0074   0.0009  -0.0025  -0.0026  -0.20   11.1
2019/03/11 14:53:19.000   27.894570584  -82.373418272   -20.8074   1  10   0.0028   0.0033   0.0073   0.0009  -0.0025  -0.0026   0.00   11.2
2019/03/11 14:53:19.200   27.894570546  -82.373418281   -20.8091   1  10   0.0028   0.0034   0.0074   0.0009  -0.0025  -0.0026  -0.80   11.2
2019/03/11 14:53:19.400   27.894570561  -82.373418301   -20.8030   1  10   0.0028   0.0033   0.0074   0.0009  -0.0025  -0.0026  -0.60   11.3
2019/03/11 14:53:19.600   27.894570589  -82.373418339   -20.7961   1  10   0.0028   0.0033   0.0074   0.0009  -0.0025  -0.0026  -0.40   11.4
2019/03/11 14:53:19.800   27.894570579  -82.373418346   -20.7934   1  10   0.0028   0.0034   0.0074   0.0009  -0.0025  -0.0026  -0.20    3.3
2019/03/11 14:53:20.000   27.894570579  -82.373418326   -20.7910   1  10   0.0028   0.0033   0.0073   0.0009  -0.0025  -0.0026   0.00    3.6
2019/03/11 14:53:20.200   27.894570583  -82.373418381   -20.7893   1  10   0.0028   0.0034   0.0074   0.0009  -0.0026  -0.0026  -0.80    3.8
2019/03/11 14:53:20.400   27.894570629  -82.373418428   -20.7913   1  10   0.0028   0.0034   0.0074   0.0010  -0.0026  -0.0027  -0.60    4.0
2019/03/11 14:53:20.600   27.894570613  -82.373418404   -20.7986   1  10   0.0028   0.0034   0.0075   0.0010  -0.0026  -0.0027  -0.40    4.3
2019/03/11 14:53:20.800   27.894570467  -82.373418387   -20.7752   1  10   0.0028   0.0035   0.0075   0.0010  -0.0026  -0.0028  -0.20    4.4
2019/03/11 14:53:21.000   27.894570503  -82.373418536   -20.8085   1  10   0.0028   0.0034   0.0075   0.0010  -0.0025  -0.0027   0.00    6.4
2019/03/11 14:53:21.200   27.894570526  -82.373418435   -20.7971   1  10   0.0029   0.0036   0.0075   0.0012  -0.0026  -0.0027  -0.80    6.7
2019/03/11 14:53:21.400   27.894570554  -82.373418393   -20.8080   1  10   0.0028   0.0036   0.0074   0.0012  -0.0027  -0.0027  -0.60    7.0
2019/03/11 14:53:21.600   27.894570564  -82.373418361   -20.8103   1  10   0.0028   0.0036   0.0074   0.0013  -0.0027  -0.0027  -0.40    7.3
2019/03/11 14:53:21.800   27.894570531  -82.373418396   -20.8066   1  10   0.0028   0.0037   0.0075   0.0013  -0.0027  -0.0027  -0.20    7.5
2019/03/11 14:53:22.000   27.894570532  -82.373418390   -20.8022   1  10   0.0028   0.0038   0.0074   0.0014  -0.0027  -0.0027   0.00   13.9
2019/03/11 14:53:22.200   27.894570515  -82.373418453   -20.7892   1  10   0.0029   0.0037   0.0075   0.0014  -0.0027  -0.0027  -0.80   14.3
2019/03/11 14:53:22.400   27.894570482  -82.373418393   -20.8290   2  10   0.0029   0.0037   0.0075   0.0014  -0.0027  -0.0027  -0.60   14.9
2019/03/11 14:53:22.600   27.894570499  -82.373418208   -20.8139   2  10   0.0029   0.0037   0.0076   0.0015  -0.0027  -0.0027  -0.40   15.3
2019/03/11 14:53:22.800   27.894570626  -82.373418269   -20.8215   2  10   0.0029   0.0038   0.0078   0.0015  -0.0028  -0.0028  -0.20   16.1
2019/03/11 14:53:23.000   27.894570628  -82.373418246   -20.8227   2  10   0.0029   0.0040   0.0079   0.0017  -0.0030  -0.0029   0.00    3.2
2019/03/11 14:53:23.200   27.894570635  -82.373418206   -20.8370   2  10   0.0030   0.0042   0.0080   0.0019  -0.0033  -0.0030  -0.80    3.5
2019/03/11 14:53:23.400   27.894570621  -82.373418198   -20.8395   2  10   0.0031   0.0042   0.0080   0.0020  -0.0033  -0.0031  -0.60    3.8
2019/03/11 14:53:23.600   27.894570633  -82.373418204   -20.8330   2  10   0.0031   0.0042   0.0080   0.0020  -0.0034  -0.0031  -0.40    4.1
2019/03/11 14:53:23.800   27.894570658  -82.373418221   -20.8387   2  10   0.0031   0.0042   0.0080   0.0020  -0.0034  -0.0031  -0.20    4.3
2019/03/11 14:53:24.000   27.894570636  -82.373418258   -20.8398   2  10   0.0030   0.0042   0.0080   0.0020  -0.0033  -0.0031   0.00    4.6
2019/03/11 14:53:24.200   27.894570622  -82.373418250   -20.8409   2  10   0.0031   0.0042   0.0080   0.0020  -0.0034  -0.0031  -0.80    4.9
2019/03/11 14:53:24.400   27.894570671  -82.373418194   -20.8442   2  10   0.0031   0.0042   0.0080   0.0020  -0.0034  -0.0031  -0.60    5.1
2019/03/11 14:53:24.600   27.894570625  -82.373418253   -20.8411   2  10   0.0031   0.0043   0.0081   0.0021  -0.0034  -0.0031  -0.40    5.3
2019/03/11 14:53:24.800   27.894570605  -82.373418212   -20.8475   2  10   0.0031   0.0043   0.0081   0.0021  -0.0035  -0.0032  -0.20    5.5
2019/03/11 14:53:25.000   27.894570595  -82.373418198   -20.8430   2  10   0.0031   0.0043   0.0081   0.0021  -0.0035  -0.0032   0.00    5.7
2019/03/11 14:53:25.200   27.894570575  -82.373418311   -20.8314   2  10   0.0031   0.0043   0.0082   0.0021  -0.0035  -0.0032  -0.80    5.9
2019/03/11 14:53:25.400   27.894570626  -82.373418242   -20.8375   2  10   0.0031   0.0043   0.0081   0.0021  -0.0035  -0.0032  -0.60    6.0
2019/03/11 14:53:25.600   27.894570641  -82.373418289   -20.8289   2  10   0.0031   0.0043   0.0081   0.0021  -0.0035  -0.0032  -0.40    6.2
2019/03/11 14:53:25.800   27.894570673  -82.373418224   -20.8347   2  10   0.0031   0.0043   0.0082   0.0021  -0.0035  -0.0032  -0.20    6.3
2019/03/11 14:53:26.000   27.894570679  -82.373418128   -20.8454   2  10   0.0031   0.0043   0.0081   0.0021  -0.0035  -0.0032   0.00    6.4
2019/03/11 14:53:26.200   27.894570700  -82.373418126   -20.8364   2  10   0.0031   0.0043   0.0082   0.0021  -0.0035  -0.0032  -0.80    6.5
2019/03/11 14:53:26.400   27.894570666  -82.373418222   -20.8317   2  10   0.0031   0.0043   0.0082   0.0021  -0.0035  -0.0032  -0.60    6.6
2019/03/11 14:53:26.600   27.894570652  -82.373418058   -20.8460   2  10   0.0031   0.0043   0.0082   0.0021  -0.0035  -0.0032  -0.40    6.6
2019/03/11 14:53:26.800   27.894570632  -82.373418092   -20.8545   2  10   0.0031   0.0043   0.0082   0.0021  -0.0035  -0.0032  -0.20    6.7
2019/03/11 14:53:27.000   27.894570682  -82.373418159   -20.8492   2  10   0.0031   0.0043   0.0081   0.0021  -0.0035  -0.0032   0.00    6.7
2019/03/11 14:53:27.200   27.894570657  -82.373418152   -20.8412   2  10   0.0031   0.0043   0.0082   0.0021  -0.0035  -0.0033  -0.80    6.7
2019/03/11 14:53:27.400   27.894570648  -82.373418161   -20.8406   2  10   0.0031   0.0043   0.0082   0.0021  -0.0035  -0.0033  -0.60    6.8
2019/03/11 14:53:27.600   27.894570655  -82.373418093   -20.8459   2  10   0.0031   0.0043   0.0082   0.0021  -0.0035  -0.0033  -0.40    6.8
2019/03/11 14:53:27.800   27.894570637  -82.373418078   -20.8427   2  10   0.0032   0.0043   0.0083   0.0021  -0.0035  -0.0033  -0.20    6.8
2019/03/11 14:53:28.000   27.894570656  -82.373418131   -20.8285   2  10   0.0031   0.0043   0.0082   0.0021  -0.0035  -0.0033   0.00    6.9
2019/03/11 14:53:28.200   27.894570528  -82.373418031   -20.8477   2  10   0.0032   0.0043   0.0084   0.0021  -0.0035  -0.0034  -0.80    6.8
2019/03/11 14:53:28.400   27.894570550  -82.373417964   -20.8549   2  10   0.0032   0.0043   0.0085   0.0021  -0.0035  -0.0035  -0.60    6.8
2019/03/11 14:53:28.600   27.894570566  -82.373417981   -20.8563   2  10   0.0032   0.0043   0.0085   0.0021  -0.0034  -0.0035  -0.40    6.8
2019/03/11 14:53:28.800   27.894570534  -82.373417975   -20.8665   2   9   0.0032   0.0044   0.0085   0.0020  -0.0033  -0.0035  -0.20   13.7
2019/03/11 14:53:29.000   27.894570692  -82.373418061   -20.8636   2   9   0.0032   0.0043   0.0085   0.0020  -0.0033  -0.0035   0.00   13.3
2019/03/11 14:53:29.200   27.894570717  -82.373418086   -20.8618   2   9   0.0032   0.0044   0.0085   0.0020  -0.0033  -0.0035  -0.80   13.0
2019/03/11 14:53:29.400   27.894570731  -82.373418094   -20.8600   2   9   0.0032   0.0044   0.0085   0.0020  -0.0033  -0.0035  -0.60   12.8
2019/03/11 14:53:29.600   27.894570750  -82.373418077   -20.8643   2   9   0.0032   0.0044   0.0085   0.0021  -0.0033  -0.0035  -0.40   12.5
2019/03/11 14:53:29.800   27.894570751  -82.373418070   -20.8613   2   9   0.0032   0.0044   0.0086   0.0021  -0.0033  -0.0035  -0.20   12.2
2019/03/11 14:53:30.000   27.894570701  -82.373418146   -20.8402   2   9   0.0032   0.0044   0.0085   0.0021  -0.0033  -0.0035   0.00   12.0
2019/03/11 14:53:30.200   27.894570653  -82.373418127   -20.8399   2   9   0.0032   0.0044   0.0086   0.0021  -0.0033  -0.0035  -0.80   11.7
2019/03/11 14:53:30.400   27.894570642  -82.373418153   -20.8384   2   9   0.0032   0.0044   0.0085   0.0021  -0.0033  -0.0035  -0.60   11.5
2019/03/11 14:53:30.600   27.894570669  -82.373418154   -20.8378   2   9   0.0032   0.0044   0.0086   0.0021  -0.0033  -0.0035  -0.40   11.2
2019/03/11 14:53:30.800   27.894570683  -82.373418191   -20.8353   2   9   0.0032   0.0044   0.0086   0.0021  -0.0034  -0.0035  -0.20   11.0
2019/03/11 14:53:31.000   27.894570762  -82.373417854   -20.8422   2   9   0.0032   0.0044   0.0085   0.0021  -0.0033  -0.0035   0.00   10.7
2019/03/11 14:53:31.200   27.894570732  -82.373418030   -20.8350   2   9   0.0033   0.0045   0.0086   0.0021  -0.0034  -0.0035  -0.80   10.5
2019/03/11 14:53:31.400   27.894570734  -82.373418005   -20.8230   2   9   0.0033   0.0045   0.0086   0.0022  -0.0034  -0.0035  -0.60   10.3
2019/03/11 14:53:31.600   27.894570619  -82.373418261   -20.8242   1   8   0.0033   0.0046   0.0086   0.0023  -0.0033  -0.0035  -0.40   18.0
2019/03/11 14:53:31.800   27.894570572  -82.373418277   -20.8158   1   8   0.0033   0.0046   0.0087   0.0023  -0.0033  -0.0035  -0.20   18.0
2019/03/11 14:53:32.000   27.894570570  -82.373418259   -20.8136   1   8   0.0033   0.0046   0.0086   0.0023  -0.0033  -0.0035   0.00   18.0
2019/03/11 14:53:32.200   27.894570586  -82.373418263   -20.8235   1   8   0.0033   0.0046   0.0087   0.0023  -0.0034  -0.0035  -0.80   17.9
2019/03/11 14:53:32.400   27.894570607  -82.373418231   -20.8278   1   8   0.0033   0.0046   0.0087   0.0024  -0.0034  -0.0035  -0.60   18.0
2019/03/11 14:53:32.600   27.894570612  -82.373418182   -20.8245   1   8   0.0033   0.0046   0.0087   0.0024  -0.0035  -0.0036  -0.40   18.0
2019/03/11 14:53:32.800   27.894570642  -82.373418163   -20.8209   1   8   0.0034   0.0047   0.0088   0.0024  -0.0035  -0.0036  -0.20   18.0
2019/03/11 14:53:33.000   27.894570631  -82.373418141   -20.8216   1   8   0.0034   0.0047   0.0087   0.0024  -0.0035  -0.0036   0.00   17.9
2019/03/11 14:53:33.200   27.894570593  -82.373418148   -20.8111   1   8   0.0034   0.0047   0.0089   0.0025  -0.0037  -0.0037  -0.80   17.9
2019/03/11 14:53:33.400   27.894570598  -82.373418165   -20.8036   1   8   0.0035   0.0048   0.0091   0.0026  -0.0038  -0.0038  -0.60   17.8
2019/03/11 14:53:33.600   27.894570635  -82.373418123   -20.8204   1   9   0.0034   0.0048   0.0092   0.0025  -0.0040  -0.0040  -0.40   17.8
2019/03/11 14:53:33.800   27.894570677  -82.373418026   -20.8388   1   8   0.0038   0.0054   0.0105   0.0033  -0.0054  -0.0050  -0.20   23.5
2019/03/11 14:53:34.000   27.894570676  -82.373418018   -20.8409   1   8   0.0038   0.0055   0.0105   0.0034  -0.0055  -0.0050   0.00   23.5
2019/03/11 14:53:34.200   27.894570585  -82.373418307   -20.8199   1   8   0.0037   0.0049   0.0104   0.0029  -0.0051  -0.0048  -0.80   23.5
2019/03/11 14:53:34.400   27.894570563  -82.373418324   -20.8140   1   8   0.0037   0.0047   0.0104   0.0028  -0.0050  -0.0048  -0.60   23.5
2019/03/11 14:53:34.600   27.894570570  -82.373418303   -20.8137   1   8   0.0036   0.0046   0.0103   0.0027  -0.0049  -0.0048  -0.40   23.4
2019/03/11 14:53:34.800   27.894570569  -82.373418283   -20.8156   1   8   0.0036   0.0045   0.0103   0.0026  -0.0048  -0.0047  -0.20   23.4
2019/03/11 14:53:35.000   27.894570573  -82.373418284   -20.8195   1   8   0.0035   0.0044   0.0102   0.0025  -0.0047  -0.0047   0.00   23.4
2019/03/11 14:53:35.200   27.894570572  -82.373418297   -20.8185   1   8   0.0034   0.0042   0.0102   0.0022  -0.0046  -0.0046  -0.80    3.6
2019/03/11 14:53:35.400   27.894570564  -82.373418348   -20.8158   1   8   0.0034   0.0040   0.0101   0.0021  -0.0045  -0.0045  -0.60    3.9
2019/03/11 14:53:35.600   27.894570566  -82.373418335   -20.8164   1   8   0.0034   0.0040   0.0101   0.0021  -0.0044  -0.0045  -0.40    4.3
2019/03/11 14:53:35.800   27.894570548  -82.373418363   -20.8150   1   8   0.0034   0.0040   0.0101   0.0021  -0.0044  -0.0045  -0.20    5.3
2019/03/11 14:53:36.000   27.894570541  -82.373418374   -20.8098   1   8   0.0034   0.0040   0.0100   0.0021  -0.0043  -0.0045   0.00    5.8
2019/03/11 14:53:36.200   27.894570547  -82.373418370   -20.8096   1   9   0.0032   0.0038   0.0093   0.0017  -0.0038  -0.0040  -0.80    6.2
2019/03/11 14:53:36.400   27.894570539  -82.373418381   -20.8081   1   9   0.0031   0.0037   0.0091   0.0016  -0.0036  -0.0038  -0.60    6.7
2019/03/11 14:53:36.600   27.894570550  -82.373418366   -20.8121   1   9   0.0031   0.0037   0.0089   0.0015  -0.0035  -0.0037  -0.40    7.1
2019/03/11 14:53:36.800   27.894570560  -82.373418381   -20.8110   1   9   0.0031   0.0037   0.0088   0.0015  -0.0034  -0.0037  -0.20    7.5
2019/03/11 14:53:37.000   27.894570551  -82.373418394   -20.8103   1   9   0.0031   0.0036   0.0087   0.0015  -0.0033  -0.0036   0.00    8.0
2019/03/11 14:53:37.200   27.894570557  -82.373418404   -20.8074   1   9   0.0031   0.0036   0.0086   0.0013  -0.0032  -0.0035  -0.80    8.4
2019/03/11 14:53:37.400   27.894570555  -82.373418385   -20.8077   1  10   0.0030   0.0035   0.0084   0.0012  -0.0030  -0.0034  -0.60    8.8
2019/03/11 14:53:37.600   27.894570570  -82.373418383   -20.8051   1  10   0.0030   0.0035   0.0083   0.0013  -0.0030  -0.0033  -0.40    9.2
2019/03/11 14:53:37.800   27.894570570  -82.373418378   -20.8067   1  10   0.0030   0.0035   0.0083   0.0013  -0.0031  -0.0033  -0.20    9.6
2019/03/11 14:53:38.000   27.894570554  -82.373418363   -20.8067   1  10   0.0030   0.0035   0.0084   0.0014  -0.0033  -0.0033   0.00   10.0
2019/03/11 14:53:38.200   27.894570574  -82.373418375   -20.8091   1  10   0.0030   0.0037   0.0085   0.0016  -0.0035  -0.0035  -0.80   10.3
2019/03/11 14:53:38.400   27.894570569  -82.373418370   -20.8128   1  10   0.0029   0.0036   0.0081   0.0014  -0.0032  -0.0031  -0.60   10.7
2019/03/11 14:53:38.600   27.894570565  -82.373418364   -20.8133   1  10   0.0029   0.0035   0.0079   0.0012  -0.0030  -0.0030  -0.40   11.1
2019/03/11 14:53:38.800   27.894570545  -82.373418367   -20.8082   1  10   0.0029   0.0034   0.0078   0.0012  -0.0029  -0.0029  -0.20   11.5
2019/03/11 14:53:39.000   27.894570556  -82.373418370   -20.8010   1  10   0.0028   0.0034   0.0076   0.0011  -0.0027  -0.0028   0.00   11.9
2019/03/11 14:53:39.200   27.894570547  -82.373418361   -20.8020   1  10   0.0028   0.0034   0.0076   0.0011  -0.0027  -0.0028  -0.80   12.3
2019/03/11 14:53:39.400   27.894570543  -82.373418380   -20.8036   1  10   0.0028   0.0034   0.0075   0.0010  -0.0027  -0.0027  -0.60   12.6
2019/03/11 14:53:39.600   27.894570549  -82.373418376   -20.8053   1  10   0.0028   0.0034   0.0075   0.0010  -0.0027  -0.0027  -0.40   13.0
2019/03/11 14:53:39.800   27.894570550  -82.373418369   -20.8057   1  10   0.0028   0.0034   0.0075   0.0010  -0.0026  -0.0027  -0.20   13.4
2019/03/11 14:53:40.000   27.894570554  -82.373418378   -20.8090   1  10   0.0028   0.0033   0.0074   0.0010  -0.0026  -0.0027   0.00   13.7
2019/03/11 14:53:40.200   27.894570563  -82.373418364   -20.8082   1  10   0.0028   0.0034   0.0075   0.0010  -0.0026  -0.0027  -0.80   14.0
2019/03/11 14:53:40.400   27.894570553  -82.373418349   -20.8049   1  10   0.0028   0.0033   0.0074   0.0010  -0.0026  -0.0027  -0.60   14.4
2019/03/11 14:53:40.600   27.894570560  -82.373418345   -20.8115   1  10   0.0028   0.0033   0.0073   0.0010  -0.0026  -0.0026  -0.40    3.3
2019/03/11 14:53:40.800   27.894570566  -82.373418350   -20.8154   1  10   0.0028   0.0033   0.0072   0.0009  -0.0025  -0.0025  -0.20    3.2
2019/03/11 14:53:41.000   27.894570579  -82.373418325   -20.8153   1  10   0.0027   0.0033   0.0072   0.0009  -0.0025  -0.0025   0.00    3.4
2019/03/11 14:53:41.200   27.894570559  -82.373418336   -20.8137   1  10   0.0028   0.0033   0.0072   0.0009  -0.0025  -0.0025  -0.80    3.6
2019/03/11 14:53:41.400   27.894570553  -82.373418337   -20.8121   1  10   0.0027   0.0033   0.0072   0.0009  -0.0025  -0.0025  -0.60    3.7
2019/03/11 14:53:41.600   27.894570551  -82.373418338   -20.8092   1  10   0.0027   0.0033   0.0072   0.0009  -0.0025  -0.0025  -0.40    3.9
2019/03/11 14:53:41.800   27.894570544  -82.373418352   -20.8082   1  10   0.0028   0.0033   0.0072   0.0009  -0.0025  -0.0025  -0.20    4.0
2019/03/11 14:53:42.000   27.894570547  -82.373418385   -20.8102   1  10   0.0027   0.0033   0.0072   0.0009  -0.0025  -0.0025   0.00    4.2
2019/03/11 14:53:42.200   27.894570545  -82.373418367   -20.8099   1  10   0.0028   0.0033   0.0072   0.0009  -0.0025  -0.0025  -0.80    4.4
2019/03/11 14:53:42.400   27.894570544  -82.373418349   -20.8089   1  10   0.0027   0.0033   0.0072   0.0009  -0.0025  -0.0025  -0.60    4.5
2019/03/11 14:53:42.600   27.894570549  -82.373418352   -20.8116   1  10   0.0027   0.0033   0.0072   0.0009  -0.0025  -0.0025  -0.40    4.7
2019/03/11 14:53:42.800   27.894570552  -82.373418347   -20.8114   1  10   0.0028   0.0033   0.0072   0.0009  -0.0025  -0.0025  -0.20    4.9
2019/03/11 14:53:43.000   27.894570559  -82.373418349   -20.8114   1  10   0.0027   0.0033   0.0072   0.0009  -0.0025  -0.0025   0.00    5.0
2019/03/11 14:53:43.200   27.894570560  -82.373418361   -20.8133   1  10   0.0028   0.0033   0.0072   0.0009  -0.0025  -0.0025  -0.80    5.2
2019/03/11 14:53:43.400   27.894570557  -82.373418353   -20.8117   1  10   0.0027   0.0033   0.0072   0.0009  -0.0025  -0.0025  -0.60    5.4
2019/03/11 14:53:43.600   27.894570554  -82.373418391   -20.8099   1  10   0.0027   0.0033   0.0072   0.0009  -0.0025  -0.0025  -0.40    5.5
2019/03/11 14:53:43.800   27.894570544  -82.373418360   -20.8091   1  10   0.0028   0.0033   0.0072   0.0009  -0.0025  -0.0025  -0.20    5.7
2019/03/11 14:53:44.000   27.894570549  -82.373418387   -20.8110   1  10   0.0027   0.0033   0.0072   0.0009  -0.0025  -0.0025   0.00    5.8
2019/03/11 14:53:44.200   27.894570552  -82.373418366   -20.8066   1  10   0.0028   0.0033   0.0072   0.0009  -0.0025  -0.0025  -0.80    6.0
2019/03/11 14:53:44.400   27.894570555  -82.373418361   -20.8097   1  10   0.0027   0.0033   0.0072   0.0009  -0.0025  -0.0025  -0.60    6.1
2019/03/11 14:53:44.600   27.894570563  -82.373418353   -20.8075   1  10   0.0027   0.0033   0.0072   0.0009  -0.0025  -0.0025  -0.40    6.3
2019/03/11 14:53:44.800   27.894570559  -82.373418369   -20.8072   1  10   0.0028   0.0033   0.0072   0.0009  -0.0025  -0.0025  -0.20    6.4
2019/03/11 14:53:45.000   27.894570571  -82.373418356   -20.8080   1  10   0.0027   0.0033   0.0072   0.0009  -0.0025  -0.0025   0.00    6.5
2019/03/11 14:53:45.200   27.894570556  -82.373418338   -20.8103   1  10   0.0028   0.0033   0.0072   0.0009  -0.0025  -0.0025  -0.80    6.7
2019/03/11 14:53:45.400   27.894570559  -82.373418349   -20.8096   1  10   0.0027   0.0033   0.0072   0.0009  -0.0025  -0.0025  -0.60    6.8
2019/03/11 14:53:45.600   27.894570555  -82.373418327   -20.8080   1  10   0.0027   0.0033   0.0072   0.0009  -0.0025  -0.0025  -0.40    7.0
2019/03/11 14:53:45.800   27.894570552  -82.373418361   -20.8074   1  10   0.0028   0.0033   0.0072   0.0009  -0.0025  -0.0025  -0.20    7.1
