% program   : RTKPOST ver.demo5 b31
% inp file  : D:\Data\Fla\Tampa-StPete-area\WGI-larrysanders\2019\0311\GPS\UAS\GP145212.obs
% inp file  : D:\Data\Fla\Tampa-StPete-area\WGI-larrysanders\2019\0311\GPS\MCD6\mcd60700.19o
% inp file  : D:\Data\Fla\Tampa-StPete-area\WGI-larrysanders\2019\0311\GPS\ZEFR\zefr0700.19n
% inp file  : D:\Data\Fla\Tampa-StPete-area\WGI-larrysanders\2019\0311\GPS\ZEFR\igu20441_18.sp3
% inp file  : D:\Data\Fla\Tampa-StPete-area\WGI-larrysanders\2019\0311\GPS\ZEFR\zefr0700.19g
% obs start : 2019/03/11 14:52:12.5 UTC (week2044 139950.5s)
% obs end   : 2019/03/11 15:13:07.8 UTC (week2044 141205.8s)
% pos mode  : kinematic
% freqs     : L1+L2
% solution  : combined
% elev mask : 20.0 deg
% dynamics  : on
% tidecorr  : off
% ionos opt : broadcast
% tropo opt : saastamoinen
% ephemeris : precise
% navi sys  : gps glonass sbas
% amb res   : continuous
% amb glo   : fix and hold
% val thres : 3.0
% antenna1  :                       ( 0.0000  0.0000  0.0000)
% antenna2  :                       ( 0.0000  0.0000  0.0000)
% ref pos   : 27.849816036  -82.532588893   -14.2001
%
% (lat/lon/height=WGS84/ellipsoidal,Q=1:fix,2:float,3:sbas,4:dgps,5:single,6:ppp,ns=# of satellites)
%  UTC                   latitude(deg) longitude(deg)  height(m)   Q  ns   sdn(m)   sde(m)   sdu(m)  sdne(m)  sdeu(m)  sdun(m) age(s)  ratio
2019/03/11 14:52:27.000   27.894571746  -82.373418864   -20.7194   1   4   0.0937   0.0211   0.0458  -0.0297   0.0127   0.0565   0.00   99.9
2019/03/11 14:52:27.200   27.894571793  -82.373418516   -20.6770   1   4   0.0941   0.0282   0.0515  -0.0305   0.0233   0.0561   0.20   99.3
2019/03/11 14:52:27.400   27.894571804  -82.373418313   -20.6506   1   4   0.0942   0.0277   0.0511  -0.0305   0.0226   0.0562   0.40   98.8
2019/03/11 14:52:27.600   27.894571787  -82.373418229   -20.6455   1   4   0.0943   0.0272   0.0507  -0.0304   0.0219   0.0564   0.60   98.8
2019/03/11 14:52:27.800   27.894571767  -82.373418308   -20.6469   1   4   0.0944   0.0267   0.0503  -0.0303   0.0212   0.0565   0.80   98.5
2019/03/11 14:52:28.000   27.894571763  -82.373418609   -20.6721   1   4   0.0942   0.0262   0.0499  -0.0301   0.0205   0.0565   1.00   98.2
2019/03/11 14:52:28.200   27.894571811  -82.373418805   -20.7098   1   4   0.0944   0.0257   0.0496  -0.0300   0.0199   0.0568   1.20   98.4
2019/03/11 14:52:28.400   27.894572003  -82.373418941   -20.7411   1   4   0.0946   0.0252   0.0494  -0.0299   0.0192   0.0570   1.40   98.0
2019/03/11 14:52:28.600   27.894571936  -82.373418976   -20.7529   1   4   0.0948   0.0248   0.0492  -0.0298   0.0185   0.0573   1.60   97.7
2019/03/11 14:52:28.800   27.894571878  -82.373419016   -20.7524   1   4   0.0950   0.0243   0.0490  -0.0297   0.0179   0.0576   1.80   97.6
2019/03/11 14:52:29.000   27.894571867  -82.373419017   -20.7431   1   4   0.0952   0.0239   0.0489  -0.0296   0.0174   0.0578   2.00   97.5
2019/03/11 14:52:29.200   27.894571857  -82.373419024   -20.7596   1   4   0.0955   0.0236   0.0487  -0.0296   0.0169   0.0580   2.20   98.7
2019/03/11 14:52:29.400   27.894571948  -82.373419145   -20.7816   1   4   0.0962   0.0234   0.0485  -0.0300   0.0162   0.0583   2.40   99.3
2019/03/11 14:52:29.600   27.894571913  -82.373419009   -20.7561   1   4   0.1033   0.0241   0.0498  -0.0332   0.0146   0.0617   2.60   98.9
2019/03/11 14:52:29.800   27.894571635  -82.373418481   -20.6887   1   4   0.0949   0.0236   0.0485  -0.0292   0.0169   0.0579   2.80   98.1
2019/03/11 14:52:30.000   27.894571640  -82.373418426   -20.6811   1   4   0.0950   0.0204   0.0468  -0.0273   0.0110   0.0594   3.00   98.0
2019/03/11 14:52:30.200   27.894570553  -82.373418211   -20.7187   1   6   0.0922   0.0091   0.0421  -0.0229  -0.0145   0.0597   3.20   83.6
2019/03/11 14:52:30.400   27.894570510  -82.373418258   -20.7150   1   6   0.0928   0.0092   0.0424  -0.0230  -0.0146   0.0601   3.40   83.4
2019/03/11 14:52:30.600   27.894570416  -82.373418235   -20.7227   1   6   0.0935   0.0093   0.0428  -0.0232  -0.0147   0.0605   3.60   83.3
2019/03/11 14:52:30.800   27.894570211  -82.373418234   -20.7263   1   6   0.0941   0.0094   0.0431  -0.0233  -0.0147   0.0609   3.80   83.2
2019/03/11 14:52:31.000   27.894570206  -82.373418251   -20.7298   1   6   0.0948   0.0096   0.0435  -0.0235  -0.0148   0.0613   4.00   82.7
2019/03/11 14:52:31.200   27.894570214  -82.373418259   -20.7320   1   6   0.0954   0.0097   0.0439  -0.0236  -0.0148   0.0617   4.20   82.3
2019/03/11 14:52:31.400   27.894570214  -82.373418261   -20.7383   1   6   0.0960   0.0098   0.0442  -0.0237  -0.0148   0.0621   4.40   81.9
2019/03/11 14:52:31.600   27.894570150  -82.373418230   -20.7356   1   6   0.0966   0.0100   0.0447  -0.0239  -0.0147   0.0625   4.60   81.3
2019/03/11 14:52:31.800   27.894570276  -82.373418041   -20.7716   1   6   0.0972   0.0103   0.0450  -0.0240  -0.0147   0.0629   4.80   80.9
2019/03/11 14:52:32.000   27.894570249  -82.373418075   -20.7862   1   6   0.0976   0.0088   0.0439  -0.0243  -0.0155   0.0634   0.00   79.9
2019/03/11 14:52:32.200   27.894570279  -82.373418056   -20.7809   1   6   0.0988   0.0104   0.0458  -0.0244  -0.0149   0.0640   0.20   78.8
2019/03/11 14:52:32.400   27.894570244  -82.373418031   -20.7754   1   6   0.0994   0.0103   0.0459  -0.0245  -0.0150   0.0644   0.40   78.2
2019/03/11 14:52:32.600   27.894570324  -82.373417965   -20.7693   1   6   0.1001   0.0102   0.0460  -0.0247  -0.0152   0.0648   0.60   77.5
2019/03/11 14:52:32.800   27.894570412  -82.373418040   -20.7363   1   6   0.1007   0.0101   0.0462  -0.0248  -0.0154   0.0653   0.80   77.1
2019/03/11 14:52:33.000   27.894570345  -82.373418156   -20.7044   1   6   0.1014   0.0100   0.0464  -0.0250  -0.0155   0.0657   1.00   76.1
2019/03/11 14:52:33.200   27.894570398  -82.373418090   -20.7091   1   6   0.1022   0.0100   0.0465  -0.0252  -0.0157   0.0662   1.20   75.1
2019/03/11 14:52:33.400   27.894570546  -82.373418088   -20.7239   1   6   0.1030   0.0099   0.0468  -0.0254  -0.0159   0.0668   1.40   73.9
2019/03/11 14:52:33.600   27.894570504  -82.373418265   -20.7183   1   6   0.1038   0.0099   0.0471  -0.0256  -0.0160   0.0674   1.60   72.6
2019/03/11 14:52:33.800   27.894570514  -82.373418210   -20.7060   1   6   0.1047   0.0098   0.0475  -0.0258  -0.0162   0.0681   1.80   71.6
2019/03/11 14:52:34.000   27.894570570  -82.373418241   -20.6966   1   6   0.1060   0.0098   0.0481  -0.0259  -0.0163   0.0690   2.00   70.6
2019/03/11 14:52:34.200   27.894570470  -82.373418321   -20.7072   1   6   0.1097   0.0098   0.0493  -0.0262  -0.0165   0.0713   2.20   69.2
2019/03/11 14:52:34.400   27.894570398  -82.373418341   -20.7084   1   6   0.1068   0.0097   0.0479  -0.0266  -0.0168   0.0693   2.40   67.8
2019/03/11 14:52:34.600   27.894570436  -82.373418344   -20.7039   1   6   0.1077   0.0098   0.0483  -0.0268  -0.0169   0.0699   2.60   66.8
2019/03/11 14:52:34.800   27.894570546  -82.373418359   -20.7006   1   6   0.1087   0.0099   0.0488  -0.0270  -0.0170   0.0706   2.80   65.6
2019/03/11 14:52:35.000   27.894570560  -82.373418363   -20.7003   1   6   0.1097   0.0100   0.0493  -0.0272  -0.0171   0.0712   3.00   64.3
2019/03/11 14:52:35.200   27.894570629  -82.373418317   -20.6951   1   6   0.1107   0.0101   0.0496  -0.0274  -0.0172   0.0718   3.20   63.1
2019/03/11 14:52:35.400   27.894568908  -82.373418238   -20.7820   1   6   0.1068   0.0095   0.0475  -0.0265  -0.0170   0.0689   3.40   56.1
2019/03/11 14:52:35.600   27.894569108  -82.373418261   -20.7763   1   6   0.1086   0.0097   0.0485  -0.0267  -0.0171   0.0701   3.60   55.8
2019/03/11 14:52:35.800   27.894569395  -82.373418278   -20.7656   1   6   0.1109   0.0098   0.0501  -0.0269  -0.0172   0.0722   3.80   55.6
2019/03/11 14:52:36.000   27.894569682  -82.373418288   -20.7501   1   6   0.1148   0.0100   0.0526  -0.0267  -0.0171   0.0753   4.00   55.5
2019/03/11 14:52:36.200   27.894569638  -82.373418332   -20.7426   1   5   0.1197   0.0100   0.0549  -0.0271  -0.0174   0.0788   4.20   55.1
2019/03/11 14:52:36.400   27.894569852  -82.373418313   -20.7184   1   5   0.1267   0.0105   0.0569  -0.0293  -0.0186   0.0826   4.40   54.6
2019/03/11 14:52:36.600   27.894570147  -82.373418307   -20.6969   1   5   0.1328   0.0121   0.0575  -0.0337  -0.0210   0.0849   4.60   54.2
2019/03/11 14:52:36.800   27.894570200  -82.373418331   -20.6979   1   5   0.0952   0.0095   0.0446  -0.0210  -0.0131   0.0621   4.80   53.6
2019/03/11 14:52:37.000   27.894570185  -82.373418398   -20.6958   1   5   0.0922   0.0082   0.0418  -0.0216  -0.0139   0.0600   0.00   53.3
2019/03/11 14:52:37.200   27.894570370  -82.373418376   -20.6886   1   5   0.0968   0.0096   0.0456  -0.0213  -0.0132   0.0633   0.20   52.4
2019/03/11 14:52:37.400   27.894570572  -82.373418383   -20.6809   1   5   0.0969   0.0095   0.0454  -0.0214  -0.0133   0.0633   0.40   52.1
2019/03/11 14:52:37.600   27.894570787  -82.373418392   -20.6706   1   5   0.0970   0.0094   0.0453  -0.0216  -0.0135   0.0633   0.60   51.8
2019/03/11 14:52:37.800   27.894571144  -82.373418432   -20.6512   1   5   0.0971   0.0093   0.0452  -0.0217  -0.0136   0.0634   0.80   51.2
2019/03/11 14:52:38.000   27.894571141  -82.373418422   -20.6544   1   5   0.0973   0.0092   0.0451  -0.0219  -0.0138   0.0634   1.00   50.1
2019/03/11 14:52:38.200   27.894571331  -82.373418424   -20.6467   1   5   0.0975   0.0092   0.0450  -0.0221  -0.0139   0.0635   1.20   49.0
2019/03/11 14:52:38.400   27.894571306  -82.373418442   -20.6423   1   5   0.0977   0.0091   0.0449  -0.0223  -0.0141   0.0636   1.40   47.6
2019/03/11 14:52:38.600   27.894571330  -82.373418482   -20.6398   1   5   0.0980   0.0091   0.0449  -0.0225  -0.0142   0.0638   1.60   46.3
2019/03/11 14:52:38.800   27.894571435  -82.373418479   -20.6382   1   5   0.0983   0.0090   0.0449  -0.0226  -0.0144   0.0640   1.80   44.5
2019/03/11 14:52:39.000   27.894571631  -82.373418482   -20.6285   1   5   0.0987   0.0090   0.0449  -0.0228  -0.0145   0.0642   2.00   42.8
2019/03/11 14:52:39.200   27.894571743  -82.373418481   -20.6252   1   5   0.0991   0.0089   0.0450  -0.0231  -0.0147   0.0645   2.20   41.0
2019/03/11 14:52:39.400   27.894571866  -82.373418484   -20.6265   1   5   0.0997   0.0089   0.0452  -0.0233  -0.0149   0.0648   2.40   39.3
2019/03/11 14:52:39.600   27.894571833  -82.373418526   -20.6273   1   5   0.1003   0.0089   0.0455  -0.0235  -0.0150   0.0653   2.60   37.5
2019/03/11 14:52:39.800   27.894572014  -82.373418514   -20.6244   1   5   0.1011   0.0090   0.0458  -0.0236  -0.0151   0.0658   2.80   35.7
2019/03/11 14:52:40.000   27.894572235  -82.373418553   -20.6127   1   5   0.1018   0.0091   0.0460  -0.0238  -0.0151   0.0661   3.00   34.0
2019/03/11 14:52:40.200   27.894572538  -82.373418564   -20.5947   1   5   0.1024   0.0093   0.0462  -0.0239  -0.0152   0.0664   3.20   32.4
2019/03/11 14:52:40.400   27.894572601  -82.373418539   -20.5841   1   5   0.1031   0.0094   0.0466  -0.0241  -0.0153   0.0669   3.40   30.8
2019/03/11 14:52:40.600   27.894572725  -82.373418537   -20.5830   1   5   0.1044   0.0095   0.0476  -0.0244  -0.0155   0.0680   3.60   29.2
2019/03/11 14:52:40.800   27.894572847  -82.373418501   -20.5785   1   5   0.1067   0.0095   0.0493  -0.0245  -0.0157   0.0701   3.80   27.6
2019/03/11 14:52:41.000   27.894572818  -82.373418453   -20.5784   1   5   0.1111   0.0096   0.0514  -0.0248  -0.0159   0.0731   4.00   25.7
2019/03/11 14:52:41.200   27.894572422  -82.373418489   -20.6277   1   5   0.1173   0.0100   0.0529  -0.0268  -0.0170   0.0763   4.20   23.4
2019/03/11 14:52:41.400   27.894571323  -82.373418389   -20.6905   1   5   0.1221   0.0115   0.0527  -0.0311  -0.0192   0.0776   4.40   20.5
2019/03/11 14:52:41.600   27.894571100  -82.373418362   -20.7125   1   5   0.0851   0.0091   0.0406  -0.0182  -0.0110   0.0553   4.60   18.4
2019/03/11 14:52:41.800   27.894570728  -82.373418413   -20.7369   1   5   0.0851   0.0092   0.0406  -0.0186  -0.0114   0.0554   4.80   16.5
2019/03/11 14:52:42.000   27.894570831  -82.373418426   -20.7293   1   5   0.0848   0.0078   0.0395  -0.0193  -0.0125   0.0557   0.00   14.8
2019/03/11 14:52:42.200   27.894571412  -82.373418356   -20.6814   1   5   0.0953   0.0090   0.0466  -0.0190  -0.0121   0.0636   0.20   11.8
2019/03/11 14:52:42.400   27.894571043  -82.373418462   -20.6805   1   5   0.1041   0.0094   0.0486  -0.0221  -0.0139   0.0683   0.40   10.3
2019/03/11 14:52:42.600   27.894569321  -82.373418362   -20.7821   1   5   0.1166   0.0113   0.0504  -0.0298  -0.0183   0.0739   0.60    8.8
2019/03/11 14:52:42.800   27.894570329  -82.373418272   -20.7537   1   5   0.0464   0.0075   0.0274   0.0014   0.0038   0.0308   0.80    7.0
2019/03/11 14:52:43.000   27.894571179  -82.373418136   -20.6966   1   5   0.0461   0.0076   0.0281   0.0044   0.0056   0.0312   1.00    9.4
2019/03/11 14:52:43.200   27.894570927  -82.373418121   -20.7202   1   5   0.0453   0.0077   0.0278   0.0050   0.0060   0.0308   1.20    9.3
2019/03/11 14:52:43.400   27.894570715  -82.373418138   -20.7387   1   5   0.0439   0.0076   0.0267   0.0049   0.0058   0.0295   1.40    9.2
2019/03/11 14:52:43.600   27.894570812  -82.373418134   -20.7461   1   5   0.0337   0.0074   0.0221   0.0036   0.0052   0.0214   1.60    9.1
2019/03/11 14:52:43.800   27.894570698  -82.373418147   -20.7531   1   6   0.0131   0.0073   0.0168   0.0026   0.0048   0.0047   1.80    8.8
2019/03/11 14:52:44.000   27.894570673  -82.373418126   -20.7496   1   6   0.0132   0.0072   0.0166   0.0026   0.0047   0.0049   2.00    8.6
2019/03/11 14:52:44.200   27.894570664  -82.373418209   -20.7201   1   6   0.0133   0.0071   0.0164   0.0026   0.0046   0.0051   2.20    8.5
2019/03/11 14:52:44.400   27.894570559  -82.373418259   -20.7034   1   6   0.0134   0.0070   0.0163   0.0027   0.0045   0.0054   2.40    8.4
2019/03/11 14:52:44.600   27.894570461  -82.373418309   -20.6970   1   6   0.0136   0.0070   0.0163   0.0027   0.0045   0.0056   2.60    8.1
2019/03/11 14:52:44.800   27.894570262  -82.373418212   -20.6630   1   6   0.0138   0.0071   0.0166   0.0027   0.0046   0.0059   2.80    7.9
2019/03/11 14:52:45.000   27.894570229  -82.373418287   -20.6849   1   6   0.0141   0.0072   0.0169   0.0027   0.0047   0.0061   3.00    7.7
2019/03/11 14:52:45.200   27.894570165  -82.373418258   -20.6949   1   6   0.0145   0.0073   0.0172   0.0027   0.0048   0.0064   3.20    7.3
2019/03/11 14:52:45.400   27.894570123  -82.373418258   -20.6889   1   6   0.0148   0.0074   0.0175   0.0027   0.0049   0.0066   3.40    5.7
2019/03/11 14:52:45.600   27.894570018  -82.373418284   -20.6915   1   6   0.0152   0.0083   0.0188   0.0034   0.0068   0.0074   3.60    6.9
2019/03/11 14:52:45.800   27.894570099  -82.373418364   -20.7080   1   6   0.0155   0.0089   0.0193   0.0034   0.0076   0.0077   3.80    6.7
2019/03/11 14:52:46.000   27.894570225  -82.373418485   -20.7226   1   6   0.0159   0.0091   0.0197   0.0035   0.0077   0.0080   4.00    6.5
2019/03/11 14:52:46.200   27.894570204  -82.373418371   -20.7047   1   6   0.0163   0.0093   0.0200   0.0035   0.0079   0.0083   4.20    6.3
2019/03/11 14:52:46.400   27.894570302  -82.373418388   -20.7121   1   6   0.0167   0.0094   0.0204   0.0036   0.0081   0.0086   4.40    6.2
2019/03/11 14:52:46.600   27.894570356  -82.373418462   -20.7172   1   6   0.0171   0.0096   0.0208   0.0036   0.0082   0.0089   4.60    6.2
2019/03/11 14:52:46.800   27.894570433  -82.373418351   -20.7020   1   6   0.0175   0.0098   0.0207   0.0037   0.0082   0.0093   4.80    6.1
2019/03/11 14:52:47.000   27.894570446  -82.373418313   -20.6978   1   6   0.0168   0.0073   0.0173   0.0039   0.0063   0.0099   0.00    5.9
2019/03/11 14:52:47.200   27.894570530  -82.373418397   -20.6961   1   6   0.0188   0.0098   0.0214   0.0040   0.0085   0.0106   0.20    5.5
2019/03/11 14:52:47.400   27.894570530  -82.373418273   -20.6836   1   6   0.0192   0.0096   0.0213   0.0040   0.0083   0.0111   0.40    5.1
2019/03/11 14:52:47.600   27.894570536  -82.373418270   -20.6782   1   6   0.0198   0.0095   0.0212   0.0041   0.0082   0.0117   0.60    4.6
2019/03/11 14:52:47.800   27.894570580  -82.373418239   -20.6784   1   6   0.0205   0.0093   0.0212   0.0043   0.0081   0.0125   0.80    3.9
2019/03/11 14:52:48.000   27.894570542  -82.373418168   -20.6647   1   6   0.0244   0.0102   0.0213  -0.0054   0.0082   0.0133   1.00   88.8
2019/03/11 14:52:48.200   27.894570502  -82.373418175   -20.6589   1   6   0.0241   0.0105   0.0214  -0.0052   0.0087   0.0136   1.20   89.1
2019/03/11 14:52:48.400   27.894570442  -82.373418279   -20.6603   1   5   0.0242   0.0103   0.0216  -0.0047   0.0085   0.0144   1.40   88.6
2019/03/11 14:52:48.600   27.894570414  -82.373418324   -20.7184   1   5   0.0266   0.0102   0.0216  -0.0056   0.0081   0.0159   1.60   87.0
2019/03/11 14:52:48.800   27.894570881  -82.373418330   -20.6898   1   5   0.0471   0.0106   0.0246  -0.0131   0.0035   0.0273   1.80   86.4
2019/03/11 14:52:49.000   27.894570803  -82.373418338   -20.6994   1   5   0.0091   0.0080   0.0163   0.0023   0.0058  -0.0048   2.00   60.9
2019/03/11 14:52:49.200   27.894570744  -82.373418355   -20.7039   1   5   0.0090   0.0079   0.0161   0.0023   0.0057  -0.0047   2.20   61.1
2019/03/11 14:52:49.400   27.894570647  -82.373418346   -20.7016   1   5   0.0089   0.0078   0.0158   0.0023   0.0055  -0.0047   2.40   60.9
2019/03/11 14:52:49.600   27.894570732  -82.373418327   -20.6948   1   5   0.0089   0.0078   0.0159   0.0023   0.0055  -0.0047   2.60   60.8
2019/03/11 14:52:49.800   27.894570721  -82.373418362   -20.6801   1   5   0.0090   0.0079   0.0161   0.0023   0.0057  -0.0048   2.80   60.7
2019/03/11 14:52:50.000   27.894570778  -82.373418361   -20.6841   1   5   0.0091   0.0080   0.0164   0.0023   0.0058  -0.0048   3.00   60.8
2019/03/11 14:52:50.200   27.894570763  -82.373418356   -20.6863   1   5   0.0092   0.0081   0.0166   0.0023   0.0059  -0.0048   3.20   60.8
2019/03/11 14:52:50.400   27.894570756  -82.373418388   -20.6919   1   5   0.0093   0.0076   0.0161   0.0024   0.0047  -0.0048   3.40   62.8
2019/03/11 14:52:50.600   27.894570755  -82.373418374   -20.6877   1   5   0.0094   0.0077   0.0164   0.0025   0.0048  -0.0048   3.60   62.6
2019/03/11 14:52:50.800   27.894570792  -82.373418344   -20.6954   1   5   0.0096   0.0079   0.0166   0.0025   0.0049  -0.0049   3.80   62.3
2019/03/11 14:52:51.000   27.894570788  -82.373418328   -20.6926   1   5   0.0097   0.0080   0.0169   0.0025   0.0051  -0.0049   4.00   62.0
2019/03/11 14:52:51.200   27.894570772  -82.373418325   -20.6878   1   5   0.0098   0.0081   0.0172   0.0025   0.0052  -0.0050   4.20   61.7
2019/03/11 14:52:51.400   27.894570761  -82.373418387   -20.6857   1   5   0.0100   0.0083   0.0175   0.0025   0.0054  -0.0050   4.40   61.5
2019/03/11 14:52:51.600   27.894570734  -82.373418394   -20.6899   1   5   0.0101   0.0084   0.0178   0.0025   0.0055  -0.0051   4.60   61.4
2019/03/11 14:52:51.800   27.894570769  -82.373418379   -20.6943   1   5   0.0102   0.0086   0.0176   0.0026   0.0055  -0.0050   4.80   61.5
2019/03/11 14:52:52.000   27.894570787  -82.373418375   -20.6958   1   5   0.0083   0.0065   0.0140   0.0023   0.0034  -0.0044   0.00   61.3
2019/03/11 14:52:52.200   27.894570774  -82.373418437   -20.6909   1   6   0.0102   0.0079   0.0176   0.0026   0.0044  -0.0051   0.20   17.7
2019/03/11 14:52:52.400   27.894570788  -82.373418452   -20.6820   1   6   0.0101   0.0078   0.0173   0.0026   0.0043  -0.0051   0.40   17.3
2019/03/11 14:52:52.600   27.894570735  -82.373418486   -20.6894   1   6   0.0099   0.0076   0.0171   0.0025   0.0042  -0.0050   0.60   16.9
2019/03/11 14:52:52.800   27.894570790  -82.373418411   -20.6909   1   6   0.0098   0.0075   0.0168   0.0025   0.0040  -0.0049   0.80   16.5
2019/03/11 14:52:53.000   27.894570692  -82.373418372   -20.6939   1   6   0.0097   0.0074   0.0165   0.0025   0.0039  -0.0049   1.00   15.9
2019/03/11 14:52:53.200   27.894570634  -82.373418328   -20.6938   1   6   0.0096   0.0072   0.0163   0.0025   0.0038  -0.0048   1.20   15.1
2019/03/11 14:52:53.400   27.894570614  -82.373418291   -20.6862   1   6   0.0094   0.0071   0.0160   0.0025   0.0037  -0.0048   1.40   14.3
2019/03/11 14:52:53.600   27.894570597  -82.373418274   -20.6857   1   6   0.0093   0.0070   0.0158   0.0025   0.0035  -0.0048   1.60   13.4
2019/03/11 14:52:53.800   27.894570588  -82.373418344   -20.7063   1   6   0.0092   0.0069   0.0156   0.0025   0.0034  -0.0047   1.80   12.7
2019/03/11 14:52:54.000   27.894570629  -82.373418408   -20.7128   1   6   0.0091   0.0068   0.0153   0.0024   0.0033  -0.0047   2.00   11.5
2019/03/11 14:52:54.200   27.894570539  -82.373418362   -20.7149   1   6   0.0090   0.0067   0.0151   0.0024   0.0032  -0.0046   2.20   10.4
2019/03/11 14:52:54.400   27.894570541  -82.373418374   -20.7245   1   6   0.0089   0.0066   0.0149   0.0024   0.0031  -0.0046   2.40    9.2
2019/03/11 14:52:54.600   27.894570579  -82.373418383   -20.7182   1   6   0.0089   0.0066   0.0150   0.0024   0.0031  -0.0046   2.60    8.1
2019/03/11 14:52:54.800   27.894570505  -82.373418361   -20.7209   1   6   0.0090   0.0067   0.0152   0.0024   0.0032  -0.0046   2.80    6.8
2019/03/11 14:52:55.000   27.894570476  -82.373418386   -20.7264   1   6   0.0091   0.0064   0.0153   0.0029   0.0029  -0.0045   3.00    5.6
2019/03/11 14:52:55.200   27.894570531  -82.373418443   -20.7254   1   6   0.0092   0.0066   0.0155   0.0029   0.0030  -0.0046   3.20    4.4
2019/03/11 14:52:55.400   27.894570523  -82.373418382   -20.7221   1   6   0.0093   0.0072   0.0160   0.0027   0.0041  -0.0047   3.40   61.2
2019/03/11 14:52:55.600   27.894570541  -82.373418427   -20.7271   1   6   0.0095   0.0077   0.0163   0.0025   0.0047  -0.0048   3.60   61.2
2019/03/11 14:52:55.800   27.894570523  -82.373418383   -20.7256   1   6   0.0095   0.0067   0.0162   0.0032   0.0030  -0.0046   3.80   32.5
2019/03/11 14:52:56.000   27.894570527  -82.373418407   -20.7200   1   6   0.0096   0.0069   0.0164   0.0032   0.0031  -0.0046   4.00   32.4
2019/03/11 14:52:56.200   27.894570526  -82.373418421   -20.7247   1   6   0.0097   0.0070   0.0167   0.0032   0.0032  -0.0047   4.20   32.3
2019/03/11 14:52:56.400   27.894570587  -82.373418363   -20.7414   1   6   0.0076   0.0071   0.0166   0.0030   0.0032  -0.0064   4.40   25.7
2019/03/11 14:52:56.600   27.894570648  -82.373418319   -20.7501   1   6   0.0077   0.0072   0.0169   0.0030   0.0033  -0.0065   4.60   25.6
2019/03/11 14:52:56.800   27.894570567  -82.373418373   -20.7268   1   6   0.0078   0.0074   0.0168   0.0031   0.0034  -0.0064   4.80   25.6
2019/03/11 14:52:57.000   27.894570448  -82.373418507   -20.6925   1   6   0.0064   0.0055   0.0135   0.0026   0.0017  -0.0055   0.00   25.7
2019/03/11 14:52:57.200   27.894570438  -82.373418495   -20.6823   1   6   0.0078   0.0074   0.0171   0.0031   0.0034  -0.0065   0.20   25.5
2019/03/11 14:52:57.400   27.894570412  -82.373418486   -20.6841   1   6   0.0077   0.0072   0.0169   0.0030   0.0033  -0.0065   0.40   25.4
2019/03/11 14:52:57.600   27.894570569  -82.373418411   -20.7247   1   6   0.0076   0.0071   0.0166   0.0030   0.0032  -0.0064   0.60   25.3
2019/03/11 14:52:57.800   27.894570572  -82.373418419   -20.7335   1   6   0.0075   0.0070   0.0163   0.0030   0.0031  -0.0063   0.80   25.2
2019/03/11 14:52:58.000   27.894570600  -82.373418362   -20.7461   1   6   0.0074   0.0069   0.0161   0.0029   0.0030  -0.0062   1.00   25.1
2019/03/11 14:52:58.200   27.894570606  -82.373418365   -20.7424   1   6   0.0073   0.0067   0.0159   0.0029   0.0029  -0.0062   1.20   25.0
2019/03/11 14:52:58.400   27.894570580  -82.373418359   -20.7383   1   6   0.0072   0.0066   0.0156   0.0029   0.0028  -0.0061   1.40   24.8
2019/03/11 14:52:58.600   27.894570582  -82.373418341   -20.7409   1   6   0.0072   0.0065   0.0154   0.0029   0.0027  -0.0060   1.60   24.6
2019/03/11 14:52:58.800   27.894570581  -82.373418378   -20.7467   1   6   0.0071   0.0064   0.0152   0.0028   0.0026  -0.0060   1.80   24.4
2019/03/11 14:52:59.000   27.894570582  -82.373418376   -20.7463   1   6   0.0070   0.0063   0.0150   0.0028   0.0025  -0.0059   2.00   24.2
2019/03/11 14:52:59.200   27.894570608  -82.373418364   -20.7451   1   6   0.0069   0.0062   0.0148   0.0028   0.0024  -0.0059   2.20   24.0
2019/03/11 14:52:59.400   27.894570596  -82.373418366   -20.7429   1   6   0.0069   0.0061   0.0146   0.0028   0.0023  -0.0058   2.40   23.8
2019/03/11 14:52:59.600   27.894570601  -82.373418359   -20.7433   1   6   0.0069   0.0061   0.0146   0.0028   0.0023  -0.0058   2.60   23.6
2019/03/11 14:52:59.800   27.894570605  -82.373418355   -20.7452   1   6   0.0069   0.0062   0.0148   0.0028   0.0024  -0.0059   2.80   23.4
2019/03/11 14:53:00.000   27.894570619  -82.373418358   -20.7471   1   6   0.0070   0.0063   0.0150   0.0028   0.0025  -0.0059   3.00   23.1
2019/03/11 14:53:00.200   27.894570587  -82.373418348   -20.7432   1   7   0.0049   0.0062   0.0149   0.0005   0.0034  -0.0045   3.20   17.9
2019/03/11 14:53:00.400   27.894570578  -82.373418350   -20.7407   1   7   0.0035   0.0045   0.0107   0.0004   0.0024  -0.0032  -1.60    3.8
2019/03/11 14:53:00.600   27.894570573  -82.373418338   -20.7430   1   7   0.0036   0.0045   0.0108   0.0004   0.0025  -0.0032  -1.40    4.4
2019/03/11 14:53:00.800   27.894570588  -82.373418337   -20.7457   1   7   0.0036   0.0046   0.0110   0.0004   0.0026  -0.0033  -1.20    5.0
2019/03/11 14:53:01.000   27.894570582  -82.373418349   -20.7432   1   7   0.0037   0.0047   0.0112   0.0004   0.0026  -0.0033  -1.00    5.0
2019/03/11 14:53:01.200   27.894570588  -82.373418332   -20.7461   1   7   0.0038   0.0048   0.0113   0.0003   0.0027  -0.0034  -0.80    5.1
2019/03/11 14:53:01.400   27.894570590  -82.373418367   -20.7442   1   7   0.0038   0.0049   0.0115   0.0003   0.0028  -0.0034  -0.60    5.2
2019/03/11 14:53:01.600   27.894570588  -82.373418353   -20.7389   1   7   0.0039   0.0050   0.0117   0.0003   0.0029  -0.0034  -0.40    5.3
2019/03/11 14:53:01.800   27.894570578  -82.373418366   -20.7302   1   7   0.0039   0.0051   0.0117   0.0003   0.0029  -0.0034  -0.20    5.3
2019/03/11 14:53:02.000   27.894570577  -82.373418361   -20.7274   1   7   0.0030   0.0037   0.0094   0.0003   0.0018  -0.0030   0.00    5.5
2019/03/11 14:53:02.200   27.894570578  -82.373418389   -20.7304   1   7   0.0039   0.0051   0.0117   0.0003   0.0029  -0.0034  -4.80    5.6
2019/03/11 14:53:02.400   27.894570573  -82.373418425   -20.7322   1   7   0.0039   0.0050   0.0117   0.0003   0.0029  -0.0034  -4.60    5.7
2019/03/11 14:53:02.600   27.894570576  -82.373418402   -20.7327   1   7   0.0038   0.0049   0.0115   0.0003   0.0028  -0.0034  -4.40    5.8
2019/03/11 14:53:02.800   27.894570564  -82.373418406   -20.7306   1   7   0.0038   0.0048   0.0113   0.0003   0.0027  -0.0034  -4.20    5.8
2019/03/11 14:53:03.000   27.894570550  -82.373418456   -20.7221   1   7   0.0037   0.0047   0.0112   0.0004   0.0026  -0.0033  -4.00    5.9
2019/03/11 14:53:03.200   27.894570537  -82.373418442   -20.7131   1   7   0.0036   0.0046   0.0110   0.0004   0.0026  -0.0033  -3.80    6.1
2019/03/11 14:53:03.400   27.894570574  -82.373418360   -20.7335   1   7   0.0036   0.0045   0.0108   0.0004   0.0025  -0.0032  -3.60    6.2
2019/03/11 14:53:03.600   27.894570536  -82.373418379   -20.7352   1   7   0.0035   0.0045   0.0107   0.0004   0.0024  -0.0032  -3.40    6.3
2019/03/11 14:53:03.800   27.894570507  -82.373418371   -20.7234   1   7   0.0035   0.0044   0.0105   0.0004   0.0024  -0.0032  -3.20    6.4
2019/03/11 14:53:04.000   27.894570549  -82.373418403   -20.7390   1   7   0.0034   0.0043   0.0104   0.0004   0.0023  -0.0032  -3.00    6.4
2019/03/11 14:53:04.200   27.894570595  -82.373418426   -20.7433   1   7   0.0034   0.0042   0.0102   0.0004   0.0022  -0.0031  -2.80    6.4
2019/03/11 14:53:04.400   27.894570576  -82.373418425   -20.7445   1   7   0.0033   0.0042   0.0101   0.0004   0.0022  -0.0031  -2.60    9.3
2019/03/11 14:53:04.600   27.894570579  -82.373418385   -20.7443   1   7   0.0033   0.0042   0.0101   0.0004   0.0022  -0.0031  -2.40    9.9
2019/03/11 14:53:04.800   27.894570574  -82.373418392   -20.7398   1   7   0.0034   0.0042   0.0102   0.0004   0.0022  -0.0031  -2.20   10.4
2019/03/11 14:53:05.000   27.894570531  -82.373418397   -20.7489   1   7   0.0034   0.0043   0.0104   0.0004   0.0023  -0.0032  -2.00   11.0
2019/03/11 14:53:05.200   27.894570572  -82.373418395   -20.7484   1   7   0.0035   0.0044   0.0105   0.0004   0.0024  -0.0032  -1.80   11.5
2019/03/11 14:53:05.400   27.894570587  -82.373418367   -20.7472   1   7   0.0035   0.0045   0.0107   0.0004   0.0024  -0.0032  -1.60   11.8
2019/03/11 14:53:05.600   27.894570590  -82.373418399   -20.7558   1   7   0.0036   0.0045   0.0108   0.0004   0.0025  -0.0032  -1.40   12.2
2019/03/11 14:53:05.800   27.894570584  -82.373418374   -20.7551   1   7   0.0036   0.0046   0.0110   0.0004   0.0026  -0.0033  -1.20   12.5
2019/03/11 14:53:06.000   27.894570575  -82.373418382   -20.7539   1   7   0.0037   0.0047   0.0112   0.0004   0.0026  -0.0033  -1.00   12.9
2019/03/11 14:53:06.200   27.894570587  -82.373418374   -20.7588   1   7   0.0038   0.0048   0.0113   0.0003   0.0027  -0.0034  -0.80   13.2
2019/03/11 14:53:06.400   27.894570606  -82.373418392   -20.7596   1   7   0.0038   0.0049   0.0115   0.0003   0.0028  -0.0034  -0.60   13.6
2019/03/11 14:53:06.600   27.894570569  -82.373418391   -20.7466   1   7   0.0039   0.0050   0.0117   0.0003   0.0029  -0.0034  -0.40   13.9
2019/03/11 14:53:06.800   27.894570549  -82.373418373   -20.7429   1   7   0.0040   0.0051   0.0117   0.0003   0.0029  -0.0034  -0.20   14.2
2019/03/11 14:53:07.000   27.894570540  -82.373418397   -20.7409   1   7   0.0030   0.0037   0.0094   0.0003   0.0018  -0.0030   0.00   14.4
2019/03/11 14:53:07.200   27.894570546  -82.373418384   -20.7415   1   7   0.0040   0.0051   0.0117   0.0003   0.0029  -0.0034  -4.80   14.6
2019/03/11 14:53:07.400   27.894570566  -82.373418416   -20.7397   1   7   0.0039   0.0050   0.0117   0.0003   0.0029  -0.0034  -4.60   14.9
2019/03/11 14:53:07.600   27.894570559  -82.373418412   -20.7434   1   7   0.0038   0.0049   0.0115   0.0003   0.0028  -0.0034  -4.40   15.0
2019/03/11 14:53:07.800   27.894570560  -82.373418411   -20.7378   1   7   0.0038   0.0048   0.0113   0.0003   0.0027  -0.0034  -4.20   15.0
2019/03/11 14:53:08.000   27.894570552  -82.373418386   -20.7368   1   7   0.0037   0.0047   0.0112   0.0004   0.0026  -0.0033  -4.00   14.9
2019/03/11 14:53:08.200   27.894570552  -82.373418407   -20.7408   1   7   0.0036   0.0046   0.0110   0.0004   0.0026  -0.0033  -3.80   14.9
2019/03/11 14:53:08.400   27.894570564  -82.373418413   -20.7427   1   7   0.0036   0.0045   0.0108   0.0004   0.0025  -0.0032  -3.60   14.9
2019/03/11 14:53:08.600   27.894570558  -82.373418418   -20.7473   1   7   0.0035   0.0045   0.0107   0.0004   0.0024  -0.0032  -3.40   14.8
2019/03/11 14:53:08.800   27.894570574  -82.373418433   -20.7440   1   7   0.0035   0.0044   0.0105   0.0004   0.0024  -0.0032  -3.20   14.8
2019/03/11 14:53:09.000   27.894570552  -82.373418418   -20.7502   1   7   0.0034   0.0043   0.0104   0.0004   0.0023  -0.0032  -3.00   14.7
2019/03/11 14:53:09.200   27.894570577  -82.373418429   -20.7466   1   7   0.0034   0.0042   0.0102   0.0004   0.0022  -0.0031  -2.80   14.7
2019/03/11 14:53:09.400   27.894570559  -82.373418428   -20.7413   1   7   0.0033   0.0042   0.0101   0.0004   0.0022  -0.0031  -2.60   14.6
2019/03/11 14:53:09.600   27.894570563  -82.373418410   -20.7358   1   7   0.0033   0.0042   0.0101   0.0004   0.0022  -0.0031  -2.40   14.6
2019/03/11 14:53:09.800   27.894570562  -82.373418419   -20.7361   1   7   0.0034   0.0042   0.0102   0.0004   0.0022  -0.0031  -2.20   14.5
2019/03/11 14:53:10.000   27.894570577  -82.373418444   -20.7380   1   7   0.0034   0.0043   0.0104   0.0004   0.0023  -0.0032  -2.00   14.4
2019/03/11 14:53:10.200   27.894570580  -82.373418446   -20.7519   1   7   0.0035   0.0044   0.0105   0.0004   0.0024  -0.0032  -1.80   14.3
2019/03/11 14:53:10.400   27.894570550  -82.373418473   -20.7424   1   7   0.0035   0.0045   0.0107   0.0004   0.0024  -0.0032  -1.60   14.1
2019/03/11 14:53:10.600   27.894570578  -82.373418452   -20.7474   1   7   0.0036   0.0045   0.0108   0.0004   0.0025  -0.0032  -1.40   14.0
2019/03/11 14:53:10.800   27.894570559  -82.373418436   -20.7508   1   7   0.0036   0.0046   0.0110   0.0004   0.0026  -0.0033  -1.20   13.9
2019/03/11 14:53:11.000   27.894570562  -82.373418441   -20.7488   1   7   0.0037   0.0047   0.0112   0.0004   0.0027  -0.0033  -1.00   13.8
2019/03/11 14:53:11.200   27.894570566  -82.373418427   -20.7514   1   7   0.0038   0.0048   0.0113   0.0003   0.0027  -0.0034  -0.80   13.7
2019/03/11 14:53:11.400   27.894570569  -82.373418440   -20.7527   1   7   0.0038   0.0049   0.0115   0.0003   0.0028  -0.0034  -0.60   13.7
2019/03/11 14:53:11.600   27.894570554  -82.373418464   -20.7467   1   7   0.0039   0.0050   0.0117   0.0003   0.0029  -0.0034  -0.40   13.7
2019/03/11 14:53:11.800   27.894570558  -82.373418455   -20.7453   1   7   0.0040   0.0051   0.0117   0.0003   0.0029  -0.0034  -0.20   13.7
2019/03/11 14:53:12.000   27.894570550  -82.373418471   -20.7396   1   7   0.0030   0.0037   0.0094   0.0003   0.0018  -0.0030   0.00   13.5
2019/03/11 14:53:12.200   27.894570547  -82.373418429   -20.7430   1   7   0.0040   0.0051   0.0117   0.0003   0.0029  -0.0034  -4.80   13.5
2019/03/11 14:53:12.400   27.894570563  -82.373418422   -20.7458   1   7   0.0039   0.0050   0.0117   0.0003   0.0029  -0.0034  -4.60   13.5
2019/03/11 14:53:12.600   27.894570536  -82.373418399   -20.7394   1   7   0.0038   0.0049   0.0115   0.0003   0.0028  -0.0034  -4.40   13.7
2019/03/11 14:53:12.800   27.894570559  -82.373418395   -20.7445   1   7   0.0038   0.0048   0.0113   0.0003   0.0027  -0.0034  -4.20   13.8
2019/03/11 14:53:13.000   27.894570544  -82.373418344   -20.7321   1   7   0.0037   0.0047   0.0112   0.0004   0.0027  -0.0033  -4.00   13.9
2019/03/11 14:53:13.200   27.894570553  -82.373418378   -20.7318   1   7   0.0036   0.0046   0.0110   0.0004   0.0026  -0.0033  -3.80   14.1
2019/03/11 14:53:13.400   27.894570553  -82.373418372   -20.7293   1   7   0.0036   0.0045   0.0108   0.0004   0.0025  -0.0032  -3.60   14.3
2019/03/11 14:53:13.600   27.894570540  -82.373418376   -20.7255   1   7   0.0035   0.0045   0.0107   0.0004   0.0024  -0.0032  -3.40   14.4
2019/03/11 14:53:13.800   27.894570543  -82.373418394   -20.7255   1   7   0.0035   0.0044   0.0105   0.0004   0.0024  -0.0032  -3.20   14.6
2019/03/11 14:53:14.000   27.894570541  -82.373418384   -20.7256   1   7   0.0034   0.0043   0.0104   0.0004   0.0023  -0.0032  -3.00   14.8
2019/03/11 14:53:14.200   27.894570546  -82.373418409   -20.7248   1   7   0.0034   0.0042   0.0102   0.0004   0.0022  -0.0031  -2.80   14.9
2019/03/11 14:53:14.400   27.894570546  -82.373418380   -20.7243   1   7   0.0033   0.0042   0.0101   0.0004   0.0022  -0.0031  -2.60   15.0
2019/03/11 14:53:14.600   27.894570544  -82.373418399   -20.7237   1   7   0.0033   0.0042   0.0101   0.0004   0.0022  -0.0031  -2.40   15.2
2019/03/11 14:53:14.800   27.894570533  -82.373418396   -20.7257   1   7   0.0034   0.0042   0.0102   0.0004   0.0022  -0.0031  -2.20   15.3
2019/03/11 14:53:15.000   27.894570540  -82.373418394   -20.7264   1   7   0.0034   0.0043   0.0104   0.0004   0.0023  -0.0031  -2.00   15.5
2019/03/11 14:53:15.200   27.894570565  -82.373418413   -20.7267   1   7   0.0035   0.0044   0.0105   0.0004   0.0024  -0.0032  -1.80   15.5
2019/03/11 14:53:15.400   27.894570580  -82.373418398   -20.7303   1   7   0.0035   0.0045   0.0107   0.0004   0.0024  -0.0032  -1.60   15.7
2019/03/11 14:53:15.600   27.894570549  -82.373418370   -20.7282   1   7   0.0036   0.0045   0.0108   0.0004   0.0025  -0.0032  -1.40   15.8
2019/03/11 14:53:15.800   27.894570556  -82.373418384   -20.7308   1   7   0.0036   0.0046   0.0110   0.0004   0.0026  -0.0033  -1.20   15.9
2019/03/11 14:53:16.000   27.894570553  -82.373418435   -20.7424   1   7   0.0037   0.0047   0.0112   0.0004   0.0027  -0.0033  -1.00   16.0
2019/03/11 14:53:16.200   27.894570577  -82.373418424   -20.7383   1   7   0.0038   0.0048   0.0113   0.0003   0.0027  -0.0034  -0.80   16.4
2019/03/11 14:53:16.400   27.894570573  -82.373418329   -20.7287   1   7   0.0038   0.0049   0.0115   0.0003   0.0028  -0.0034  -0.60   16.7
2019/03/11 14:53:16.600   27.894570667  -82.373418321   -20.7383   1   7   0.0039   0.0050   0.0117   0.0003   0.0029  -0.0034  -0.40   16.9
2019/03/11 14:53:16.800   27.894570639  -82.373418280   -20.7371   1   7   0.0040   0.0051   0.0117   0.0003   0.0029  -0.0034  -0.20   17.1
2019/03/11 14:53:17.000   27.894570610  -82.373418263   -20.7186   1   7   0.0030   0.0037   0.0094   0.0003   0.0018  -0.0030   0.00   17.4
2019/03/11 14:53:17.200   27.894570619  -82.373418266   -20.7078   1   7   0.0040   0.0051   0.0117   0.0003   0.0029  -0.0034  -4.80   17.5
2019/03/11 14:53:17.400   27.894570580  -82.373418316   -20.7037   1   7   0.0039   0.0050   0.0117   0.0003   0.0029  -0.0034  -4.60   17.7
2019/03/11 14:53:17.600   27.894570618  -82.373418281   -20.7144   1   7   0.0038   0.0049   0.0115   0.0003   0.0028  -0.0034  -4.40   17.8
2019/03/11 14:53:17.800   27.894570647  -82.373418288   -20.7100   1   7   0.0038   0.0048   0.0113   0.0003   0.0027  -0.0034  -4.20   18.0
2019/03/11 14:53:18.000   27.894570578  -82.373418308   -20.7048   1   7   0.0037   0.0047   0.0112   0.0004   0.0027  -0.0033  -4.00   18.2
2019/03/11 14:53:18.200   27.894570599  -82.373418278   -20.7056   1   7   0.0036   0.0046   0.0110   0.0004   0.0026  -0.0033  -3.80   18.4
2019/03/11 14:53:18.400   27.894570599  -82.373418283   -20.7109   1   7   0.0036   0.0045   0.0108   0.0004   0.0025  -0.0032  -3.60   18.7
2019/03/11 14:53:18.600   27.894570597  -82.373418239   -20.7037   1   7   0.0035   0.0045   0.0107   0.0004   0.0024  -0.0032  -3.40   18.9
2019/03/11 14:53:18.800   27.894570581  -82.373418236   -20.7027   1   7   0.0035   0.0044   0.0105   0.0004   0.0024  -0.0032  -3.20   19.2
2019/03/11 14:53:19.000   27.894570577  -82.373418239   -20.7076   1   7   0.0034   0.0043   0.0104   0.0004   0.0023  -0.0031  -3.00   19.3
2019/03/11 14:53:19.200   27.894570537  -82.373418265   -20.7168   1   7   0.0034   0.0042   0.0102   0.0004   0.0022  -0.0031  -2.80   19.4
2019/03/11 14:53:19.400   27.894570563  -82.373418298   -20.7161   1   7   0.0033   0.0042   0.0101   0.0004   0.0022  -0.0031  -2.60   19.6
2019/03/11 14:53:19.600   27.894570579  -82.373418348   -20.7117   1   7   0.0033   0.0042   0.0101   0.0004   0.0022  -0.0031  -2.40   19.9
2019/03/11 14:53:19.800   27.894570585  -82.373418350   -20.7083   1   7   0.0034   0.0042   0.0102   0.0004   0.0022  -0.0031  -2.20   20.3
2019/03/11 14:53:20.000   27.894570581  -82.373418331   -20.7069   1   7   0.0034   0.0043   0.0104   0.0004   0.0023  -0.0031  -2.00   20.6
2019/03/11 14:53:20.200   27.894570590  -82.373418393   -20.7069   1   7   0.0035   0.0044   0.0105   0.0004   0.0024  -0.0032  -1.80   20.9
2019/03/11 14:53:20.400   27.894570639  -82.373418451   -20.7072   1   7   0.0035   0.0045   0.0107   0.0004   0.0025  -0.0032  -1.60   21.2
2019/03/11 14:53:20.600   27.894570620  -82.373418454   -20.7239   1   7   0.0036   0.0046   0.0108   0.0004   0.0026  -0.0032  -1.40   21.3
2019/03/11 14:53:20.800   27.894570481  -82.373418364   -20.6911   1   7   0.0036   0.0047   0.0110   0.0005   0.0027  -0.0033  -1.20   21.2
2019/03/11 14:53:21.000   27.894570507  -82.373418643   -20.7379   1   7   0.0038   0.0049   0.0115   0.0009   0.0024  -0.0036  -1.00   21.4
2019/03/11 14:53:21.200   27.894570546  -82.373418411   -20.7108   1   7   0.0039   0.0051   0.0117   0.0011   0.0025  -0.0036  -0.80   21.7
2019/03/11 14:53:21.400   27.894570567  -82.373418380   -20.7256   1   7   0.0039   0.0052   0.0120   0.0012   0.0027  -0.0037  -0.60   21.8
2019/03/11 14:53:21.600   27.894570552  -82.373418404   -20.7289   1   7   0.0040   0.0055   0.0122   0.0014   0.0030  -0.0037  -0.40   21.9
2019/03/11 14:53:21.800   27.894570518  -82.373418438   -20.7267   1   7   0.0041   0.0057   0.0124   0.0015   0.0032  -0.0037  -0.20   21.8
2019/03/11 14:53:22.000   27.894570529  -82.373418437   -20.7199   1   7   0.0032   0.0045   0.0100   0.0015   0.0019  -0.0032   0.00   34.0
2019/03/11 14:53:22.200   27.894570487  -82.373418525   -20.7138   1   7   0.0041   0.0056   0.0125   0.0015   0.0031  -0.0038  -4.80   34.2
2019/03/11 14:53:22.400   27.894570457  -82.373418525   -20.7672   1   7   0.0041   0.0055   0.0126   0.0016   0.0030  -0.0038  -4.60   34.9
2019/03/11 14:53:22.600   27.894570496  -82.373418285   -20.7334   1   7   0.0041   0.0055   0.0126   0.0017   0.0030  -0.0038  -4.40   35.9
2019/03/11 14:53:22.800   27.894570629  -82.373418381   -20.7511   1   7   0.0040   0.0055   0.0128   0.0018   0.0030  -0.0039  -4.20   36.5
2019/03/11 14:53:23.000   27.894570638  -82.373418370   -20.7529   2   7   0.0041   0.0057   0.0129   0.0021   0.0030  -0.0040  -4.00   37.6
2019/03/11 14:53:23.200   27.894570634  -82.373418324   -20.7649   2   7   0.0041   0.0057   0.0128   0.0023   0.0025  -0.0041  -3.80   38.7
2019/03/11 14:53:23.400   27.894570637  -82.373418279   -20.7705   1   7   0.0041   0.0057   0.0125   0.0025   0.0021  -0.0041  -3.60   53.3
2019/03/11 14:53:23.600   27.894570647  -82.373418271   -20.7577   1   7   0.0040   0.0056   0.0123   0.0024   0.0019  -0.0041  -3.40   55.3
2019/03/11 14:53:23.800   27.894570670  -82.373418286   -20.7631   2   7   0.0040   0.0056   0.0121   0.0024   0.0018  -0.0040  -3.20   56.9
2019/03/11 14:53:24.000   27.894570639  -82.373418338   -20.7642   2   7   0.0039   0.0055   0.0120   0.0024   0.0017  -0.0040  -3.00   58.4
2019/03/11 14:53:24.200   27.894570631  -82.373418331   -20.7692   2   7   0.0039   0.0054   0.0118   0.0023   0.0016  -0.0039  -2.80   59.6
2019/03/11 14:53:24.400   27.894570685  -82.373418252   -20.7645   2   7   0.0038   0.0053   0.0117   0.0023   0.0015  -0.0039  -2.60   60.5
2019/03/11 14:53:24.600   27.894570655  -82.373418282   -20.7677   2   7   0.0038   0.0053   0.0117   0.0023   0.0015  -0.0039  -2.40   61.1
2019/03/11 14:53:24.800   27.894570650  -82.373418250   -20.7835   2   7   0.0039   0.0054   0.0118   0.0023   0.0016  -0.0039  -2.20   61.7
2019/03/11 14:53:25.000   27.894570649  -82.373418230   -20.7797   2   7   0.0039   0.0054   0.0120   0.0024   0.0017  -0.0040  -2.00   62.2
2019/03/11 14:53:25.200   27.894570594  -82.373418309   -20.7484   2   7   0.0040   0.0055   0.0121   0.0024   0.0018  -0.0040  -1.80   62.6
2019/03/11 14:53:25.400   27.894570645  -82.373418219   -20.7486   2   7   0.0040   0.0056   0.0123   0.0024   0.0019  -0.0041  -1.60   62.8
2019/03/11 14:53:25.600   27.894570656  -82.373418265   -20.7349   2   7   0.0041   0.0057   0.0125   0.0025   0.0020  -0.0041  -1.40   62.6
2019/03/11 14:53:25.800   27.894570687  -82.373418197   -20.7414   2   7   0.0042   0.0058   0.0127   0.0025   0.0021  -0.0042  -1.20   62.3
2019/03/11 14:53:26.000   27.894570695  -82.373418095   -20.7563   2   7   0.0042   0.0059   0.0129   0.0025   0.0022  -0.0042  -1.00   62.3
2019/03/11 14:53:26.200   27.894570727  -82.373418088   -20.7466   2   7   0.0043   0.0060   0.0131   0.0026   0.0023  -0.0043  -0.80   61.6
2019/03/11 14:53:26.400   27.894570681  -82.373418202   -20.7470   2   7   0.0044   0.0061   0.0133   0.0026   0.0024  -0.0043  -0.60   60.7
2019/03/11 14:53:26.600   27.894570679  -82.373418024   -20.7623   1   7   0.0045   0.0062   0.0135   0.0027   0.0025  -0.0044  -0.40   59.8
2019/03/11 14:53:26.800   27.894570651  -82.373418066   -20.7717   2   7   0.0045   0.0063   0.0136   0.0027   0.0025  -0.0044  -0.20   58.7
2019/03/11 14:53:27.000   27.894570713  -82.373418123   -20.7736   2   7   0.0034   0.0048   0.0108   0.0021   0.0008  -0.0037   0.00   56.1
2019/03/11 14:53:27.200   27.894570688  -82.373418127   -20.7632   1   7   0.0045   0.0063   0.0136   0.0027   0.0025  -0.0044  -4.80   55.1
2019/03/11 14:53:27.400   27.894570673  -82.373418133   -20.7550   2   7   0.0045   0.0062   0.0135   0.0027   0.0025  -0.0044  -4.60   53.9
2019/03/11 14:53:27.600   27.894570686  -82.373418060   -20.7599   2   7   0.0044   0.0061   0.0133   0.0026   0.0024  -0.0043  -4.40   52.7
2019/03/11 14:53:27.800   27.894570654  -82.373418107   -20.7579   2   7   0.0044   0.0061   0.0132   0.0028   0.0019  -0.0044  -4.20   51.2
2019/03/11 14:53:28.000   27.894570684  -82.373418162   -20.7481   2   7   0.0043   0.0060   0.0130   0.0027   0.0017  -0.0044  -4.00   49.9
2019/03/11 14:53:28.200   27.894570560  -82.373418056   -20.7661   2   7   0.0042   0.0059   0.0128   0.0027   0.0016  -0.0043  -3.80   47.9
2019/03/11 14:53:28.400   27.894570557  -82.373417980   -20.7615   2   7   0.0042   0.0058   0.0126   0.0027   0.0015  -0.0043  -3.60   45.6
2019/03/11 14:53:28.600   27.894570573  -82.373417966   -20.7549   2   7   0.0041   0.0058   0.0124   0.0026   0.0013  -0.0042  -3.40   43.3
2019/03/11 14:53:28.800   27.894570533  -82.373417930   -20.7604   2   7   0.0041   0.0057   0.0123   0.0026   0.0011  -0.0042  -3.20   41.3
2019/03/11 14:53:29.000   27.894570712  -82.373418048   -20.7745   2   7   0.0040   0.0056   0.0121   0.0026   0.0010  -0.0041  -3.00   39.5
2019/03/11 14:53:29.200   27.894570741  -82.373418072   -20.7748   2   7   0.0040   0.0055   0.0119   0.0025   0.0008  -0.0041  -2.80   37.7
2019/03/11 14:53:29.400   27.894570744  -82.373418081   -20.7703   2   7   0.0039   0.0055   0.0118   0.0025   0.0005  -0.0041  -2.60   36.0
2019/03/11 14:53:29.600   27.894570764  -82.373418061   -20.7702   2   7   0.0039   0.0055   0.0118   0.0025   0.0005  -0.0041  -2.40   34.2
2019/03/11 14:53:29.800   27.894570767  -82.373418055   -20.7660   2   7   0.0040   0.0055   0.0120   0.0026   0.0007  -0.0041  -2.20   32.5
2019/03/11 14:53:30.000   27.894570717  -82.373418134   -20.7459   2   7   0.0040   0.0056   0.0121   0.0026   0.0008  -0.0042  -2.00   31.2
2019/03/11 14:53:30.200   27.894570672  -82.373418119   -20.7508   2   7   0.0041   0.0057   0.0123   0.0027   0.0010  -0.0042  -1.80   30.0
2019/03/11 14:53:30.400   27.894570655  -82.373418160   -20.7489   2   7   0.0042   0.0058   0.0125   0.0027   0.0011  -0.0043  -1.60   28.8
2019/03/11 14:53:30.600   27.894570695  -82.373418152   -20.7492   2   7   0.0042   0.0059   0.0127   0.0028   0.0013  -0.0043  -1.40   27.5
2019/03/11 14:53:30.800   27.894570699  -82.373418176   -20.7472   2   7   0.0043   0.0060   0.0129   0.0028   0.0014  -0.0044  -1.20   26.6
2019/03/11 14:53:31.000   27.894570768  -82.373417815   -20.7307   2   7   0.0044   0.0062   0.0132   0.0029   0.0016  -0.0044  -1.00   25.7
2019/03/11 14:53:31.200   27.894570774  -82.373417968   -20.7313   2   7   0.0045   0.0063   0.0134   0.0030   0.0019  -0.0045  -0.80   25.0
2019/03/11 14:53:31.400   27.894570769  -82.373417924   -20.7150   1   7   0.0046   0.0064   0.0137   0.0031   0.0021  -0.0045  -0.60   24.4
2019/03/11 14:53:31.600   27.894570656  -82.373418226   -20.7398   1   6   0.0047   0.0067   0.0141   0.0033   0.0029  -0.0044  -0.40   23.4
2019/03/11 14:53:31.800   27.894570609  -82.373418243   -20.7341   1   6   0.0048   0.0068   0.0142   0.0033   0.0029  -0.0044  -0.20   23.4
2019/03/11 14:53:32.000   27.894570615  -82.373418234   -20.7400   1   6   0.0037   0.0053   0.0113   0.0027  -0.0001  -0.0038   0.00   23.4
2019/03/11 14:53:32.200   27.894570634  -82.373418240   -20.7483   1   6   0.0048   0.0069   0.0143   0.0034   0.0028  -0.0044  -4.80   23.4
2019/03/11 14:53:32.400   27.894570654  -82.373418212   -20.7506   1   6   0.0048   0.0068   0.0143   0.0034   0.0027  -0.0045  -4.60   23.4
2019/03/11 14:53:32.600   27.894570661  -82.373418144   -20.7403   1   6   0.0047   0.0067   0.0140   0.0034   0.0025  -0.0044  -4.40   23.3
2019/03/11 14:53:32.800   27.894570701  -82.373418096   -20.7325   1   6   0.0046   0.0066   0.0139   0.0034   0.0023  -0.0044  -4.20   23.3
2019/03/11 14:53:33.000   27.894570683  -82.373418067   -20.7267   1   6   0.0046   0.0065   0.0138   0.0034   0.0020  -0.0045  -4.00   23.3
2019/03/11 14:53:33.200   27.894570636  -82.373418066   -20.7093   1   6   0.0046   0.0065   0.0137   0.0034   0.0016  -0.0046  -3.80   23.3
2019/03/11 14:53:33.400   27.894570640  -82.373418074   -20.6950   1   6   0.0046   0.0064   0.0138   0.0034  -0.0006  -0.0048  -3.60   23.3
2019/03/11 14:53:33.600   27.894570672  -82.373418080   -20.7230   1   7   0.0045   0.0062   0.0138   0.0032  -0.0023  -0.0051  -3.40   23.2
2019/03/11 14:53:33.800   27.894570730  -82.373417985   -20.7481   1   6   0.0051   0.0069   0.0157   0.0043  -0.0055  -0.0068  -3.20   22.8
2019/03/11 14:53:34.000   27.894570736  -82.373417975   -20.7545   1   6   0.0051   0.0070   0.0157   0.0044  -0.0058  -0.0069  -3.00   22.7
2019/03/11 14:53:34.200   27.894570620  -82.373418315   -20.7371   1   6   0.0047   0.0060   0.0153   0.0036  -0.0050  -0.0065  -2.80   22.7
2019/03/11 14:53:34.400   27.894570603  -82.373418341   -20.7335   1   6   0.0046   0.0056   0.0151   0.0033  -0.0049  -0.0064  -2.60   22.7
2019/03/11 14:53:34.600   27.894570595  -82.373418324   -20.7254   1   6   0.0045   0.0055   0.0151   0.0032  -0.0048  -0.0064  -2.40   22.7
2019/03/11 14:53:34.800   27.894570580  -82.373418330   -20.7260   1   6   0.0044   0.0052   0.0153   0.0028  -0.0047  -0.0064  -2.20    3.8
2019/03/11 14:53:35.000   27.894570554  -82.373418404   -20.7208   1   6   0.0044   0.0049   0.0154   0.0025  -0.0044  -0.0064  -2.00    5.7
2019/03/11 14:53:35.200   27.894570555  -82.373418405   -20.7192   1   6   0.0045   0.0049   0.0157   0.0026  -0.0045  -0.0065  -1.80    8.3
2019/03/11 14:53:35.400   27.894570562  -82.373418422   -20.7226   1   6   0.0046   0.0050   0.0159   0.0026  -0.0046  -0.0066  -1.60    9.4
2019/03/11 14:53:35.600   27.894570563  -82.373418403   -20.7229   1   6   0.0046   0.0051   0.0162   0.0027  -0.0047  -0.0068  -1.40   10.4
2019/03/11 14:53:35.800   27.894570547  -82.373418415   -20.7216   1   6   0.0047   0.0052   0.0165   0.0027  -0.0048  -0.0069  -1.20   11.3
2019/03/11 14:53:36.000   27.894570530  -82.373418421   -20.7138   1   6   0.0048   0.0053   0.0165   0.0028  -0.0048  -0.0069  -1.00   12.3
2019/03/11 14:53:36.200   27.894570542  -82.373418406   -20.7129   1   7   0.0044   0.0052   0.0148   0.0022  -0.0033  -0.0058  -0.80   13.1
2019/03/11 14:53:36.400   27.894570530  -82.373418418   -20.7138   1   7   0.0044   0.0052   0.0148   0.0020  -0.0029  -0.0057  -0.60   13.9
2019/03/11 14:53:36.600   27.894570539  -82.373418394   -20.7146   1   7   0.0044   0.0053   0.0146   0.0019  -0.0026  -0.0055  -0.40   14.7
2019/03/11 14:53:36.800   27.894570553  -82.373418416   -20.7180   1   7   0.0045   0.0054   0.0143   0.0019  -0.0023  -0.0053  -0.20   15.3
2019/03/11 14:53:37.000   27.894570556  -82.373418428   -20.7183   1   7   0.0034   0.0039   0.0116   0.0014  -0.0023  -0.0044   0.00   16.7
2019/03/11 14:53:37.200   27.894570559  -82.373418442   -20.7186   1   7   0.0043   0.0052   0.0140   0.0016  -0.0012  -0.0050  -4.80   17.3
2019/03/11 14:53:37.400   27.894570561  -82.373418418   -20.7161   1   7   0.0042   0.0051   0.0136   0.0015  -0.0006  -0.0048  -4.60   18.0
2019/03/11 14:53:37.600   27.894570568  -82.373418419   -20.7114   1   7   0.0042   0.0050   0.0133   0.0015  -0.0007  -0.0047  -4.40   18.6
2019/03/11 14:53:37.800   27.894570569  -82.373418415   -20.7112   1   7   0.0041   0.0050   0.0133   0.0015  -0.0011  -0.0047  -4.20   19.2
2019/03/11 14:53:38.000   27.894570562  -82.373418410   -20.7120   1   7   0.0041   0.0049   0.0134   0.0016  -0.0017  -0.0049  -4.00   19.9
2019/03/11 14:53:38.200   27.894570564  -82.373418412   -20.7118   1   7   0.0041   0.0049   0.0133   0.0018  -0.0023  -0.0050  -3.80   20.5
2019/03/11 14:53:38.400   27.894570589  -82.373418404   -20.7239   1   7   0.0039   0.0047   0.0122   0.0014  -0.0008  -0.0043  -3.60   21.3
2019/03/11 14:53:38.600   27.894570586  -82.373418407   -20.7288   1   7   0.0037   0.0046   0.0119   0.0011   0.0010  -0.0041  -3.40   22.1
2019/03/11 14:53:38.800   27.894570565  -82.373418401   -20.7209   1   7   0.0036   0.0045   0.0115   0.0010   0.0015  -0.0038  -3.20   22.9
2019/03/11 14:53:39.000   27.894570572  -82.373418389   -20.7121   1   7   0.0035   0.0044   0.0111   0.0009   0.0016  -0.0037  -3.00   23.7
2019/03/11 14:53:39.200   27.894570557  -82.373418376   -20.7126   1   7   0.0035   0.0043   0.0108   0.0008   0.0017  -0.0035  -2.80   24.4
2019/03/11 14:53:39.400   27.894570559  -82.373418418   -20.7192   1   7   0.0034   0.0042   0.0106   0.0008   0.0017  -0.0035  -2.60   25.0
2019/03/11 14:53:39.600   27.894570574  -82.373418409   -20.7186   1   7   0.0034   0.0042   0.0106   0.0007   0.0018  -0.0034  -2.40   25.1
2019/03/11 14:53:39.800   27.894570564  -82.373418391   -20.7150   1   7   0.0034   0.0043   0.0106   0.0007   0.0019  -0.0034  -2.20   25.1
2019/03/11 14:53:40.000   27.894570573  -82.373418385   -20.7215   1   7   0.0034   0.0043   0.0104   0.0004   0.0023  -0.0031  -2.00    4.4
2019/03/11 14:53:40.200   27.894570581  -82.373418382   -20.7220   1   7   0.0035   0.0044   0.0105   0.0004   0.0024  -0.0032  -1.80    4.8
2019/03/11 14:53:40.400   27.894570571  -82.373418375   -20.7194   1   7   0.0035   0.0045   0.0107   0.0004   0.0024  -0.0032  -1.60    5.2
2019/03/11 14:53:40.600   27.894570567  -82.373418370   -20.7246   1   7   0.0036   0.0045   0.0108   0.0004   0.0025  -0.0032  -1.40    5.5
2019/03/11 14:53:40.800   27.894570574  -82.373418402   -20.7289   1   7   0.0036   0.0046   0.0110   0.0004   0.0026  -0.0033  -1.20    5.9
2019/03/11 14:53:41.000   27.894570574  -82.373418369   -20.7246   1   7   0.0037   0.0047   0.0111   0.0003   0.0027  -0.0033  -1.00    6.2
2019/03/11 14:53:41.200   27.894570557  -82.373418369   -20.7207   1   7   0.0038   0.0048   0.0113   0.0003   0.0027  -0.0033  -0.80    6.5
2019/03/11 14:53:41.400   27.894570561  -82.373418359   -20.7193   1   7   0.0038   0.0049   0.0115   0.0003   0.0028  -0.0034  -0.60    6.8
2019/03/11 14:53:41.600   27.894570560  -82.373418357   -20.7167   1   7   0.0039   0.0050   0.0117   0.0003   0.0029  -0.0034  -0.40    7.1
2019/03/11 14:53:41.800   27.894570559  -82.373418366   -20.7167   1   7   0.0040   0.0051   0.0117   0.0003   0.0029  -0.0034  -0.20    7.4
2019/03/11 14:53:42.000   27.894570563  -82.373418392   -20.7171   1   7   0.0030   0.0037   0.0094   0.0003   0.0018  -0.0029   0.00    7.8
2019/03/11 14:53:42.200   27.894570551  -82.373418370   -20.7185   1   7   0.0040   0.0051   0.0117   0.0003   0.0029  -0.0034  -4.80    8.0
2019/03/11 14:53:42.400   27.894570549  -82.373418356   -20.7187   1   7   0.0039   0.0050   0.0117   0.0003   0.0029  -0.0034  -4.60    8.3
2019/03/11 14:53:42.600   27.894570554  -82.373418367   -20.7239   1   7   0.0038   0.0049   0.0115   0.0003   0.0028  -0.0034  -4.40    8.6
2019/03/11 14:53:42.800   27.894570560  -82.373418365   -20.7242   1   7   0.0038   0.0048   0.0113   0.0003   0.0027  -0.0033  -4.20    8.9
2019/03/11 14:53:43.000   27.894570561  -82.373418362   -20.7246   1   7   0.0037   0.0047   0.0111   0.0003   0.0027  -0.0033  -4.00    9.2
2019/03/11 14:53:43.200   27.894570563  -82.373418368   -20.7252   1   7   0.0036   0.0046   0.0110   0.0004   0.0026  -0.0033  -3.80    9.5
2019/03/11 14:53:43.400   27.894570552  -82.373418346   -20.7222   1   7   0.0036   0.0045   0.0108   0.0004   0.0025  -0.0032  -3.60    9.8
2019/03/11 14:53:43.600   27.894570558  -82.373418393   -20.7230   1   7   0.0035   0.0045   0.0107   0.0004   0.0024  -0.0032  -3.40   10.1
2019/03/11 14:53:43.800   27.894570537  -82.373418346   -20.7208   1   7   0.0035   0.0044   0.0105   0.0004   0.0024  -0.0032  -3.20   10.4
2019/03/11 14:53:44.000   27.894570547  -82.373418374   -20.7241   1   7   0.0034   0.0043   0.0104   0.0004   0.0023  -0.0031  -3.00   10.7
2019/03/11 14:53:44.200   27.894570547  -82.373418367   -20.7221   1   7   0.0034   0.0042   0.0102   0.0004   0.0022  -0.0031  -2.80   11.0
2019/03/11 14:53:44.400   27.894570542  -82.373418355   -20.7219   1   7   0.0033   0.0042   0.0101   0.0004   0.0022  -0.0031  -2.60   11.3
2019/03/11 14:53:44.600   27.894570550  -82.373418357   -20.7208   1   7   0.0033   0.0042   0.0101   0.0004   0.0022  -0.0031  -2.40   11.6
2019/03/11 14:53:44.800   27.894570548  -82.373418386   -20.7239   1   7   0.0034   0.0042   0.0102   0.0004   0.0022  -0.0031  -2.20   11.9
2019/03/11 14:53:45.000   27.894570557  -82.373418382   -20.7248   1   7   0.0034   0.0043   0.0104   0.0004   0.0023  -0.0031  -2.00   12.1
2019/03/11 14:53:45.200   27.894570545  -82.373418362   -20.7277   1   7   0.0035   0.0044   0.0105   0.0004   0.0024  -0.0032  -1.80   12.4
2019/03/11 14:53:45.400   27.894570549  -82.373418379   -20.7307   1   7   0.0035   0.0045   0.0107   0.0004   0.0024  -0.0032  -1.60   12.7
2019/03/11 14:53:45.600   27.894570542  -82.373418343   -20.7272   1   7   0.0036   0.0045   0.0108   0.0004   0.0025  -0.0032  -1.40   13.0
2019/03/11 14:53:45.800   27.894570542  -82.373418382   -20.7284   1   7   0.0037   0.0046   0.0110   0.0004   0.0026  -0.0033  -1.20   13.2
2019/03/11 14:53:46.000   27.894570545  -82.373418370   -20.7249   1   7   0.0037   0.0047   0.0111   0.0003   0.0027  -0.0033  -1.00   13.5
2019/03/11 14:53:46.200   27.894570545  -82.373418373   -20.7283   1   7   0.0038   0.0048   0.0113   0.0003   0.0027  -0.0033  -0.80   13.7
2019/03/11 14:53:46.400   27.894570545  -82.373418360   -20.7260   1   7   0.0038   0.0049   0.0115   0.0003   0.0028  -0.0034  -0.60   13.9
2019/03/11 14:53:46.600   27.894570550  -82.373418361   -20.7289   1   7   0.0039   0.0050   0.0117   0.0003   0.0029  -0.0034  -0.40   14.2
2019/03/11 14:53:46.800   27.894570543  -82.373418369   -20.7261   1   7   0.0040   0.0051   0.0117   0.0003   0.0029  -0.0034  -0.20   14.4
2019/03/11 14:53:47.000   27.894570549  -82.373418380   -20.7268   1   7   0.0030   0.0037   0.0094   0.0003   0.0018  -0.0029   0.00   14.7
2019/03/11 14:53:47.200   27.894570549  -82.373418359   -20.7267   1   7   0.0040   0.0051   0.0117   0.0003   0.0029  -0.0034  -4.80   14.9
2019/03/11 14:53:47.400   27.894570545  -82.373418371   -20.7324   1   7   0.0039   0.0050   0.0117   0.0003   0.0029  -0.0034  -4.60   15.2
2019/03/11 14:53:47.600   27.894570550  -82.373418368   -20.7277   1   7   0.0038   0.0049   0.0115   0.0003   0.0028  -0.0034  -4.40   15.4
2019/03/11 14:53:47.800   27.894570538  -82.373418342   -20.7243   1   7   0.0038   0.0048   0.0113   0.0003   0.0027  -0.0033  -4.20   15.7
2019/03/11 14:53:48.000   27.894570547  -82.373418361   -20.7288   1   7   0.0037   0.0047   0.0111   0.0003   0.0027  -0.0033  -4.00   15.9
2019/03/11 14:53:48.200   27.894570541  -82.373418371   -20.7268   1   7   0.0037   0.0046   0.0110   0.0004   0.0026  -0.0033  -3.80   16.2
2019/03/11 14:53:48.400   27.894570536  -82.373418360   -20.7257   1   7   0.0036   0.0045   0.0108   0.0004   0.0025  -0.0032  -3.60   16.4
2019/03/11 14:53:48.600   27.894570553  -82.373418379   -20.7320   1   7   0.0035   0.0045   0.0107   0.0004   0.0024  -0.0032  -3.40   16.7
2019/03/11 14:53:48.800   27.894570550  -82.373418369   -20.7262   1   7   0.0035   0.0044   0.0105   0.0004   0.0024  -0.0032  -3.20   17.0
2019/03/11 14:53:49.000   27.894570550  -82.373418361   -20.7237   1   7   0.0034   0.0043   0.0104   0.0004   0.0023  -0.0031  -3.00   17.2
2019/03/11 14:53:49.200   27.894570556  -82.373418378   -20.7261   1   7   0.0034   0.0042   0.0102   0.0004   0.0022  -0.0031  -2.80   17.5
