% program   : RTKPOST ver.demo5 b31
% inp file  : D:\Data\Fla\Tampa-StPete-area\WGI-larrysanders\2019\0311\GPS\UAS\GP153720.obs
% inp file  : D:\Data\Fla\Tampa-StPete-area\WGI-larrysanders\2019\0311\GPS\FLD7\fld7070o00.19o
% inp file  : D:\Data\Fla\Tampa-StPete-area\WGI-larrysanders\2019\0311\GPS\ZEFR\zefr0700.19n
% inp file  : D:\Data\Fla\Tampa-StPete-area\WGI-larrysanders\2019\0311\GPS\ZEFR\igu20441_18.sp3
% inp file  : D:\Data\Fla\Tampa-StPete-area\WGI-larrysanders\2019\0311\GPS\ZEFR\zefr0700.19g
% obs start : 2019/03/11 15:37:21.5 UTC (week2044 142659.5s)
% obs end   : 2019/03/11 15:52:41.8 UTC (week2044 143579.8s)
% pos mode  : kinematic
% freqs     : L1+L2
% solution  : combined
% elev mask : 15.0 deg
% dynamics  : on
% tidecorr  : off
% ionos opt : broadcast
% tropo opt : saastamoinen
% ephemeris : precise
% navi sys  : gps glonass sbas
% amb res   : continuous
% amb glo   : fix and hold
% val thres : 3.0
% antenna1  :                       ( 0.0000  0.0000  0.0000)
% antenna2  :                       ( 0.0000  0.0000  0.0000)
% ref pos   : 27.969540778  -82.364053375   -12.8370
%
% (lat/lon/height=WGS84/ellipsoidal,Q=1:fix,2:float,3:sbas,4:dgps,5:single,6:ppp,ns=# of satellites)
%  UTC                   latitude(deg) longitude(deg)  height(m)   Q  ns   sdn(m)   sde(m)   sdu(m)  sdne(m)  sdeu(m)  sdun(m) age(s)  ratio
2019/03/11 15:37:21.500   27.894570785  -82.373419333   -20.6616   1   5   0.0154   0.0099   0.0908   0.0080  -0.0233  -0.0345   0.50  127.9
2019/03/11 15:37:22.000   27.894570682  -82.373419375   -20.6225   1   5   0.0183   0.0075   0.1077   0.0085  -0.0226  -0.0432   0.00   71.8
2019/03/11 15:37:22.500   27.894570827  -82.373419358   -20.7436   1   5   0.0151   0.0177   0.0852   0.0102  -0.0324  -0.0259   0.50   52.4
2019/03/11 15:37:32.600   27.894570751  -82.373419279   -20.7967   1   7   0.0047   0.0043   0.0161   0.0009  -0.0042  -0.0006   0.60   64.0
2019/03/11 15:37:32.800   27.894570763  -82.373419266   -20.7923   1   7   0.0047   0.0043   0.0175   0.0009  -0.0046  -0.0004   0.80   64.1
2019/03/11 15:37:33.600   27.894570725  -82.373419357   -20.7901   1   7   0.0046   0.0042   0.0160   0.0009  -0.0042   0.0004   0.60   64.1
2019/03/11 15:37:33.800   27.894570713  -82.373419107   -20.8173   1   7   0.0046   0.0042   0.0160   0.0009  -0.0042   0.0003   0.80   64.2
2019/03/11 15:37:34.000   27.894570638  -82.373419103   -20.8034   1   7   0.0045   0.0042   0.0159   0.0008  -0.0042   0.0006   0.00   64.1
2019/03/11 15:37:34.200   27.894570645  -82.373419253   -20.7703   1   7   0.0046   0.0042   0.0161   0.0009  -0.0042   0.0003   0.20   63.6
2019/03/11 15:37:34.400   27.894570791  -82.373419284   -20.8348   1   7   0.0046   0.0042   0.0160   0.0009  -0.0042   0.0005   0.40   63.5
2019/03/11 15:37:34.600   27.894570756  -82.373419315   -20.8028   1   7   0.0046   0.0042   0.0160   0.0009  -0.0042   0.0005   0.60   63.5
2019/03/11 15:37:34.800   27.894570764  -82.373419341   -20.7700   1   7   0.0046   0.0042   0.0160   0.0009  -0.0042   0.0004   0.80   63.3
2019/03/11 15:37:35.000   27.894570773  -82.373419363   -20.7629   1   7   0.0045   0.0042   0.0159   0.0008  -0.0042   0.0006   0.00   62.9
2019/03/11 15:37:35.200   27.894570760  -82.373419368   -20.7709   1   7   0.0046   0.0042   0.0161   0.0009  -0.0042   0.0004   0.20   62.5
2019/03/11 15:37:35.400   27.894570756  -82.373419377   -20.7640   1   7   0.0046   0.0042   0.0160   0.0009  -0.0042   0.0005   0.40   62.2
2019/03/11 15:37:35.600   27.894570752  -82.373419377   -20.7603   1   7   0.0046   0.0042   0.0160   0.0009  -0.0042   0.0005   0.60   61.9
2019/03/11 15:37:35.800   27.894570749  -82.373419363   -20.7561   1   7   0.0046   0.0042   0.0160   0.0009  -0.0042   0.0004   0.80   61.7
2019/03/11 15:37:36.000   27.894570770  -82.373419336   -20.7644   1   7   0.0045   0.0042   0.0159   0.0008  -0.0042   0.0006   0.00   61.5
2019/03/11 15:37:36.200   27.894570729  -82.373419347   -20.7734   1   7   0.0046   0.0042   0.0161   0.0009  -0.0042   0.0004   0.20   61.3
2019/03/11 15:37:36.400   27.894570749  -82.373419331   -20.7809   1   7   0.0046   0.0042   0.0160   0.0009  -0.0042   0.0005   0.40   61.2
2019/03/11 15:37:36.600   27.894570732  -82.373419300   -20.7941   1   7   0.0046   0.0042   0.0160   0.0009  -0.0042   0.0005   0.60   61.0
2019/03/11 15:37:36.800   27.894570740  -82.373419317   -20.7914   1   7   0.0046   0.0042   0.0160   0.0009  -0.0042   0.0004   0.80   60.9
2019/03/11 15:37:37.000   27.894570747  -82.373419300   -20.7835   1   7   0.0045   0.0042   0.0159   0.0008  -0.0041   0.0006   0.00   60.8
2019/03/11 15:37:37.200   27.894570760  -82.373419310   -20.7861   1   7   0.0046   0.0042   0.0161   0.0009  -0.0042   0.0004   0.20   60.6
2019/03/11 15:37:37.400   27.894570759  -82.373419309   -20.7861   1   7   0.0046   0.0042   0.0160   0.0009  -0.0042   0.0005   0.40   60.5
2019/03/11 15:37:37.600   27.894570758  -82.373419313   -20.7853   1   7   0.0046   0.0042   0.0160   0.0009  -0.0042   0.0005   0.60   60.4
2019/03/11 15:37:37.800   27.894570744  -82.373419309   -20.7854   1   7   0.0046   0.0042   0.0160   0.0009  -0.0042   0.0004   0.80   60.3
2019/03/11 15:37:38.000   27.894570734  -82.373419309   -20.7846   1   7   0.0045   0.0042   0.0159   0.0008  -0.0041   0.0006   0.00   60.1
2019/03/11 15:37:38.200   27.894570742  -82.373419313   -20.7861   1   7   0.0046   0.0042   0.0161   0.0009  -0.0042   0.0004   0.20   60.1
2019/03/11 15:37:38.400   27.894570748  -82.373419317   -20.7883   1   7   0.0046   0.0042   0.0160   0.0009  -0.0042   0.0005   0.40   60.0
2019/03/11 15:37:38.600   27.894570756  -82.373419312   -20.7846   1   7   0.0046   0.0042   0.0160   0.0009  -0.0042   0.0005   0.60   59.9
2019/03/11 15:37:38.800   27.894570760  -82.373419321   -20.7864   1   7   0.0046   0.0042   0.0160   0.0009  -0.0042   0.0004   0.80   59.9
2019/03/11 15:37:39.000   27.894570762  -82.373419316   -20.7895   1   7   0.0045   0.0042   0.0159   0.0008  -0.0041   0.0006   0.00   59.8
2019/03/11 15:37:39.200   27.894570754  -82.373419316   -20.7900   1   7   0.0046   0.0042   0.0161   0.0009  -0.0042   0.0004   0.20   59.6
2019/03/11 15:37:39.400   27.894570749  -82.373419314   -20.7890   1   7   0.0046   0.0042   0.0160   0.0009  -0.0042   0.0005   0.40   59.5
2019/03/11 15:37:39.600   27.894570739  -82.373419311   -20.7923   1   7   0.0046   0.0042   0.0160   0.0009  -0.0042   0.0005   0.60   59.3
2019/03/11 15:37:39.800   27.894570742  -82.373419316   -20.7930   1   7   0.0046   0.0042   0.0160   0.0009  -0.0042   0.0004   0.80   59.1
2019/03/11 15:37:40.000   27.894570738  -82.373419312   -20.7930   1   7   0.0045   0.0042   0.0159   0.0008  -0.0041   0.0006   0.00   58.9
2019/03/11 15:37:40.200   27.894570733  -82.373419318   -20.7939   1   7   0.0046   0.0042   0.0161   0.0009  -0.0042   0.0004   0.20   58.7
2019/03/11 15:37:40.400   27.894570724  -82.373419326   -20.7954   1   7   0.0046   0.0042   0.0160   0.0009  -0.0042   0.0005   0.40   58.6
2019/03/11 15:37:40.600   27.894570749  -82.373419312   -20.7865   1   7   0.0046   0.0042   0.0160   0.0009  -0.0042   0.0005   0.60   58.4
2019/03/11 15:37:40.800   27.894570753  -82.373419304   -20.7889   1   7   0.0046   0.0042   0.0160   0.0009  -0.0042   0.0004   0.80   58.3
2019/03/11 15:37:41.000   27.894570740  -82.373419299   -20.7884   1   7   0.0045   0.0042   0.0159   0.0008  -0.0041   0.0006   0.00   58.1
2019/03/11 15:37:41.200   27.894570742  -82.373419300   -20.7869   1   7   0.0046   0.0042   0.0161   0.0009  -0.0042   0.0005   0.20   57.9
2019/03/11 15:37:41.400   27.894570736  -82.373419306   -20.7889   1   7   0.0046   0.0042   0.0160   0.0009  -0.0042   0.0005   0.40   57.8
2019/03/11 15:37:41.600   27.894570739  -82.373419330   -20.7890   1   7   0.0046   0.0042   0.0160   0.0009  -0.0042   0.0005   0.60   57.7
2019/03/11 15:37:41.800   27.894570734  -82.373419344   -20.7864   1   7   0.0046   0.0042   0.0160   0.0009  -0.0042   0.0005   0.80   57.5
2019/03/11 15:37:42.000   27.894570736  -82.373419329   -20.7879   1   7   0.0045   0.0042   0.0159   0.0008  -0.0041   0.0006   0.00   57.4
2019/03/11 15:37:42.200   27.894570731  -82.373419316   -20.7879   1   7   0.0046   0.0042   0.0161   0.0009  -0.0042   0.0005   0.20   57.2
2019/03/11 15:37:42.400   27.894570743  -82.373419285   -20.7955   1   7   0.0046   0.0042   0.0160   0.0009  -0.0042   0.0006   0.40   57.1
2019/03/11 15:37:42.600   27.894570738  -82.373419258   -20.7984   1   7   0.0046   0.0042   0.0160   0.0009  -0.0042   0.0006   0.60   57.0
2019/03/11 15:37:42.800   27.894570738  -82.373419282   -20.7977   1   7   0.0046   0.0042   0.0160   0.0009  -0.0042   0.0005   0.80   56.9
2019/03/11 15:37:43.000   27.894570745  -82.373419300   -20.7869   1   7   0.0045   0.0042   0.0159   0.0008  -0.0041   0.0007   0.00   56.8
2019/03/11 15:37:43.200   27.894570746  -82.373419305   -20.7868   1   7   0.0046   0.0042   0.0161   0.0009  -0.0042   0.0005   0.20   56.7
2019/03/11 15:37:43.400   27.894570747  -82.373419292   -20.7864   1   7   0.0046   0.0042   0.0160   0.0009  -0.0042   0.0006   0.40   56.6
2019/03/11 15:37:43.600   27.894570755  -82.373419298   -20.7966   1   7   0.0046   0.0042   0.0160   0.0009  -0.0042   0.0006   0.60   56.4
2019/03/11 15:37:43.800   27.894570742  -82.373419309   -20.7906   1   7   0.0046   0.0042   0.0160   0.0009  -0.0042   0.0005   0.80   56.3
2019/03/11 15:37:44.000   27.894570728  -82.373419321   -20.7930   1   7   0.0045   0.0042   0.0159   0.0008  -0.0041   0.0007   0.00   56.2
2019/03/11 15:37:44.200   27.894570737  -82.373419304   -20.7949   1   7   0.0046   0.0042   0.0161   0.0009  -0.0042   0.0005   0.20   56.1
2019/03/11 15:37:44.400   27.894570750  -82.373419314   -20.7921   1   7   0.0046   0.0042   0.0160   0.0009  -0.0042   0.0006   0.40   55.9
2019/03/11 15:37:44.600   27.894570742  -82.373419321   -20.7889   1   7   0.0046   0.0042   0.0160   0.0009  -0.0042   0.0006   0.60   55.8
2019/03/11 15:37:44.800   27.894570731  -82.373419297   -20.7880   1   7   0.0046   0.0042   0.0160   0.0009  -0.0042   0.0005   0.80   55.6
2019/03/11 15:37:45.000   27.894570734  -82.373419314   -20.7927   1   7   0.0045   0.0042   0.0159   0.0008  -0.0041   0.0007   0.00   55.4
2019/03/11 15:37:45.200   27.894570732  -82.373419319   -20.7921   1   7   0.0046   0.0042   0.0161   0.0009  -0.0042   0.0005   0.20   55.3
2019/03/11 15:37:45.400   27.894570738  -82.373419306   -20.7928   1   7   0.0046   0.0042   0.0160   0.0009  -0.0042   0.0006   0.40   55.1
2019/03/11 15:37:45.600   27.894570737  -82.373419316   -20.7913   1   7   0.0046   0.0042   0.0160   0.0009  -0.0042   0.0006   0.60   55.0
2019/03/11 15:37:45.800   27.894570746  -82.373419302   -20.7911   1   7   0.0046   0.0042   0.0160   0.0009  -0.0042   0.0005   0.80   54.9
2019/03/11 15:37:46.000   27.894570744  -82.373419308   -20.7886   1   7   0.0045   0.0042   0.0159   0.0008  -0.0041   0.0007   0.00   54.7
2019/03/11 15:37:46.200   27.894570742  -82.373419298   -20.7954   1   7   0.0046   0.0042   0.0161   0.0009  -0.0042   0.0005   0.20   54.7
2019/03/11 15:37:46.400   27.894570734  -82.373419293   -20.7937   1   7   0.0046   0.0042   0.0160   0.0009  -0.0042   0.0006   0.40   54.6
2019/03/11 15:37:46.600   27.894570740  -82.373419305   -20.7872   1   7   0.0046   0.0042   0.0160   0.0009  -0.0042   0.0006   0.60   54.5
2019/03/11 15:37:46.800   27.894570731  -82.373419298   -20.7854   1   7   0.0046   0.0042   0.0160   0.0009  -0.0042   0.0005   0.80   54.5
2019/03/11 15:37:47.000   27.894570727  -82.373419305   -20.7843   1   7   0.0045   0.0042   0.0159   0.0008  -0.0041   0.0007   0.00   54.4
2019/03/11 15:37:47.200   27.894570736  -82.373419301   -20.7870   1   7   0.0046   0.0042   0.0161   0.0009  -0.0042   0.0005   0.20   54.3
2019/03/11 15:37:47.400   27.894570731  -82.373419296   -20.7904   1   7   0.0046   0.0042   0.0160   0.0009  -0.0042   0.0006   0.40   54.2
2019/03/11 15:37:47.600   27.894570738  -82.373419300   -20.7923   1   7   0.0046   0.0042   0.0160   0.0009  -0.0042   0.0006   0.60   54.2
2019/03/11 15:37:47.800   27.894570733  -82.373419301   -20.7976   1   7   0.0046   0.0042   0.0160   0.0009  -0.0042   0.0005   0.80   54.1
2019/03/11 15:37:48.000   27.894570726  -82.373419297   -20.7995   1   7   0.0045   0.0041   0.0159   0.0008  -0.0041   0.0007   0.00   54.0
2019/03/11 15:37:48.200   27.894570713  -82.373419300   -20.7954   1   7   0.0046   0.0042   0.0161   0.0009  -0.0042   0.0005   0.20   53.9
2019/03/11 15:37:48.400   27.894570738  -82.373419291   -20.7903   1   7   0.0046   0.0042   0.0160   0.0009  -0.0042   0.0006   0.40   53.7
2019/03/11 15:37:48.600   27.894570720  -82.373419288   -20.7910   1   7   0.0046   0.0042   0.0160   0.0009  -0.0042   0.0006   0.60   53.6
2019/03/11 15:37:48.800   27.894570725  -82.373419287   -20.7935   1   7   0.0046   0.0042   0.0160   0.0009  -0.0042   0.0005   0.80   53.5
2019/03/11 15:37:49.000   27.894570733  -82.373419296   -20.7880   1   7   0.0045   0.0041   0.0159   0.0008  -0.0041   0.0007   0.00   53.4
2019/03/11 15:37:49.200   27.894570734  -82.373419301   -20.7839   1   7   0.0046   0.0042   0.0161   0.0009  -0.0042   0.0005   0.20   53.3
2019/03/11 15:37:49.400   27.894570753  -82.373419299   -20.7848   1   7   0.0046   0.0042   0.0160   0.0009  -0.0042   0.0006   0.40   53.1
2019/03/11 15:37:49.600   27.894570743  -82.373419314   -20.7873   1   7   0.0046   0.0042   0.0160   0.0009  -0.0042   0.0006   0.60   52.9
2019/03/11 15:37:49.800   27.894570725  -82.373419293   -20.7933   1   7   0.0046   0.0042   0.0160   0.0009  -0.0042   0.0006   0.80   52.8
2019/03/11 15:37:50.000   27.894570726  -82.373419306   -20.7923   1   7   0.0045   0.0041   0.0159   0.0008  -0.0041   0.0007   0.00   52.6
2019/03/11 15:37:50.200   27.894570732  -82.373419301   -20.7882   1   7   0.0046   0.0042   0.0161   0.0009  -0.0042   0.0006   0.20   52.5
2019/03/11 15:37:50.400   27.894570712  -82.373419287   -20.7879   1   7   0.0046   0.0042   0.0160   0.0009  -0.0042   0.0006   0.40   52.4
2019/03/11 15:37:50.600   27.894570723  -82.373419283   -20.7949   1   7   0.0046   0.0042   0.0160   0.0009  -0.0042   0.0006   0.60   52.3
2019/03/11 15:37:50.800   27.894570708  -82.373419283   -20.7943   1   7   0.0046   0.0042   0.0160   0.0009  -0.0042   0.0006   0.80   52.1
2019/03/11 15:37:51.000   27.894570731  -82.373419296   -20.7988   1   7   0.0045   0.0041   0.0159   0.0008  -0.0041   0.0007   0.00   52.0
2019/03/11 15:37:51.200   27.894570726  -82.373419285   -20.8000   1   7   0.0032   0.0030   0.0114   0.0006  -0.0030   0.0004  -0.80   10.7
2019/03/11 15:37:51.400   27.894570727  -82.373419296   -20.8004   1   7   0.0032   0.0030   0.0114   0.0006  -0.0030   0.0005  -0.60   10.7
2019/03/11 15:37:51.600   27.894570734  -82.373419317   -20.7945   1   7   0.0032   0.0030   0.0113   0.0006  -0.0029   0.0005  -0.40   10.8
2019/03/11 15:37:51.800   27.894570734  -82.373419326   -20.7878   1   7   0.0032   0.0030   0.0114   0.0006  -0.0030   0.0004  -0.20   10.8
2019/03/11 15:37:52.000   27.894570719  -82.373419333   -20.7928   1   7   0.0032   0.0029   0.0112   0.0006  -0.0029   0.0005   0.00   10.9
2019/03/11 15:37:52.200   27.894570726  -82.373419334   -20.7903   1   7   0.0032   0.0030   0.0114   0.0006  -0.0030   0.0004  -0.80   10.9
2019/03/11 15:37:52.400   27.894570725  -82.373419330   -20.7916   1   7   0.0032   0.0030   0.0113   0.0006  -0.0029   0.0005  -0.60   10.9
2019/03/11 15:37:52.600   27.894570712  -82.373419302   -20.7938   1   7   0.0032   0.0030   0.0113   0.0006  -0.0029   0.0005  -0.40   11.0
2019/03/11 15:37:52.800   27.894570733  -82.373419300   -20.7896   1   7   0.0032   0.0030   0.0114   0.0006  -0.0030   0.0004  -0.20   11.1
2019/03/11 15:37:53.000   27.894570733  -82.373419256   -20.8085   1   7   0.0032   0.0029   0.0112   0.0006  -0.0029   0.0005   0.00   11.0
2019/03/11 15:37:53.200   27.894570712  -82.373419248   -20.8144   1   7   0.0032   0.0030   0.0114   0.0006  -0.0030   0.0004  -0.80   10.9
2019/03/11 15:37:53.400   27.894570724  -82.373419262   -20.8077   1   7   0.0032   0.0030   0.0113   0.0006  -0.0029   0.0005  -0.60   10.9
2019/03/11 15:37:53.600   27.894570740  -82.373419256   -20.8043   1   7   0.0032   0.0030   0.0113   0.0006  -0.0029   0.0005  -0.40   10.8
2019/03/11 15:37:53.800   27.894570736  -82.373419274   -20.8090   1   7   0.0032   0.0030   0.0114   0.0006  -0.0030   0.0004  -0.20   10.6
2019/03/11 15:37:54.000   27.894570732  -82.373419270   -20.8024   1   7   0.0032   0.0029   0.0112   0.0006  -0.0029   0.0005   0.00   10.5
2019/03/11 15:37:54.200   27.894570727  -82.373419293   -20.8011   1   7   0.0032   0.0030   0.0114   0.0006  -0.0030   0.0004  -0.80   10.4
2019/03/11 15:37:54.400   27.894570748  -82.373419288   -20.8035   1   7   0.0032   0.0030   0.0113   0.0006  -0.0029   0.0005  -0.60   10.4
2019/03/11 15:37:54.600   27.894570705  -82.373419289   -20.8055   1   7   0.0032   0.0030   0.0113   0.0006  -0.0029   0.0005  -0.40   10.3
2019/03/11 15:37:54.800   27.894570706  -82.373419261   -20.7967   1   7   0.0032   0.0030   0.0114   0.0006  -0.0030   0.0004  -0.20   10.2
2019/03/11 15:37:55.000   27.894570676  -82.373419243   -20.7730   1   7   0.0032   0.0029   0.0112   0.0006  -0.0029   0.0005   0.00   10.2
2019/03/11 15:37:55.200   27.894570644  -82.373419227   -20.7355   1   7   0.0032   0.0030   0.0114   0.0006  -0.0029   0.0004  -0.80   20.2
2019/03/11 15:37:55.400   27.894570621  -82.373419220   -20.7291   1   7   0.0032   0.0030   0.0113   0.0006  -0.0029   0.0005  -0.60   21.5
2019/03/11 15:37:55.600   27.894570626  -82.373419243   -20.7462   1   7   0.0032   0.0030   0.0113   0.0006  -0.0029   0.0005  -0.40   22.9
2019/03/11 15:37:55.800   27.894570673  -82.373419244   -20.7724   1   7   0.0032   0.0030   0.0114   0.0006  -0.0029   0.0004  -0.20   24.4
2019/03/11 15:37:56.000   27.894570666  -82.373419148   -20.7809   1   7   0.0032   0.0029   0.0112   0.0006  -0.0029   0.0005   0.00   26.0
2019/03/11 15:37:56.200   27.894570696  -82.373419155   -20.7884   1   7   0.0032   0.0030   0.0114   0.0006  -0.0029   0.0004  -0.80   27.6
2019/03/11 15:37:56.400   27.894570720  -82.373419232   -20.7796   1   7   0.0032   0.0030   0.0113   0.0006  -0.0029   0.0005  -0.60   29.0
2019/03/11 15:37:56.600   27.894570657  -82.373419241   -20.7608   1   7   0.0032   0.0030   0.0113   0.0006  -0.0029   0.0005  -0.40   30.6
2019/03/11 15:37:56.800   27.894570661  -82.373419192   -20.7631   1   7   0.0032   0.0030   0.0114   0.0006  -0.0029   0.0004  -0.20   32.3
2019/03/11 15:37:57.000   27.894570680  -82.373419222   -20.7839   1   7   0.0032   0.0029   0.0112   0.0006  -0.0029   0.0005   0.00   33.7
2019/03/11 15:37:57.200   27.894570733  -82.373419267   -20.8080   1   7   0.0032   0.0030   0.0114   0.0006  -0.0029   0.0004  -0.80   34.9
2019/03/11 15:37:57.400   27.894570715  -82.373419296   -20.8060   1   7   0.0032   0.0030   0.0113   0.0006  -0.0029   0.0005  -0.60   36.2
2019/03/11 15:37:57.600   27.894570701  -82.373419273   -20.7973   1   7   0.0032   0.0030   0.0113   0.0006  -0.0029   0.0005  -0.40   37.3
2019/03/11 15:37:57.800   27.894570694  -82.373419260   -20.8000   1   7   0.0032   0.0030   0.0114   0.0006  -0.0029   0.0005  -0.20   38.4
2019/03/11 15:37:58.000   27.894570702  -82.373419321   -20.7983   1   7   0.0032   0.0029   0.0112   0.0006  -0.0029   0.0006   0.00   39.5
2019/03/11 15:37:58.200   27.894570702  -82.373419295   -20.7936   1   7   0.0032   0.0030   0.0114   0.0006  -0.0029   0.0005  -0.80   40.4
2019/03/11 15:37:58.400   27.894570729  -82.373419296   -20.7901   1   7   0.0032   0.0030   0.0113   0.0006  -0.0029   0.0005  -0.60   41.2
2019/03/11 15:37:58.600   27.894570721  -82.373419290   -20.7900   1   7   0.0032   0.0030   0.0113   0.0006  -0.0029   0.0005  -0.40   41.4
2019/03/11 15:37:58.800   27.894570726  -82.373419271   -20.7914   1   7   0.0032   0.0030   0.0114   0.0006  -0.0029   0.0005  -0.20   41.6
2019/03/11 15:37:59.000   27.894570742  -82.373419294   -20.7930   1   7   0.0032   0.0029   0.0112   0.0006  -0.0029   0.0006   0.00   41.7
2019/03/11 15:37:59.200   27.894570733  -82.373419272   -20.7961   1   7   0.0032   0.0030   0.0114   0.0006  -0.0029   0.0005  -0.80   41.8
2019/03/11 15:37:59.400   27.894570711  -82.373419251   -20.7929   1   7   0.0032   0.0030   0.0113   0.0006  -0.0029   0.0005  -0.60   41.7
2019/03/11 15:37:59.600   27.894570725  -82.373419289   -20.7888   1   7   0.0032   0.0030   0.0113   0.0006  -0.0029   0.0005  -0.40   41.7
2019/03/11 15:37:59.800   27.894570726  -82.373419312   -20.7894   1   7   0.0032   0.0030   0.0114   0.0006  -0.0029   0.0005  -0.20   41.8
2019/03/11 15:38:00.000   27.894570724  -82.373419298   -20.7948   1   7   0.0032   0.0029   0.0112   0.0006  -0.0029   0.0006   0.00   42.0
2019/03/11 15:38:00.200   27.894570730  -82.373419336   -20.7931   1   7   0.0032   0.0030   0.0114   0.0006  -0.0029   0.0005  -0.80   42.1
2019/03/11 15:38:00.400   27.894570711  -82.373419297   -20.7884   1   7   0.0032   0.0030   0.0113   0.0006  -0.0029   0.0005  -0.60   42.3
2019/03/11 15:38:00.600   27.894570714  -82.373419283   -20.7862   1   7   0.0032   0.0030   0.0113   0.0006  -0.0029   0.0005  -0.40   42.4
2019/03/11 15:38:00.800   27.894570719  -82.373419281   -20.7886   1   7   0.0032   0.0030   0.0114   0.0006  -0.0029   0.0005  -0.20   42.3
2019/03/11 15:38:01.000   27.894570640  -82.373419320   -20.7960   1   7   0.0032   0.0029   0.0112   0.0006  -0.0029   0.0006   0.00   42.6
2019/03/11 15:38:01.200   27.894570611  -82.373419283   -20.8033   1   7   0.0032   0.0030   0.0114   0.0006  -0.0029   0.0005  -0.80   43.2
2019/03/11 15:38:01.400   27.894570818  -82.373419281   -20.7521   1   7   0.0032   0.0030   0.0113   0.0006  -0.0029   0.0005  -0.60   42.8
2019/03/11 15:38:01.600   27.894570806  -82.373419299   -20.7539   1   7   0.0032   0.0030   0.0113   0.0006  -0.0029   0.0005  -0.40   42.4
2019/03/11 15:38:01.800   27.894570770  -82.373419297   -20.7551   1   7   0.0032   0.0030   0.0114   0.0006  -0.0029   0.0005  -0.20   42.0
2019/03/11 15:38:02.000   27.894570698  -82.373419322   -20.7772   1   7   0.0032   0.0029   0.0112   0.0006  -0.0029   0.0006   0.00   41.8
2019/03/11 15:38:02.200   27.894570730  -82.373419282   -20.7913   1   7   0.0032   0.0030   0.0114   0.0006  -0.0029   0.0005  -0.80   41.6
2019/03/11 15:38:02.400   27.894570752  -82.373419298   -20.7971   1   7   0.0032   0.0030   0.0113   0.0006  -0.0029   0.0005  -0.60   41.7
2019/03/11 15:38:02.600   27.894570759  -82.373419294   -20.7991   1   7   0.0032   0.0030   0.0113   0.0006  -0.0029   0.0005  -0.40   41.9
2019/03/11 15:38:02.800   27.894570748  -82.373419299   -20.7992   1   7   0.0032   0.0030   0.0114   0.0006  -0.0029   0.0005  -0.20   42.1
2019/03/11 15:38:03.000   27.894570739  -82.373419292   -20.7981   1   7   0.0032   0.0029   0.0112   0.0006  -0.0029   0.0006   0.00   42.5
2019/03/11 15:38:03.200   27.894570762  -82.373419274   -20.7967   1   7   0.0032   0.0030   0.0114   0.0006  -0.0029   0.0005  -0.80   43.0
2019/03/11 15:38:03.400   27.894570736  -82.373419293   -20.7951   1   7   0.0032   0.0030   0.0113   0.0006  -0.0029   0.0005  -0.60   43.3
2019/03/11 15:38:03.600   27.894570725  -82.373419317   -20.7960   1   7   0.0032   0.0030   0.0113   0.0006  -0.0029   0.0005  -0.40   43.7
2019/03/11 15:38:03.800   27.894570711  -82.373419343   -20.7751   1   7   0.0032   0.0030   0.0114   0.0006  -0.0029   0.0005  -0.20   43.9
2019/03/11 15:38:04.000   27.894570715  -82.373419339   -20.7789   1   7   0.0032   0.0029   0.0112   0.0006  -0.0029   0.0006   0.00   43.9
2019/03/11 15:38:04.200   27.894570729  -82.373419331   -20.7831   1   7   0.0032   0.0030   0.0114   0.0006  -0.0029   0.0005  -0.80   44.1
2019/03/11 15:38:04.400   27.894570719  -82.373419335   -20.7818   1   7   0.0032   0.0029   0.0113   0.0006  -0.0029   0.0005  -0.60   44.2
2019/03/11 15:38:04.600   27.894570708  -82.373419360   -20.7744   1   7   0.0032   0.0029   0.0113   0.0006  -0.0029   0.0005  -0.40   44.2
2019/03/11 15:38:04.800   27.894570734  -82.373419361   -20.7791   1   7   0.0032   0.0030   0.0114   0.0006  -0.0029   0.0005  -0.20   44.2
2019/03/11 15:38:05.000   27.894570736  -82.373419353   -20.7821   1   7   0.0032   0.0029   0.0112   0.0006  -0.0029   0.0006   0.00   44.3
2019/03/11 15:38:05.200   27.894570738  -82.373419346   -20.7762   1   7   0.0032   0.0030   0.0114   0.0006  -0.0029   0.0005  -0.80   44.3
2019/03/11 15:38:05.400   27.894570731  -82.373419338   -20.7761   1   7   0.0032   0.0029   0.0113   0.0006  -0.0029   0.0005  -0.60   44.4
2019/03/11 15:38:05.600   27.894570736  -82.373419349   -20.7795   1   7   0.0032   0.0029   0.0113   0.0006  -0.0029   0.0005  -0.40   44.5
2019/03/11 15:38:05.800   27.894570731  -82.373419351   -20.7771   1   7   0.0032   0.0030   0.0114   0.0006  -0.0029   0.0005  -0.20   44.5
2019/03/11 15:38:06.000   27.894570736  -82.373419346   -20.7753   1   7   0.0032   0.0029   0.0112   0.0006  -0.0029   0.0006   0.00   44.6
2019/03/11 15:38:06.200   27.894570718  -82.373419354   -20.7771   1   7   0.0032   0.0030   0.0114   0.0006  -0.0029   0.0005  -0.80   44.6
2019/03/11 15:38:06.400   27.894570712  -82.373419337   -20.7761   1   7   0.0032   0.0029   0.0113   0.0006  -0.0029   0.0005  -0.60   44.7
2019/03/11 15:38:06.600   27.894570714  -82.373419351   -20.7766   1   7   0.0032   0.0029   0.0113   0.0006  -0.0029   0.0005  -0.40   44.9
2019/03/11 15:38:06.800   27.894570704  -82.373419347   -20.7779   1   7   0.0032   0.0030   0.0114   0.0006  -0.0029   0.0005  -0.20   45.0
2019/03/11 15:38:07.000   27.894570724  -82.373419330   -20.7849   1   7   0.0032   0.0029   0.0112   0.0006  -0.0029   0.0006   0.00   45.0
2019/03/11 15:38:07.200   27.894570720  -82.373419340   -20.7817   1   7   0.0032   0.0030   0.0114   0.0006  -0.0029   0.0005  -0.80   45.1
2019/03/11 15:38:07.400   27.894570729  -82.373419340   -20.7828   1   7   0.0032   0.0029   0.0113   0.0006  -0.0029   0.0006  -0.60   45.2
2019/03/11 15:38:07.600   27.894570727  -82.373419330   -20.7808   1   7   0.0032   0.0029   0.0113   0.0006  -0.0029   0.0006  -0.40   45.2
2019/03/11 15:38:07.800   27.894570722  -82.373419332   -20.7793   1   7   0.0032   0.0030   0.0114   0.0006  -0.0029   0.0005  -0.20   45.4
2019/03/11 15:38:08.000   27.894570725  -82.373419349   -20.7791   1   7   0.0032   0.0029   0.0112   0.0006  -0.0029   0.0006   0.00   45.5
2019/03/11 15:38:08.200   27.894570738  -82.373419343   -20.7782   1   7   0.0032   0.0030   0.0114   0.0006  -0.0029   0.0005  -0.80   45.5
2019/03/11 15:38:08.400   27.894570740  -82.373419346   -20.7741   1   7   0.0032   0.0029   0.0113   0.0006  -0.0029   0.0006  -0.60   45.5
2019/03/11 15:38:08.600   27.894570739  -82.373419345   -20.7789   1   7   0.0032   0.0029   0.0113   0.0006  -0.0029   0.0006  -0.40   45.5
2019/03/11 15:38:08.800   27.894570745  -82.373419327   -20.7832   1   7   0.0032   0.0030   0.0114   0.0006  -0.0029   0.0005  -0.20   45.4
2019/03/11 15:38:09.000   27.894570751  -82.373419315   -20.7784   1   7   0.0032   0.0029   0.0112   0.0006  -0.0029   0.0006   0.00   45.3
2019/03/11 15:38:09.200   27.894570744  -82.373419317   -20.7849   1   7   0.0032   0.0030   0.0114   0.0006  -0.0029   0.0005  -0.80   45.3
2019/03/11 15:38:09.400   27.894570749  -82.373419329   -20.7844   1   7   0.0032   0.0029   0.0113   0.0006  -0.0029   0.0006  -0.60   45.4
2019/03/11 15:38:09.600   27.894570740  -82.373419280   -20.7883   1   7   0.0032   0.0029   0.0113   0.0006  -0.0029   0.0006  -0.40   45.5
2019/03/11 15:38:09.800   27.894570727  -82.373419284   -20.7878   1   7   0.0032   0.0030   0.0114   0.0006  -0.0029   0.0005  -0.20   45.7
2019/03/11 15:38:10.000   27.894570729  -82.373419284   -20.7810   1   7   0.0032   0.0029   0.0112   0.0006  -0.0029   0.0006   0.00   45.8
2019/03/11 15:38:10.200   27.894570751  -82.373419272   -20.7801   1   7   0.0032   0.0030   0.0114   0.0006  -0.0029   0.0005  -0.80   46.0
2019/03/11 15:38:10.400   27.894570742  -82.373419274   -20.7851   1   7   0.0032   0.0029   0.0113   0.0006  -0.0029   0.0006  -0.60   46.0
2019/03/11 15:38:10.600   27.894570765  -82.373419269   -20.7851   1   7   0.0032   0.0029   0.0113   0.0006  -0.0029   0.0006  -0.40   46.1
2019/03/11 15:38:10.800   27.894570726  -82.373419282   -20.7924   1   7   0.0032   0.0030   0.0114   0.0006  -0.0029   0.0005  -0.20   46.3
2019/03/11 15:38:11.000   27.894570709  -82.373419277   -20.7973   1   7   0.0032   0.0029   0.0112   0.0006  -0.0029   0.0006   0.00   46.6
2019/03/11 15:38:11.200   27.894570673  -82.373419264   -20.8062   1   7   0.0032   0.0030   0.0114   0.0006  -0.0029   0.0005  -0.80   47.0
2019/03/11 15:38:11.400   27.894570640  -82.373419298   -20.8078   1   7   0.0032   0.0029   0.0113   0.0006  -0.0029   0.0006  -0.60   47.3
2019/03/11 15:38:11.600   27.894570645  -82.373419301   -20.8022   1   7   0.0032   0.0029   0.0113   0.0006  -0.0029   0.0006  -0.40   47.9
2019/03/11 15:38:11.800   27.894570642  -82.373419282   -20.8018   1   7   0.0032   0.0030   0.0114   0.0006  -0.0029   0.0005  -0.20   48.3
2019/03/11 15:38:12.000   27.894570666  -82.373419307   -20.8022   1   7   0.0032   0.0029   0.0112   0.0006  -0.0029   0.0006   0.00   48.7
2019/03/11 15:38:12.200   27.894570686  -82.373419306   -20.7968   1   7   0.0032   0.0030   0.0114   0.0006  -0.0029   0.0005  -0.80   48.7
2019/03/11 15:38:12.400   27.894570717  -82.373419271   -20.7968   1   7   0.0032   0.0029   0.0113   0.0006  -0.0029   0.0006  -0.60   48.8
2019/03/11 15:38:12.600   27.894570716  -82.373419303   -20.7971   1   7   0.0032   0.0029   0.0113   0.0006  -0.0029   0.0006  -0.40   48.9
2019/03/11 15:38:12.800   27.894570708  -82.373419283   -20.8051   1   7   0.0032   0.0030   0.0114   0.0006  -0.0029   0.0005  -0.20   49.1
2019/03/11 15:38:13.000   27.894570714  -82.373419282   -20.8065   1   7   0.0032   0.0029   0.0112   0.0006  -0.0029   0.0006   0.00   49.3
2019/03/11 15:38:13.200   27.894570679  -82.373419326   -20.7979   1   7   0.0032   0.0030   0.0114   0.0006  -0.0029   0.0005  -0.80   49.7
2019/03/11 15:38:13.400   27.894570666  -82.373419321   -20.7980   1   7   0.0032   0.0029   0.0113   0.0006  -0.0029   0.0006  -0.60   50.1
2019/03/11 15:38:13.600   27.894570660  -82.373419303   -20.7997   1   7   0.0032   0.0029   0.0113   0.0006  -0.0029   0.0006  -0.40   50.6
2019/03/11 15:38:13.800   27.894570640  -82.373419313   -20.8084   1   7   0.0032   0.0030   0.0113   0.0006  -0.0029   0.0006  -0.20   51.1
2019/03/11 15:38:14.000   27.894570648  -82.373419310   -20.8155   1   7   0.0032   0.0029   0.0112   0.0006  -0.0029   0.0006   0.00   51.6
2019/03/11 15:38:14.200   27.894570651  -82.373419309   -20.8142   1   7   0.0032   0.0030   0.0113   0.0006  -0.0029   0.0006  -0.80   52.2
2019/03/11 15:38:14.400   27.894570651  -82.373419291   -20.8065   1   7   0.0032   0.0029   0.0113   0.0006  -0.0029   0.0006  -0.60   52.7
2019/03/11 15:38:14.600   27.894570656  -82.373419304   -20.8064   1   7   0.0032   0.0029   0.0113   0.0006  -0.0029   0.0006  -0.40   53.2
2019/03/11 15:38:14.800   27.894570642  -82.373419306   -20.8028   1   7   0.0033   0.0030   0.0113   0.0006  -0.0029   0.0006  -0.20   53.8
2019/03/11 15:38:15.000   27.894570647  -82.373419301   -20.8008   1   7   0.0032   0.0029   0.0112   0.0006  -0.0029   0.0006   0.00   54.2
2019/03/11 15:38:15.200   27.894570659  -82.373419312   -20.7982   1   7   0.0033   0.0030   0.0113   0.0006  -0.0029   0.0006  -0.80   54.6
2019/03/11 15:38:15.400   27.894570672  -82.373419309   -20.7991   1   7   0.0032   0.0029   0.0113   0.0006  -0.0029   0.0006  -0.60   55.1
2019/03/11 15:38:15.600   27.894570663  -82.373419311   -20.8028   1   7   0.0032   0.0029   0.0113   0.0006  -0.0029   0.0006  -0.40   55.6
2019/03/11 15:38:15.800   27.894570661  -82.373419295   -20.8072   1   7   0.0033   0.0030   0.0113   0.0006  -0.0029   0.0006  -0.20   55.9
2019/03/11 15:38:16.000   27.894570659  -82.373419320   -20.8066   1   7   0.0032   0.0029   0.0112   0.0006  -0.0029   0.0006   0.00   56.2
2019/03/11 15:38:16.200   27.894570675  -82.373419323   -20.8067   1   7   0.0033   0.0030   0.0113   0.0006  -0.0029   0.0006  -0.80   56.5
2019/03/11 15:38:16.400   27.894570673  -82.373419312   -20.8050   1   7   0.0032   0.0029   0.0113   0.0006  -0.0029   0.0006  -0.60   56.8
2019/03/11 15:38:16.600   27.894570653  -82.373419311   -20.8066   1   7   0.0032   0.0029   0.0113   0.0006  -0.0029   0.0006  -0.40   57.1
2019/03/11 15:38:16.800   27.894570658  -82.373419308   -20.8020   1   7   0.0033   0.0030   0.0113   0.0006  -0.0029   0.0006  -0.20   57.4
2019/03/11 15:38:17.000   27.894570665  -82.373419298   -20.7984   1   7   0.0032   0.0029   0.0112   0.0006  -0.0029   0.0006   0.00   57.6
2019/03/11 15:38:17.200   27.894570656  -82.373419316   -20.8018   1   7   0.0033   0.0030   0.0113   0.0006  -0.0029   0.0006  -0.80   57.9
2019/03/11 15:38:17.400   27.894570653  -82.373419304   -20.8015   1   7   0.0032   0.0029   0.0113   0.0006  -0.0029   0.0006  -0.60   58.3
2019/03/11 15:38:17.600   27.894570658  -82.373419316   -20.8042   1   7   0.0032   0.0029   0.0113   0.0006  -0.0029   0.0006  -0.40   58.5
2019/03/11 15:38:17.800   27.894570661  -82.373419313   -20.8036   1   7   0.0033   0.0030   0.0113   0.0006  -0.0029   0.0006  -0.20   58.8
2019/03/11 15:38:18.000   27.894570652  -82.373419314   -20.8015   1   7   0.0032   0.0029   0.0112   0.0006  -0.0029   0.0007   0.00   59.0
2019/03/11 15:38:18.200   27.894570655  -82.373419325   -20.7986   1   7   0.0033   0.0030   0.0113   0.0006  -0.0029   0.0006  -0.80   59.2
2019/03/11 15:38:18.400   27.894570661  -82.373419315   -20.8020   1   7   0.0032   0.0029   0.0113   0.0006  -0.0029   0.0006  -0.60   59.6
2019/03/11 15:38:18.600   27.894570684  -82.373419315   -20.8051   1   7   0.0032   0.0029   0.0113   0.0006  -0.0029   0.0006  -0.40   59.9
2019/03/11 15:38:18.800   27.894570700  -82.373419298   -20.8100   1   7   0.0033   0.0030   0.0113   0.0006  -0.0029   0.0006  -0.20   60.2
2019/03/11 15:38:19.000   27.894570696  -82.373419294   -20.8073   1   7   0.0032   0.0029   0.0112   0.0006  -0.0029   0.0007   0.00   60.4
2019/03/11 15:38:19.200   27.894570690  -82.373419296   -20.8062   1   7   0.0033   0.0030   0.0113   0.0006  -0.0029   0.0006  -0.80   60.7
2019/03/11 15:38:19.400   27.894570687  -82.373419298   -20.8094   1   7   0.0032   0.0029   0.0113   0.0006  -0.0029   0.0006  -0.60   61.1
2019/03/11 15:38:19.600   27.894570692  -82.373419288   -20.8140   1   7   0.0032   0.0029   0.0113   0.0006  -0.0029   0.0006  -0.40   61.4
2019/03/11 15:38:19.800   27.894570683  -82.373419294   -20.8132   1   7   0.0033   0.0030   0.0113   0.0006  -0.0029   0.0006  -0.20   61.7
2019/03/11 15:38:20.000   27.894570664  -82.373419280   -20.8157   1   7   0.0032   0.0029   0.0112   0.0006  -0.0029   0.0007   0.00   62.1
2019/03/11 15:38:20.200   27.894570633  -82.373419300   -20.8141   1   7   0.0033   0.0030   0.0113   0.0006  -0.0029   0.0006  -0.80   62.6
2019/03/11 15:38:20.400   27.894570633  -82.373419289   -20.8079   1   7   0.0032   0.0029   0.0113   0.0006  -0.0029   0.0006  -0.60   63.0
2019/03/11 15:38:20.600   27.894570640  -82.373419292   -20.8086   1   7   0.0032   0.0029   0.0113   0.0006  -0.0029   0.0006  -0.40   63.4
2019/03/11 15:38:20.800   27.894570631  -82.373419296   -20.8104   1   7   0.0033   0.0030   0.0113   0.0006  -0.0029   0.0006  -0.20   63.8
2019/03/11 15:38:21.000   27.894570637  -82.373419285   -20.8077   1   7   0.0032   0.0029   0.0112   0.0006  -0.0029   0.0007   0.00   64.2
2019/03/11 15:38:21.200   27.894570627  -82.373419294   -20.8026   1   7   0.0033   0.0030   0.0113   0.0006  -0.0029   0.0006  -0.80   64.6
2019/03/11 15:38:21.400   27.894570633  -82.373419283   -20.7988   1   7   0.0032   0.0029   0.0113   0.0006  -0.0029   0.0006  -0.60   64.9
2019/03/11 15:38:21.600   27.894570629  -82.373419299   -20.7945   1   7   0.0032   0.0029   0.0113   0.0006  -0.0029   0.0006  -0.40   65.4
2019/03/11 15:38:21.800   27.894570620  -82.373419330   -20.7947   1   7   0.0033   0.0030   0.0113   0.0006  -0.0029   0.0006  -0.20   65.9
2019/03/11 15:38:22.000   27.894570610  -82.373419331   -20.8001   1   7   0.0032   0.0029   0.0112   0.0006  -0.0029   0.0007   0.00   66.3
2019/03/11 15:38:22.200   27.894570580  -82.373419324   -20.8042   1   7   0.0033   0.0030   0.0114   0.0006  -0.0029   0.0011  -0.80   66.6
2019/03/11 15:38:22.400   27.894570570  -82.373419316   -20.8141   1   7   0.0033   0.0029   0.0114   0.0006  -0.0029   0.0012  -0.60   66.8
2019/03/11 15:38:22.600   27.894570596  -82.373419296   -20.8098   1   7   0.0033   0.0029   0.0115   0.0006  -0.0029   0.0014  -0.40   66.5
2019/03/11 15:38:22.800   27.894570622  -82.373419296   -20.7943   1   7   0.0034   0.0030   0.0116   0.0006  -0.0029   0.0017  -0.20   65.9
2019/03/11 15:38:23.000   27.894570677  -82.373419283   -20.7825   1   7   0.0034   0.0029   0.0116   0.0007  -0.0028   0.0019   0.00   64.9
2019/03/11 15:38:23.200   27.894570604  -82.373419300   -20.7998   1   7   0.0038   0.0030   0.0122   0.0009  -0.0028   0.0030  -0.80  173.2
2019/03/11 15:38:23.400   27.894570581  -82.373419306   -20.8135   1   7   0.0038   0.0030   0.0122   0.0009  -0.0027   0.0030  -0.60  173.5
2019/03/11 15:38:23.600   27.894570589  -82.373419301   -20.8108   1   7   0.0038   0.0030   0.0122   0.0009  -0.0027   0.0030  -0.40  174.2
2019/03/11 15:38:23.800   27.894570598  -82.373419291   -20.8188   1   7   0.0038   0.0030   0.0122   0.0009  -0.0028   0.0030  -0.20  174.8
2019/03/11 15:38:24.000   27.894570625  -82.373419296   -20.8198   1   7   0.0037   0.0029   0.0121   0.0008  -0.0027   0.0030   0.00  174.6
2019/03/11 15:38:24.200   27.894570595  -82.373419305   -20.8218   1   7   0.0038   0.0030   0.0122   0.0009  -0.0028   0.0030  -0.80  175.0
2019/03/11 15:38:24.400   27.894570585  -82.373419291   -20.8186   1   7   0.0038   0.0030   0.0122   0.0009  -0.0027   0.0030  -0.60  175.0
2019/03/11 15:38:24.600   27.894570646  -82.373419321   -20.8060   1   7   0.0038   0.0029   0.0122   0.0009  -0.0027   0.0030  -0.40  176.0
2019/03/11 15:38:24.800   27.894570632  -82.373419345   -20.7872   1   7   0.0038   0.0030   0.0123   0.0009  -0.0028   0.0029  -0.20  175.5
2019/03/11 15:38:25.000   27.894570619  -82.373419328   -20.7789   1   7   0.0038   0.0029   0.0122   0.0009  -0.0028   0.0029   0.00  176.1
2019/03/11 15:38:25.200   27.894570597  -82.373419340   -20.7703   1   7   0.0040   0.0030   0.0128   0.0011  -0.0029   0.0029  -0.80  176.8
2019/03/11 15:38:25.400   27.894570594  -82.373419373   -20.7880   1   7   0.0041   0.0030   0.0128   0.0011  -0.0029   0.0029  -0.60  176.7
2019/03/11 15:38:25.600   27.894570499  -82.373419320   -20.7965   1   7   0.0041   0.0030   0.0129   0.0011  -0.0029   0.0030  -0.40  176.8
2019/03/11 15:38:25.800   27.894570566  -82.373419329   -20.8002   1   7   0.0042   0.0030   0.0131   0.0011  -0.0029   0.0032  -0.20  177.0
2019/03/11 15:38:26.000   27.894570660  -82.373419301   -20.8002   1   7   0.0042   0.0030   0.0132   0.0012  -0.0028   0.0034   0.00  177.4
2019/03/11 15:38:26.200   27.894570678  -82.373419253   -20.7854   1   7   0.0044   0.0030   0.0135   0.0013  -0.0028   0.0036  -0.80  178.3
2019/03/11 15:38:26.400   27.894570676  -82.373419215   -20.7900   1   7   0.0039   0.0030   0.0131   0.0011  -0.0031   0.0021  -0.60  178.9
2019/03/11 15:38:26.600   27.894570687  -82.373419213   -20.7901   1   7   0.0039   0.0030   0.0134   0.0011  -0.0032   0.0019  -0.40  180.0
2019/03/11 15:38:26.800   27.894570631  -82.373419265   -20.7821   1   7   0.0040   0.0030   0.0137   0.0012  -0.0033   0.0013  -0.20  181.0
2019/03/11 15:38:27.000   27.894570493  -82.373419340   -20.6962   1   7   0.0040   0.0030   0.0136   0.0012  -0.0033  -0.0007   0.00  178.9
2019/03/11 15:38:27.200   27.894570605  -82.373419343   -20.5583   1   7   0.0041   0.0030   0.0137   0.0013  -0.0033  -0.0008  -0.80  132.6
2019/03/11 15:38:27.400   27.894570857  -82.373419391   -20.3288   1   7   0.0039   0.0030   0.0137   0.0012  -0.0033   0.0013  -0.60  131.2
2019/03/11 15:38:27.600   27.894571317  -82.373419653   -20.1203   1   7   0.0038   0.0030   0.0125   0.0009  -0.0029   0.0027  -0.40    4.6
2019/03/11 15:38:27.800   27.894571615  -82.373420164   -19.9368   1   7   0.0038   0.0030   0.0125   0.0009  -0.0028   0.0027  -0.20    5.6
2019/03/11 15:38:28.000   27.894571978  -82.373420769   -19.8039   1   7   0.0037   0.0029   0.0121   0.0008  -0.0027   0.0030   0.00   10.0
2019/03/11 15:38:28.200   27.894572630  -82.373421471   -19.7728   1   7   0.0038   0.0030   0.0122   0.0009  -0.0028   0.0030  -0.80   12.2
2019/03/11 15:38:28.400   27.894573541  -82.373421972   -19.7773   1   7   0.0038   0.0029   0.0122   0.0009  -0.0027   0.0030  -0.60   14.3
2019/03/11 15:38:28.600   27.894574648  -82.373422152   -19.7722   1   7   0.0038   0.0029   0.0122   0.0009  -0.0027   0.0030  -0.40   16.5
2019/03/11 15:38:28.800   27.894575567  -82.373422208   -19.7575   1   7   0.0038   0.0030   0.0122   0.0009  -0.0028   0.0030  -0.20   18.3
2019/03/11 15:38:29.000   27.894576353  -82.373422358   -19.7509   1   7   0.0037   0.0029   0.0121   0.0008  -0.0027   0.0030   0.00   20.2
2019/03/11 15:38:29.200   27.894576882  -82.373422489   -19.7750   1   7   0.0038   0.0030   0.0122   0.0009  -0.0028   0.0030  -0.80   22.3
2019/03/11 15:38:29.400   27.894577153  -82.373422391   -19.8043   1   7   0.0038   0.0029   0.0122   0.0009  -0.0027   0.0030  -0.60   24.3
2019/03/11 15:38:29.600   27.894577234  -82.373422310   -19.8419   1   7   0.0038   0.0029   0.0122   0.0009  -0.0027   0.0030  -0.40   25.9
2019/03/11 15:38:29.800   27.894577303  -82.373422226   -19.8811   1   7   0.0038   0.0030   0.0122   0.0009  -0.0028   0.0030  -0.20   27.7
2019/03/11 15:38:30.000   27.894577333  -82.373422126   -19.9132   1   7   0.0037   0.0029   0.0121   0.0008  -0.0027   0.0030   0.00   29.3
2019/03/11 15:38:30.200   27.894577361  -82.373422049   -19.9407   1   7   0.0038   0.0030   0.0122   0.0009  -0.0028   0.0030  -0.80   30.8
2019/03/11 15:38:30.400   27.894577354  -82.373422031   -19.9472   1   7   0.0038   0.0029   0.0122   0.0009  -0.0027   0.0030  -0.60   32.1
2019/03/11 15:38:30.600   27.894577389  -82.373422099   -19.9491   1   7   0.0038   0.0029   0.0122   0.0009  -0.0027   0.0030  -0.40   33.2
2019/03/11 15:38:30.800   27.894577400  -82.373422095   -19.9465   1   7   0.0038   0.0030   0.0122   0.0009  -0.0028   0.0030  -0.20   34.2
2019/03/11 15:38:31.000   27.894577407  -82.373422100   -19.9467   1   7   0.0037   0.0029   0.0121   0.0008  -0.0027   0.0030   0.00   35.4
2019/03/11 15:38:31.200   27.894577388  -82.373422165   -19.9784   1   7   0.0038   0.0030   0.0122   0.0009  -0.0028   0.0030  -0.80   37.0
2019/03/11 15:38:31.400   27.894577427  -82.373422188   -19.9871   1   7   0.0038   0.0029   0.0122   0.0009  -0.0027   0.0030  -0.60   38.5
2019/03/11 15:38:31.600   27.894577454  -82.373422099   -20.0005   1   7   0.0038   0.0029   0.0122   0.0009  -0.0027   0.0030  -0.40   40.6
2019/03/11 15:38:31.800   27.894577444  -82.373422178   -19.9978   1   7   0.0038   0.0030   0.0122   0.0009  -0.0027   0.0030  -0.20   42.0
2019/03/11 15:38:32.000   27.894577472  -82.373422167   -19.9770   1   7   0.0037   0.0029   0.0121   0.0008  -0.0027   0.0030   0.00   43.4
2019/03/11 15:38:32.200   27.894577480  -82.373422144   -19.9733   1   7   0.0038   0.0030   0.0122   0.0009  -0.0027   0.0030  -0.80   44.7
2019/03/11 15:38:32.400   27.894577485  -82.373422155   -19.9733   1   7   0.0038   0.0029   0.0122   0.0009  -0.0027   0.0030  -0.60   46.3
2019/03/11 15:38:32.600   27.894577466  -82.373422127   -19.9791   1   7   0.0038   0.0029   0.0122   0.0009  -0.0027   0.0030  -0.40   48.1
2019/03/11 15:38:32.800   27.894577467  -82.373422139   -19.9787   1   7   0.0038   0.0030   0.0122   0.0009  -0.0027   0.0030  -0.20   50.0
2019/03/11 15:38:33.000   27.894577443  -82.373422163   -19.9763   1   7   0.0037   0.0029   0.0121   0.0008  -0.0027   0.0030   0.00   51.9
2019/03/11 15:38:33.200   27.894577448  -82.373422139   -19.9753   1   7   0.0038   0.0030   0.0122   0.0009  -0.0027   0.0030  -0.80   53.8
2019/03/11 15:38:33.400   27.894577443  -82.373422154   -19.9772   1   7   0.0038   0.0029   0.0122   0.0009  -0.0027   0.0030  -0.60   55.6
2019/03/11 15:38:33.600   27.894577446  -82.373422148   -19.9789   1   7   0.0038   0.0029   0.0122   0.0009  -0.0027   0.0030  -0.40   57.2
2019/03/11 15:38:33.800   27.894577458  -82.373422130   -19.9828   1   7   0.0038   0.0030   0.0122   0.0009  -0.0027   0.0030  -0.20   59.0
2019/03/11 15:38:34.000   27.894577476  -82.373422129   -19.9786   1   7   0.0037   0.0029   0.0121   0.0008  -0.0027   0.0030   0.00   95.9
2019/03/11 15:38:34.200   27.894577468  -82.373422113   -19.9790   1   7   0.0036   0.0030   0.0122   0.0007  -0.0028   0.0027  -0.80   98.2
2019/03/11 15:38:34.400   27.894577463  -82.373422133   -19.9775   1   7   0.0033   0.0029   0.0115   0.0006  -0.0029   0.0014  -0.60    4.9
2019/03/11 15:38:34.600   27.894577472  -82.373422141   -19.9767   1   7   0.0033   0.0029   0.0114   0.0006  -0.0029   0.0013  -0.40    6.1
2019/03/11 15:38:34.800   27.894577491  -82.373422140   -19.9709   1   7   0.0033   0.0030   0.0113   0.0006  -0.0029   0.0007  -0.20    9.1
2019/03/11 15:38:35.000   27.894577488  -82.373422143   -19.9743   1   7   0.0032   0.0029   0.0112   0.0006  -0.0029   0.0007   0.00   10.6
2019/03/11 15:38:35.200   27.894577483  -82.373422130   -19.9798   1   7   0.0033   0.0030   0.0113   0.0006  -0.0029   0.0007  -0.80   12.1
2019/03/11 15:38:35.400   27.894577482  -82.373422137   -19.9779   1   7   0.0032   0.0029   0.0113   0.0006  -0.0029   0.0007  -0.60   13.6
2019/03/11 15:38:35.600   27.894577475  -82.373422149   -19.9750   1   7   0.0032   0.0029   0.0113   0.0006  -0.0029   0.0007  -0.40   15.0
2019/03/11 15:38:35.800   27.894577469  -82.373422126   -19.9695   1   7   0.0033   0.0030   0.0113   0.0006  -0.0029   0.0007  -0.20   16.5
2019/03/11 15:38:36.000   27.894577467  -82.373422156   -19.9712   1   7   0.0032   0.0029   0.0112   0.0006  -0.0029   0.0007   0.00   18.0
2019/03/11 15:38:36.200   27.894577451  -82.373422133   -19.9764   1   7   0.0033   0.0030   0.0113   0.0006  -0.0029   0.0007  -0.80   19.5
2019/03/11 15:38:36.400   27.894577449  -82.373422132   -19.9817   1   7   0.0032   0.0029   0.0113   0.0006  -0.0029   0.0007  -0.60   20.9
2019/03/11 15:38:36.600   27.894577427  -82.373422126   -19.9877   1   7   0.0032   0.0029   0.0113   0.0006  -0.0029   0.0007  -0.40   22.2
2019/03/11 15:38:36.800   27.894577424  -82.373422143   -19.9777   1   7   0.0033   0.0030   0.0113   0.0006  -0.0029   0.0007  -0.20   23.5
2019/03/11 15:38:37.000   27.894577401  -82.373422124   -19.9872   1   7   0.0032   0.0029   0.0112   0.0006  -0.0028   0.0007   0.00   24.9
2019/03/11 15:38:37.200   27.894577449  -82.373422162   -19.9505   1   7   0.0033   0.0030   0.0113   0.0006  -0.0029   0.0007  -0.80   25.9
2019/03/11 15:38:37.400   27.894577462  -82.373422186   -19.9303   1   7   0.0032   0.0029   0.0113   0.0006  -0.0029   0.0007  -0.60   26.8
2019/03/11 15:38:37.600   27.894577433  -82.373422181   -19.9315   1   7   0.0033   0.0029   0.0115   0.0006  -0.0029   0.0014  -0.40   28.0
2019/03/11 15:38:37.800   27.894577414  -82.373422149   -19.9466   1   7   0.0034   0.0030   0.0116   0.0006  -0.0029   0.0017  -0.20   29.1
2019/03/11 15:38:38.000   27.894577433  -82.373422138   -19.9525   1   7   0.0034   0.0029   0.0116   0.0007  -0.0028   0.0020   0.00   29.9
2019/03/11 15:38:38.200   27.894577361  -82.373422165   -19.9659   1   7   0.0038   0.0030   0.0122   0.0009  -0.0027   0.0030  -0.80   24.6
2019/03/11 15:38:38.400   27.894577404  -82.373422160   -19.9541   1   7   0.0038   0.0029   0.0122   0.0009  -0.0027   0.0030  -0.60   25.0
2019/03/11 15:38:38.600   27.894577444  -82.373422146   -19.9533   1   7   0.0038   0.0029   0.0122   0.0009  -0.0027   0.0030  -0.40   25.3
2019/03/11 15:38:38.800   27.894577412  -82.373422156   -19.9572   1   7   0.0038   0.0030   0.0122   0.0009  -0.0027   0.0030  -0.20   25.7
2019/03/11 15:38:39.000   27.894577399  -82.373422149   -19.9606   1   7   0.0037   0.0029   0.0121   0.0008  -0.0027   0.0030   0.00   26.0
2019/03/11 15:38:39.200   27.894577414  -82.373422123   -19.9566   1   7   0.0038   0.0030   0.0122   0.0009  -0.0027   0.0030  -0.80   26.4
2019/03/11 15:38:39.400   27.894577412  -82.373422139   -19.9600   1   7   0.0038   0.0029   0.0122   0.0009  -0.0027   0.0030  -0.60   26.6
2019/03/11 15:38:39.600   27.894577402  -82.373422140   -19.9602   1   7   0.0038   0.0029   0.0122   0.0009  -0.0027   0.0030  -0.40   27.0
2019/03/11 15:38:39.800   27.894577375  -82.373422110   -19.9609   1   7   0.0038   0.0030   0.0122   0.0009  -0.0027   0.0030  -0.20   27.5
2019/03/11 15:38:40.000   27.894577393  -82.373422049   -19.9526   1   7   0.0037   0.0029   0.0121   0.0008  -0.0027   0.0030   0.00   27.9
2019/03/11 15:38:40.200   27.894577373  -82.373422026   -19.9494   1   7   0.0038   0.0030   0.0122   0.0009  -0.0027   0.0030  -0.80   28.4
2019/03/11 15:38:40.400   27.894577349  -82.373422001   -19.9354   1   7   0.0038   0.0029   0.0122   0.0009  -0.0027   0.0030  -0.60   29.1
2019/03/11 15:38:40.600   27.894577255  -82.373421890   -19.8950   1   7   0.0038   0.0029   0.0122   0.0009  -0.0027   0.0030  -0.40   29.6
2019/03/11 15:38:40.800   27.894576933  -82.373421775   -19.8540   1   7   0.0038   0.0030   0.0122   0.0009  -0.0027   0.0030  -0.20   30.0
2019/03/11 15:38:41.000   27.894576374  -82.373421645   -19.8062   1   7   0.0037   0.0029   0.0121   0.0008  -0.0027   0.0030   0.00   31.1
2019/03/11 15:38:41.200   27.894575426  -82.373421428   -19.7533   1   7   0.0038   0.0030   0.0122   0.0009  -0.0027   0.0030  -0.80   32.1
2019/03/11 15:38:41.400   27.894574249  -82.373421194   -19.7339   1   7   0.0038   0.0029   0.0122   0.0009  -0.0027   0.0030  -0.60   33.2
2019/03/11 15:38:41.600   27.894573025  -82.373420970   -19.7429   1   7   0.0038   0.0029   0.0122   0.0009  -0.0027   0.0030  -0.40   34.4
2019/03/11 15:38:41.800   27.894571979  -82.373420971   -19.8041   1   7   0.0038   0.0030   0.0122   0.0009  -0.0027   0.0030  -0.20   34.8
2019/03/11 15:38:42.000   27.894571373  -82.373421080   -19.9008   1   7   0.0037   0.0029   0.0121   0.0008  -0.0027   0.0030   0.00   33.9
2019/03/11 15:38:42.200   27.894570953  -82.373421136   -20.0687   1   7   0.0038   0.0030   0.0122   0.0009  -0.0027   0.0030  -0.80   33.1
2019/03/11 15:38:42.400   27.894570577  -82.373420898   -20.3143   1   7   0.0038   0.0029   0.0122   0.0009  -0.0027   0.0030  -0.60   33.9
2019/03/11 15:38:42.600   27.894570225  -82.373420408   -20.5411   1   7   0.0038   0.0029   0.0122   0.0009  -0.0027   0.0030  -0.40   35.2
2019/03/11 15:38:42.800   27.894570048  -82.373420026   -20.7062   1   7   0.0038   0.0030   0.0122   0.0009  -0.0027   0.0030  -0.20   37.3
2019/03/11 15:38:43.000   27.894570251  -82.373419784   -20.7442   1   7   0.0036   0.0029   0.0118   0.0007  -0.0028   0.0025   0.00   38.8
2019/03/11 15:38:43.200   27.894570372  -82.373419647   -20.7813   1   7   0.0035   0.0030   0.0120   0.0007  -0.0028   0.0024  -0.80   39.9
2019/03/11 15:38:43.400   27.894570440  -82.373419638   -20.8032   1   7   0.0036   0.0029   0.0119   0.0007  -0.0028   0.0025  -0.60   41.2
2019/03/11 15:38:43.600   27.894570455  -82.373419503   -20.8116   1   7   0.0038   0.0029   0.0121   0.0009  -0.0027   0.0030  -0.40   42.2
2019/03/11 15:38:43.800   27.894570433  -82.373419506   -20.8190   1   7   0.0038   0.0030   0.0122   0.0009  -0.0027   0.0030  -0.20   43.3
2019/03/11 15:38:44.000   27.894570425  -82.373419594   -20.8148   1   7   0.0037   0.0029   0.0121   0.0008  -0.0027   0.0030   0.00   45.3
2019/03/11 15:38:44.200   27.894570421  -82.373419585   -20.7952   1   7   0.0038   0.0030   0.0122   0.0009  -0.0027   0.0030  -0.80   46.8
2019/03/11 15:38:44.400   27.894570465  -82.373419536   -20.8322   1   7   0.0038   0.0029   0.0122   0.0009  -0.0027   0.0030  -0.60   48.8
2019/03/11 15:38:44.600   27.894570394  -82.373419414   -20.8418   1   7   0.0038   0.0029   0.0122   0.0009  -0.0027   0.0030  -0.40   49.0
2019/03/11 15:38:44.800   27.894570367  -82.373419521   -20.8060   1   7   0.0038   0.0030   0.0122   0.0009  -0.0027   0.0030  -0.20   48.8
2019/03/11 15:38:45.000   27.894570373  -82.373419540   -20.7917   1   7   0.0037   0.0029   0.0121   0.0008  -0.0027   0.0030   0.00   49.2
2019/03/11 15:38:45.200   27.894570379  -82.373419567   -20.8021   1   7   0.0038   0.0030   0.0122   0.0009  -0.0027   0.0030  -0.80   49.8
2019/03/11 15:38:45.400   27.894570395  -82.373419568   -20.7933   1   7   0.0039   0.0029   0.0124   0.0009  -0.0027   0.0033  -0.60   50.6
2019/03/11 15:38:45.600   27.894570440  -82.373419509   -20.7853   1   7   0.0039   0.0029   0.0124   0.0009  -0.0027   0.0034  -0.40   51.4
2019/03/11 15:38:45.800   27.894570450  -82.373419263   -20.7830   1   7   0.0039   0.0030   0.0124   0.0009  -0.0027   0.0034  -0.20   51.8
2019/03/11 15:38:46.000   27.894570456  -82.373419370   -20.7749   1   7   0.0037   0.0029   0.0121   0.0008  -0.0027   0.0030   0.00   52.2
2019/03/11 15:38:46.200   27.894570617  -82.373419431   -20.8437   1   7   0.0037   0.0030   0.0122   0.0008  -0.0028   0.0029  -0.80   53.6
2019/03/11 15:38:46.400   27.894570581  -82.373419389   -20.8369   1   7   0.0036   0.0029   0.0122   0.0007  -0.0028   0.0029  -0.60   56.0
2019/03/11 15:38:46.600   27.894570531  -82.373419511   -20.8262   1   7   0.0037   0.0029   0.0123   0.0008  -0.0027   0.0031  -0.40   57.5
2019/03/11 15:38:46.800   27.894570561  -82.373419422   -20.8013   1   7   0.0039   0.0030   0.0124   0.0009  -0.0027   0.0033  -0.20   59.0
2019/03/11 15:38:47.000   27.894570513  -82.373419314   -20.8082   1   7   0.0037   0.0029   0.0121   0.0008  -0.0027   0.0030   0.00   60.2
2019/03/11 15:38:47.200   27.894570598  -82.373419267   -20.8038   1   7   0.0038   0.0030   0.0122   0.0009  -0.0027   0.0030  -0.80   61.3
2019/03/11 15:38:47.400   27.894570676  -82.373419248   -20.8168   1   7   0.0038   0.0029   0.0122   0.0009  -0.0027   0.0030  -0.60   62.5
2019/03/11 15:38:47.600   27.894570642  -82.373419194   -20.8132   1   7   0.0038   0.0029   0.0122   0.0009  -0.0027   0.0030  -0.40   63.0
2019/03/11 15:38:47.800   27.894570732  -82.373419322   -20.8106   1   7   0.0038   0.0030   0.0122   0.0009  -0.0027   0.0030  -0.20   63.7
2019/03/11 15:38:48.000   27.894570716  -82.373419286   -20.8601   1   7   0.0037   0.0029   0.0121   0.0008  -0.0027   0.0030   0.00   65.5
2019/03/11 15:38:48.200   27.894570739  -82.373419283   -20.8769   1   7   0.0038   0.0030   0.0122   0.0009  -0.0027   0.0030  -0.80   67.1
2019/03/11 15:38:48.400   27.894570758  -82.373419246   -20.8753   1   7   0.0038   0.0029   0.0122   0.0009  -0.0027   0.0030  -0.60   68.5
2019/03/11 15:38:48.600   27.894570730  -82.373419324   -20.8568   1   7   0.0038   0.0029   0.0122   0.0009  -0.0027   0.0030  -0.40   70.0
2019/03/11 15:38:48.800   27.894570562  -82.373419282   -20.8575   1   7   0.0038   0.0030   0.0122   0.0009  -0.0027   0.0030  -0.20   70.5
2019/03/11 15:38:49.000   27.894570606  -82.373419119   -20.8551   1   7   0.0037   0.0029   0.0121   0.0008  -0.0027   0.0030   0.00   70.2
2019/03/11 15:38:49.200   27.894570625  -82.373419205   -20.8099   1   7   0.0038   0.0030   0.0122   0.0009  -0.0027   0.0030  -0.80   70.6
2019/03/11 15:38:49.400   27.894570629  -82.373419263   -20.8026   1   7   0.0038   0.0029   0.0122   0.0009  -0.0027   0.0030  -0.60   71.2
2019/03/11 15:38:49.600   27.894570653  -82.373419297   -20.8058   1   7   0.0038   0.0029   0.0122   0.0009  -0.0027   0.0030  -0.40   72.1
2019/03/11 15:38:49.800   27.894570666  -82.373419312   -20.8097   1   7   0.0039   0.0030   0.0124   0.0009  -0.0027   0.0033  -0.20   73.0
2019/03/11 15:38:50.000   27.894570664  -82.373419294   -20.8085   1   7   0.0039   0.0029   0.0123   0.0009  -0.0026   0.0033   0.00   73.6
2019/03/11 15:38:50.200   27.894570668  -82.373419274   -20.8035   1   7   0.0039   0.0030   0.0125   0.0009  -0.0027   0.0034  -0.80   74.1
2019/03/11 15:38:50.400   27.894570648  -82.373419313   -20.8009   1   7   0.0039   0.0029   0.0125   0.0009  -0.0026   0.0035  -0.60   74.1
2019/03/11 15:38:50.600   27.894570617  -82.373419188   -20.8568   1   7   0.0040   0.0029   0.0125   0.0009  -0.0026   0.0036  -0.40   74.2
2019/03/11 15:38:50.800   27.894570714  -82.373419174   -20.8609   1   7   0.0040   0.0030   0.0128   0.0009  -0.0026   0.0037  -0.20   75.1
2019/03/11 15:38:51.000   27.894570689  -82.373419121   -20.8481   1   7   0.0041   0.0029   0.0128   0.0010  -0.0026   0.0040   0.00   76.0
2019/03/11 15:38:51.200   27.894570648  -82.373419021   -20.8333   1   7   0.0051   0.0030   0.0145   0.0014  -0.0021   0.0060  -0.80  158.3
2019/03/11 15:38:51.400   27.894570639  -82.373418992   -20.8409   1   7   0.0041   0.0029   0.0129   0.0010  -0.0026   0.0040  -0.60  157.5
2019/03/11 15:38:51.600   27.894570647  -82.373418870   -20.8398   1   7   0.0038   0.0029   0.0122   0.0009  -0.0027   0.0030  -0.40    3.3
2019/03/11 15:38:51.800   27.894570630  -82.373418671   -20.8378   1   7   0.0038   0.0030   0.0122   0.0009  -0.0027   0.0030  -0.20    3.9
2019/03/11 15:38:52.000   27.894570669  -82.373418696   -20.8417   1   7   0.0037   0.0029   0.0121   0.0008  -0.0027   0.0030   0.00    4.5
2019/03/11 15:38:52.200   27.894570639  -82.373418664   -20.8487   1   7   0.0038   0.0030   0.0122   0.0009  -0.0027   0.0030  -0.80    5.1
2019/03/11 15:38:52.400   27.894570644  -82.373418703   -20.8578   1   7   0.0038   0.0029   0.0122   0.0009  -0.0027   0.0030  -0.60    5.8
2019/03/11 15:38:52.600   27.894570659  -82.373418715   -20.8563   1   7   0.0038   0.0029   0.0122   0.0009  -0.0027   0.0030  -0.40    6.5
2019/03/11 15:38:52.800   27.894570694  -82.373418685   -20.8608   1   7   0.0038   0.0030   0.0122   0.0009  -0.0027   0.0030  -0.20    7.0
2019/03/11 15:38:53.000   27.894570751  -82.373418700   -20.8498   1   7   0.0037   0.0029   0.0121   0.0008  -0.0027   0.0030   0.00    7.5
2019/03/11 15:38:53.200   27.894570744  -82.373418729   -20.8497   1   7   0.0038   0.0030   0.0122   0.0009  -0.0027   0.0030  -0.80    7.9
2019/03/11 15:38:53.400   27.894570703  -82.373418723   -20.8482   1   7   0.0038   0.0029   0.0122   0.0009  -0.0027   0.0030  -0.60    8.3
2019/03/11 15:38:53.600   27.894570717  -82.373418755   -20.8430   1   7   0.0038   0.0029   0.0122   0.0009  -0.0027   0.0030  -0.40    8.7
2019/03/11 15:38:53.800   27.894570706  -82.373418835   -20.8427   1   7   0.0038   0.0030   0.0122   0.0009  -0.0027   0.0030  -0.20    9.0
2019/03/11 15:38:54.000   27.894570683  -82.373418883   -20.8507   1   7   0.0037   0.0029   0.0121   0.0008  -0.0027   0.0030   0.00    9.3
2019/03/11 15:38:54.200   27.894570688  -82.373418926   -20.8549   1   7   0.0038   0.0030   0.0122   0.0009  -0.0027   0.0030  -0.80    9.5
2019/03/11 15:38:54.400   27.894570717  -82.373418866   -20.8466   1   7   0.0038   0.0029   0.0122   0.0009  -0.0027   0.0030  -0.60    9.7
2019/03/11 15:38:54.600   27.894570671  -82.373418946   -20.8535   1   7   0.0038   0.0029   0.0122   0.0009  -0.0027   0.0030  -0.40   10.0
2019/03/11 15:38:54.800   27.894570683  -82.373418844   -20.8607   1   7   0.0038   0.0030   0.0122   0.0009  -0.0027   0.0030  -0.20   10.1
