% program   : RTKPOST ver.demo5 b31
% inp file  : D:\Data\Fla\Tampa-StPete-area\WGI-larrysanders\2019\0311\GPS\UAS\GP175014.obs
% inp file  : D:\Data\Fla\Tampa-StPete-area\WGI-larrysanders\2019\0311\GPS\FLD7\fld7070o00.19o
% inp file  : D:\Data\Fla\Tampa-StPete-area\WGI-larrysanders\2019\0311\GPS\ZEFR\zefr0700.19n
% inp file  : D:\Data\Fla\Tampa-StPete-area\WGI-larrysanders\2019\0311\GPS\ZEFR\igu20441_18.sp3
% inp file  : D:\Data\Fla\Tampa-StPete-area\WGI-larrysanders\2019\0311\GPS\ZEFR\zefr0700.19g
% obs start : 2019/03/11 17:50:15.5 UTC (week2044 150633.5s)
% obs end   : 2019/03/11 18:05:51.8 UTC (week2044 151569.8s)
% pos mode  : kinematic
% freqs     : L1+L2
% solution  : combined
% elev mask : 15.0 deg
% dynamics  : on
% tidecorr  : off
% ionos opt : broadcast
% tropo opt : saastamoinen
% ephemeris : precise
% navi sys  : gps glonass sbas
% amb res   : continuous
% amb glo   : fix and hold
% val thres : 3.0
% antenna1  :                       ( 0.0000  0.0000  0.0000)
% antenna2  :                       ( 0.0000  0.0000  0.0000)
% ref pos   : 27.969540778  -82.364053375   -12.8370
%
% (lat/lon/height=WGS84/ellipsoidal,Q=1:fix,2:float,3:sbas,4:dgps,5:single,6:ppp,ns=# of satellites)
%  UTC                   latitude(deg) longitude(deg)  height(m)   Q  ns   sdn(m)   sde(m)   sdu(m)  sdne(m)  sdeu(m)  sdun(m) age(s)  ratio
2019/03/11 17:50:15.500   27.894564689  -82.373415457   -19.5415   1   6   0.0148   0.0125   0.0488  -0.0117   0.0166  -0.0234   0.50   52.8
2019/03/11 17:50:16.000   27.894566217  -82.373416818   -19.7770   1   6   0.0155   0.0103   0.0578  -0.0132   0.0189  -0.0292   0.00   34.8
2019/03/11 17:50:27.000   27.894570744  -82.373420241   -20.8103   1   8   0.0049   0.0055   0.0116  -0.0029   0.0014  -0.0052   0.00   14.7
2019/03/11 17:50:27.200   27.894570750  -82.373420241   -20.8155   1   8   0.0049   0.0056   0.0117  -0.0029   0.0016  -0.0052   0.20   14.7
2019/03/11 17:50:27.400   27.894570753  -82.373420240   -20.8164   1   8   0.0050   0.0056   0.0118  -0.0030   0.0018  -0.0053   0.40   14.7
2019/03/11 17:50:27.600   27.894570760  -82.373420257   -20.8150   1   8   0.0051   0.0056   0.0120  -0.0031   0.0022  -0.0055   0.60   14.6
2019/03/11 17:50:27.800   27.894570758  -82.373420237   -20.8183   1   8   0.0053   0.0058   0.0124  -0.0034   0.0029  -0.0059   0.80   14.6
2019/03/11 17:50:28.000   27.894570765  -82.373420235   -20.8133   1   8   0.0055   0.0060   0.0126  -0.0037   0.0036  -0.0063   0.00   14.6
2019/03/11 17:50:28.200   27.894570788  -82.373420269   -20.8225   1   8   0.0043   0.0052   0.0107  -0.0019  -0.0028  -0.0040   0.20   12.3
2019/03/11 17:50:28.400   27.894570789  -82.373420264   -20.8231   1   8   0.0043   0.0052   0.0106  -0.0019  -0.0027  -0.0039   0.40   12.3
2019/03/11 17:50:28.600   27.894570772  -82.373420279   -20.8226   1   8   0.0043   0.0052   0.0106  -0.0019  -0.0027  -0.0039   0.60   12.2
2019/03/11 17:50:28.800   27.894570773  -82.373420267   -20.8227   1   8   0.0043   0.0052   0.0107  -0.0019  -0.0028  -0.0039   0.80   12.2
2019/03/11 17:50:29.000   27.894570769  -82.373420256   -20.8190   1   8   0.0043   0.0052   0.0106  -0.0019  -0.0027  -0.0039   0.00   12.2
2019/03/11 17:50:29.200   27.894570753  -82.373420259   -20.8194   1   8   0.0043   0.0052   0.0107  -0.0019  -0.0028  -0.0040   0.20   12.1
2019/03/11 17:50:29.400   27.894570779  -82.373420266   -20.8214   1   8   0.0043   0.0052   0.0106  -0.0019  -0.0027  -0.0039   0.40   12.1
2019/03/11 17:50:29.600   27.894570776  -82.373420273   -20.8206   1   8   0.0043   0.0052   0.0106  -0.0019  -0.0027  -0.0039   0.60   12.1
2019/03/11 17:50:29.800   27.894570762  -82.373420298   -20.8166   1   8   0.0043   0.0052   0.0107  -0.0019  -0.0028  -0.0039   0.80   12.0
2019/03/11 17:50:30.000   27.894570771  -82.373420289   -20.8163   1   8   0.0043   0.0052   0.0106  -0.0019  -0.0027  -0.0039   0.00   12.0
2019/03/11 17:50:30.200   27.894570767  -82.373420283   -20.8162   1   8   0.0043   0.0052   0.0107  -0.0019  -0.0028  -0.0040   0.20   11.9
2019/03/11 17:50:30.400   27.894570771  -82.373420289   -20.8177   1   8   0.0043   0.0052   0.0106  -0.0019  -0.0027  -0.0039   0.40   11.9
2019/03/11 17:50:30.600   27.894570760  -82.373420279   -20.8156   1   8   0.0043   0.0052   0.0106  -0.0019  -0.0027  -0.0039   0.60   11.8
2019/03/11 17:50:30.800   27.894570764  -82.373420293   -20.8156   1   8   0.0043   0.0052   0.0107  -0.0019  -0.0028  -0.0040   0.80   11.8
2019/03/11 17:50:31.000   27.894570761  -82.373420293   -20.8190   1   8   0.0043   0.0052   0.0106  -0.0019  -0.0027  -0.0039   0.00   11.7
2019/03/11 17:50:31.200   27.894570759  -82.373420285   -20.8193   1   8   0.0045   0.0054   0.0111  -0.0020  -0.0029  -0.0040   0.20   11.7
2019/03/11 17:50:31.400   27.894570757  -82.373420269   -20.8199   1   8   0.0044   0.0053   0.0111  -0.0019  -0.0029  -0.0040   0.40   11.6
2019/03/11 17:50:31.600   27.894570761  -82.373420279   -20.8213   1   8   0.0044   0.0053   0.0108  -0.0019  -0.0028  -0.0039   0.60   11.6
2019/03/11 17:50:31.800   27.894570773  -82.373420270   -20.8193   1   8   0.0044   0.0053   0.0113  -0.0019  -0.0029  -0.0042   0.80   11.5
2019/03/11 17:50:32.200   27.894570748  -82.373420258   -20.8171   1   8   0.0043   0.0052   0.0107  -0.0019  -0.0028  -0.0039   0.20   11.5
2019/03/11 17:50:32.400   27.894570758  -82.373420273   -20.8200   1   8   0.0043   0.0052   0.0106  -0.0019  -0.0027  -0.0039   0.40   11.4
2019/03/11 17:50:32.600   27.894570759  -82.373420269   -20.8191   1   8   0.0043   0.0052   0.0106  -0.0019  -0.0027  -0.0039   0.60   11.4
2019/03/11 17:50:32.800   27.894570755  -82.373420270   -20.8163   1   8   0.0043   0.0052   0.0107  -0.0019  -0.0028  -0.0039   0.80   11.3
2019/03/11 17:50:33.000   27.894570758  -82.373420272   -20.8164   1   8   0.0043   0.0052   0.0106  -0.0019  -0.0027  -0.0039   0.00   11.3
2019/03/11 17:50:33.200   27.894570756  -82.373420274   -20.8177   1   8   0.0043   0.0052   0.0107  -0.0019  -0.0028  -0.0039   0.20   11.2
2019/03/11 17:50:33.400   27.894570763  -82.373420280   -20.8178   1   8   0.0043   0.0052   0.0106  -0.0019  -0.0027  -0.0039   0.40   11.1
2019/03/11 17:50:33.600   27.894570759  -82.373420269   -20.8182   1   8   0.0043   0.0052   0.0106  -0.0019  -0.0027  -0.0039   0.60   11.1
2019/03/11 17:50:33.800   27.894570766  -82.373420280   -20.8166   1   8   0.0043   0.0052   0.0107  -0.0019  -0.0028  -0.0039   0.80   11.0
2019/03/11 17:50:34.000   27.894570760  -82.373420268   -20.8151   1   8   0.0043   0.0052   0.0106  -0.0019  -0.0027  -0.0039   0.00   11.0
2019/03/11 17:50:34.200   27.894570757  -82.373420266   -20.8172   1   8   0.0043   0.0052   0.0107  -0.0019  -0.0028  -0.0039   0.20   10.9
2019/03/11 17:50:34.400   27.894570770  -82.373420280   -20.8185   1   8   0.0043   0.0052   0.0106  -0.0019  -0.0028  -0.0039   0.40   10.9
2019/03/11 17:50:34.600   27.894570767  -82.373420277   -20.8180   1   8   0.0043   0.0052   0.0106  -0.0019  -0.0028  -0.0039   0.60   10.8
2019/03/11 17:50:34.800   27.894570762  -82.373420259   -20.8191   1   8   0.0043   0.0052   0.0107  -0.0019  -0.0028  -0.0039   0.80   10.8
2019/03/11 17:50:35.000   27.894570755  -82.373420259   -20.8198   1   8   0.0043   0.0052   0.0106  -0.0019  -0.0027  -0.0039   0.00   10.7
2019/03/11 17:50:35.200   27.894570746  -82.373420266   -20.8177   1   8   0.0043   0.0052   0.0107  -0.0019  -0.0028  -0.0039   0.20   10.7
2019/03/11 17:50:35.400   27.894570750  -82.373420273   -20.8167   1   8   0.0043   0.0052   0.0106  -0.0019  -0.0028  -0.0039   0.40   10.6
2019/03/11 17:50:35.600   27.894570762  -82.373420297   -20.8144   1   8   0.0043   0.0052   0.0106  -0.0019  -0.0028  -0.0039   0.60   10.6
2019/03/11 17:50:35.800   27.894570757  -82.373420283   -20.8149   1   8   0.0043   0.0052   0.0107  -0.0019  -0.0028  -0.0039   0.80   10.5
2019/03/11 17:50:36.000   27.894570760  -82.373420281   -20.8136   1   8   0.0043   0.0052   0.0106  -0.0019  -0.0027  -0.0039   0.00   10.5
2019/03/11 17:50:36.200   27.894570754  -82.373420276   -20.8156   1   8   0.0043   0.0052   0.0107  -0.0019  -0.0028  -0.0039   0.20   10.4
2019/03/11 17:50:36.400   27.894570752  -82.373420281   -20.8160   1   8   0.0043   0.0052   0.0106  -0.0019  -0.0028  -0.0039   0.40   10.3
2019/03/11 17:50:36.600   27.894570740  -82.373420284   -20.8183   1   8   0.0043   0.0052   0.0106  -0.0019  -0.0028  -0.0039   0.60   10.3
2019/03/11 17:50:36.800   27.894570736  -82.373420278   -20.8172   1   8   0.0030   0.0037   0.0076  -0.0013  -0.0020  -0.0028  -0.20    6.0
2019/03/11 17:50:37.000   27.894570740  -82.373420276   -20.8161   1   8   0.0030   0.0037   0.0076  -0.0013  -0.0020  -0.0028   0.00    6.0
2019/03/11 17:50:37.200   27.894570745  -82.373420287   -20.8152   1   8   0.0030   0.0037   0.0076  -0.0013  -0.0020  -0.0028  -0.80    6.0
2019/03/11 17:50:37.400   27.894570748  -82.373420277   -20.8170   1   8   0.0030   0.0037   0.0075  -0.0013  -0.0020  -0.0028  -0.60    6.1
2019/03/11 17:50:37.600   27.894570758  -82.373420295   -20.8201   1   8   0.0030   0.0037   0.0075  -0.0013  -0.0020  -0.0028  -0.40    6.2
2019/03/11 17:50:37.800   27.894570745  -82.373420278   -20.8162   1   8   0.0030   0.0037   0.0075  -0.0013  -0.0020  -0.0028  -0.20    6.2
2019/03/11 17:50:38.000   27.894570749  -82.373420273   -20.8143   1   8   0.0030   0.0037   0.0075  -0.0013  -0.0019  -0.0028   0.00    6.3
2019/03/11 17:50:38.200   27.894570757  -82.373420269   -20.8136   1   8   0.0030   0.0037   0.0075  -0.0013  -0.0020  -0.0028  -0.80    6.3
2019/03/11 17:50:38.400   27.894570756  -82.373420269   -20.8133   1   8   0.0030   0.0037   0.0075  -0.0013  -0.0020  -0.0028  -0.60    6.3
2019/03/11 17:50:38.600   27.894570761  -82.373420267   -20.8186   1   8   0.0030   0.0037   0.0075  -0.0013  -0.0020  -0.0028  -0.40    6.3
2019/03/11 17:50:38.800   27.894570758  -82.373420263   -20.8215   1   8   0.0030   0.0037   0.0075  -0.0013  -0.0020  -0.0028  -0.20    6.3
2019/03/11 17:50:39.000   27.894570752  -82.373420250   -20.8192   1   8   0.0030   0.0037   0.0075  -0.0013  -0.0019  -0.0028   0.00    6.4
2019/03/11 17:50:39.200   27.894570740  -82.373420259   -20.8213   1   8   0.0030   0.0037   0.0075  -0.0013  -0.0020  -0.0028  -0.80    6.4
2019/03/11 17:50:39.400   27.894570755  -82.373420271   -20.8174   1   8   0.0030   0.0037   0.0075  -0.0013  -0.0020  -0.0028  -0.60    6.4
2019/03/11 17:50:39.600   27.894570755  -82.373420256   -20.8174   1   8   0.0030   0.0037   0.0075  -0.0013  -0.0020  -0.0028  -0.40    6.4
2019/03/11 17:50:39.800   27.894570742  -82.373420259   -20.8191   1   8   0.0030   0.0037   0.0075  -0.0013  -0.0020  -0.0028  -0.20    6.4
2019/03/11 17:50:40.000   27.894570755  -82.373420280   -20.8218   1   8   0.0030   0.0037   0.0075  -0.0013  -0.0019  -0.0028   0.00    6.3
2019/03/11 17:50:40.200   27.894570751  -82.373420286   -20.8195   1   8   0.0030   0.0037   0.0075  -0.0013  -0.0020  -0.0028  -0.80    6.4
2019/03/11 17:50:40.400   27.894570779  -82.373420290   -20.8210   1   8   0.0030   0.0037   0.0075  -0.0013  -0.0020  -0.0028  -0.60    6.4
2019/03/11 17:50:40.600   27.894570770  -82.373420283   -20.8226   1   8   0.0030   0.0037   0.0075  -0.0013  -0.0020  -0.0028  -0.40    6.3
2019/03/11 17:50:40.800   27.894570754  -82.373420283   -20.8192   1   8   0.0030   0.0037   0.0075  -0.0013  -0.0020  -0.0028  -0.20   10.5
2019/03/11 17:50:41.000   27.894570768  -82.373420289   -20.8265   1   8   0.0030   0.0037   0.0075  -0.0013  -0.0019  -0.0028   0.00   13.3
2019/03/11 17:50:41.200   27.894570772  -82.373420305   -20.8242   1   8   0.0030   0.0037   0.0075  -0.0013  -0.0020  -0.0028  -0.80   16.0
2019/03/11 17:50:41.400   27.894570760  -82.373420294   -20.8227   1   8   0.0030   0.0037   0.0075  -0.0013  -0.0020  -0.0028  -0.60   18.7
2019/03/11 17:50:41.600   27.894570771  -82.373420290   -20.8192   1   8   0.0030   0.0037   0.0075  -0.0013  -0.0020  -0.0028  -0.40   21.3
2019/03/11 17:50:41.800   27.894570754  -82.373420272   -20.8204   1   8   0.0030   0.0037   0.0075  -0.0013  -0.0020  -0.0028  -0.20   22.5
2019/03/11 17:50:42.000   27.894570762  -82.373420266   -20.8216   1   8   0.0030   0.0037   0.0075  -0.0013  -0.0019  -0.0028   0.00   22.7
2019/03/11 17:50:42.200   27.894570772  -82.373420263   -20.8180   1   8   0.0030   0.0037   0.0075  -0.0013  -0.0020  -0.0028  -0.80   22.9
2019/03/11 17:50:42.400   27.894570764  -82.373420261   -20.8184   1   8   0.0030   0.0037   0.0075  -0.0013  -0.0020  -0.0028  -0.60   23.1
2019/03/11 17:50:42.600   27.894570770  -82.373420281   -20.8240   1   8   0.0030   0.0037   0.0075  -0.0013  -0.0020  -0.0028  -0.40   23.4
2019/03/11 17:50:42.800   27.894570764  -82.373420265   -20.8263   1   8   0.0030   0.0037   0.0075  -0.0013  -0.0020  -0.0028  -0.20   23.5
2019/03/11 17:50:43.000   27.894570757  -82.373420264   -20.8288   1   8   0.0030   0.0037   0.0075  -0.0013  -0.0019  -0.0028   0.00   23.6
2019/03/11 17:50:43.200   27.894570770  -82.373420261   -20.8280   1   8   0.0030   0.0037   0.0075  -0.0013  -0.0020  -0.0028  -0.80   23.8
2019/03/11 17:50:43.400   27.894570758  -82.373420275   -20.8258   1   8   0.0030   0.0037   0.0075  -0.0013  -0.0020  -0.0028  -0.60   23.9
2019/03/11 17:50:43.600   27.894570763  -82.373420283   -20.8239   1   8   0.0030   0.0037   0.0075  -0.0013  -0.0020  -0.0028  -0.40   23.9
2019/03/11 17:50:43.800   27.894570770  -82.373420280   -20.8225   1   8   0.0030   0.0037   0.0075  -0.0013  -0.0020  -0.0028  -0.20   24.1
2019/03/11 17:50:44.000   27.894570759  -82.373420294   -20.8213   1   8   0.0030   0.0037   0.0075  -0.0013  -0.0019  -0.0028   0.00   24.3
2019/03/11 17:50:44.200   27.894570754  -82.373420300   -20.8257   1   8   0.0030   0.0037   0.0075  -0.0013  -0.0020  -0.0028  -0.80   24.4
2019/03/11 17:50:44.400   27.894570733  -82.373420282   -20.8227   1   8   0.0030   0.0037   0.0075  -0.0013  -0.0020  -0.0028  -0.60   24.5
2019/03/11 17:50:44.600   27.894570750  -82.373420277   -20.8215   1   8   0.0030   0.0037   0.0075  -0.0013  -0.0020  -0.0028  -0.40   24.6
2019/03/11 17:50:44.800   27.894570741  -82.373420267   -20.8259   1   8   0.0030   0.0037   0.0075  -0.0013  -0.0020  -0.0028  -0.20   24.7
2019/03/11 17:50:45.000   27.894570733  -82.373420259   -20.8249   1   8   0.0030   0.0037   0.0075  -0.0013  -0.0019  -0.0028   0.00   24.8
2019/03/11 17:50:45.200   27.894570727  -82.373420255   -20.8251   1   8   0.0030   0.0037   0.0075  -0.0013  -0.0020  -0.0028  -0.80   24.8
2019/03/11 17:50:45.400   27.894570734  -82.373420255   -20.8242   1   8   0.0030   0.0037   0.0075  -0.0013  -0.0020  -0.0028  -0.60   24.9
2019/03/11 17:50:45.600   27.894570728  -82.373420257   -20.8230   1   8   0.0030   0.0037   0.0075  -0.0013  -0.0020  -0.0028  -0.40   25.0
2019/03/11 17:50:45.800   27.894570737  -82.373420271   -20.8230   1   8   0.0030   0.0037   0.0075  -0.0013  -0.0020  -0.0028  -0.20   25.1
2019/03/11 17:50:46.000   27.894570749  -82.373420263   -20.8258   1   8   0.0030   0.0037   0.0075  -0.0013  -0.0019  -0.0028   0.00   25.2
2019/03/11 17:50:46.200   27.894570733  -82.373420269   -20.8271   1   8   0.0030   0.0037   0.0075  -0.0013  -0.0020  -0.0028  -0.80   25.3
2019/03/11 17:50:46.400   27.894570741  -82.373420271   -20.8280   1   8   0.0030   0.0037   0.0075  -0.0013  -0.0020  -0.0028  -0.60   25.4
2019/03/11 17:50:46.600   27.894570745  -82.373420258   -20.8312   1   8   0.0030   0.0037   0.0075  -0.0013  -0.0020  -0.0028  -0.40   25.5
2019/03/11 17:50:46.800   27.894570750  -82.373420284   -20.8281   1   8   0.0030   0.0037   0.0075  -0.0013  -0.0020  -0.0028  -0.20   25.6
2019/03/11 17:50:47.000   27.894570745  -82.373420284   -20.8252   1   8   0.0030   0.0037   0.0075  -0.0013  -0.0019  -0.0028   0.00   25.7
2019/03/11 17:50:47.200   27.894570739  -82.373420282   -20.8245   1   8   0.0030   0.0037   0.0075  -0.0013  -0.0020  -0.0028  -0.80   25.7
2019/03/11 17:50:47.400   27.894570747  -82.373420274   -20.8263   1   8   0.0030   0.0037   0.0075  -0.0013  -0.0020  -0.0028  -0.60   25.7
2019/03/11 17:50:47.600   27.894570750  -82.373420295   -20.8235   1   8   0.0030   0.0037   0.0075  -0.0013  -0.0020  -0.0028  -0.40   25.8
2019/03/11 17:50:47.800   27.894570755  -82.373420281   -20.8267   1   8   0.0030   0.0037   0.0075  -0.0013  -0.0020  -0.0028  -0.20   25.9
2019/03/11 17:50:48.000   27.894570752  -82.373420283   -20.8281   1   8   0.0030   0.0037   0.0075  -0.0013  -0.0019  -0.0028   0.00   26.0
2019/03/11 17:50:48.200   27.894570768  -82.373420290   -20.8298   1   8   0.0030   0.0037   0.0075  -0.0013  -0.0020  -0.0028  -0.80   26.0
2019/03/11 17:50:48.400   27.894570764  -82.373420284   -20.8277   1   8   0.0030   0.0037   0.0075  -0.0013  -0.0020  -0.0028  -0.60   26.0
2019/03/11 17:50:48.600   27.894570757  -82.373420283   -20.8258   1   8   0.0030   0.0037   0.0075  -0.0013  -0.0020  -0.0028  -0.40   26.1
2019/03/11 17:50:48.800   27.894570761  -82.373420279   -20.8291   1   8   0.0030   0.0037   0.0075  -0.0013  -0.0020  -0.0028  -0.20   26.1
2019/03/11 17:50:49.000   27.894570751  -82.373420280   -20.8276   1   8   0.0030   0.0037   0.0075  -0.0013  -0.0019  -0.0028   0.00   26.1
2019/03/11 17:50:49.200   27.894570763  -82.373420264   -20.8238   1   8   0.0030   0.0037   0.0075  -0.0013  -0.0020  -0.0028  -0.80   26.2
2019/03/11 17:50:49.400   27.894570765  -82.373420278   -20.8281   1   8   0.0030   0.0037   0.0075  -0.0013  -0.0020  -0.0028  -0.60   26.3
2019/03/11 17:50:49.600   27.894570769  -82.373420272   -20.8299   1   8   0.0030   0.0037   0.0075  -0.0013  -0.0020  -0.0028  -0.40   26.3
2019/03/11 17:50:49.800   27.894570756  -82.373420279   -20.8257   1   8   0.0030   0.0037   0.0075  -0.0013  -0.0020  -0.0028  -0.20   26.4
2019/03/11 17:50:50.000   27.894570765  -82.373420277   -20.8253   1   8   0.0030   0.0037   0.0075  -0.0013  -0.0020  -0.0028   0.00   26.5
2019/03/11 17:50:50.200   27.894570762  -82.373420272   -20.8244   1   8   0.0030   0.0037   0.0075  -0.0013  -0.0020  -0.0028  -0.80   26.6
2019/03/11 17:50:50.400   27.894570759  -82.373420259   -20.8273   1   8   0.0030   0.0037   0.0075  -0.0013  -0.0020  -0.0028  -0.60   26.6
2019/03/11 17:50:50.600   27.894570759  -82.373420247   -20.8285   1   8   0.0030   0.0037   0.0075  -0.0013  -0.0020  -0.0028  -0.40   26.6
2019/03/11 17:50:50.800   27.894570760  -82.373420272   -20.8258   1   8   0.0030   0.0037   0.0075  -0.0013  -0.0020  -0.0028  -0.20   26.7
2019/03/11 17:50:51.000   27.894570761  -82.373420269   -20.8234   1   8   0.0030   0.0037   0.0075  -0.0013  -0.0020  -0.0028   0.00   26.7
2019/03/11 17:50:51.200   27.894570764  -82.373420257   -20.8266   1   8   0.0030   0.0037   0.0075  -0.0013  -0.0020  -0.0028  -0.80   26.7
2019/03/11 17:50:51.400   27.894570764  -82.373420272   -20.8257   1   8   0.0030   0.0037   0.0075  -0.0013  -0.0020  -0.0028  -0.60   26.8
2019/03/11 17:50:51.600   27.894570756  -82.373420268   -20.8251   1   8   0.0030   0.0037   0.0075  -0.0013  -0.0020  -0.0028  -0.40   26.8
2019/03/11 17:50:51.800   27.894570765  -82.373420271   -20.8217   1   8   0.0030   0.0037   0.0075  -0.0013  -0.0020  -0.0028  -0.20   26.8
2019/03/11 17:50:52.000   27.894570766  -82.373420270   -20.8244   1   8   0.0030   0.0037   0.0075  -0.0013  -0.0020  -0.0028   0.00   26.8
2019/03/11 17:50:52.200   27.894570767  -82.373420263   -20.8267   1   8   0.0030   0.0037   0.0075  -0.0013  -0.0020  -0.0028  -0.80   26.8
2019/03/11 17:50:52.400   27.894570759  -82.373420271   -20.8267   1   8   0.0030   0.0037   0.0075  -0.0013  -0.0020  -0.0028  -0.60   26.8
2019/03/11 17:50:52.600   27.894570753  -82.373420267   -20.8255   1   8   0.0030   0.0037   0.0075  -0.0013  -0.0020  -0.0028  -0.40   26.9
2019/03/11 17:50:52.800   27.894570760  -82.373420275   -20.8230   1   8   0.0030   0.0037   0.0075  -0.0013  -0.0020  -0.0028  -0.20   27.0
2019/03/11 17:50:53.000   27.894570757  -82.373420279   -20.8189   1   8   0.0030   0.0037   0.0075  -0.0013  -0.0020  -0.0028   0.00   27.2
2019/03/11 17:50:53.200   27.894570771  -82.373420286   -20.8196   1   8   0.0030   0.0037   0.0075  -0.0013  -0.0020  -0.0028  -0.80   27.3
2019/03/11 17:50:53.400   27.894570760  -82.373420290   -20.8228   1   8   0.0030   0.0037   0.0075  -0.0013  -0.0020  -0.0028  -0.60   27.4
2019/03/11 17:50:53.600   27.894570748  -82.373420272   -20.8236   1   8   0.0030   0.0037   0.0075  -0.0013  -0.0020  -0.0028  -0.40   27.4
2019/03/11 17:50:53.800   27.894570752  -82.373420257   -20.8230   1   8   0.0030   0.0037   0.0075  -0.0013  -0.0020  -0.0028  -0.20   27.5
2019/03/11 17:50:54.000   27.894570764  -82.373420266   -20.8259   1   8   0.0030   0.0037   0.0075  -0.0013  -0.0020  -0.0028   0.00   27.7
2019/03/11 17:50:54.200   27.894570770  -82.373420281   -20.8249   1   8   0.0030   0.0037   0.0075  -0.0013  -0.0020  -0.0028  -0.80   27.8
2019/03/11 17:50:54.400   27.894570770  -82.373420282   -20.8265   1   8   0.0030   0.0037   0.0075  -0.0013  -0.0020  -0.0028  -0.60   27.9
2019/03/11 17:50:54.600   27.894570778  -82.373420276   -20.8265   1   8   0.0030   0.0037   0.0075  -0.0013  -0.0020  -0.0028  -0.40   28.0
2019/03/11 17:50:54.800   27.894570776  -82.373420283   -20.8253   1   8   0.0030   0.0037   0.0076  -0.0013  -0.0020  -0.0028  -0.20   28.0
2019/03/11 17:50:55.000   27.894570743  -82.373420250   -20.8194   1   8   0.0030   0.0037   0.0075  -0.0013  -0.0020  -0.0028   0.00   28.0
2019/03/11 17:50:55.200   27.894570734  -82.373420249   -20.8200   1   8   0.0030   0.0037   0.0076  -0.0013  -0.0020  -0.0028  -0.80   28.2
2019/03/11 17:50:55.400   27.894570750  -82.373420272   -20.8235   1   8   0.0030   0.0037   0.0075  -0.0013  -0.0020  -0.0028  -0.60   28.3
2019/03/11 17:50:55.600   27.894570767  -82.373420263   -20.8243   1   8   0.0030   0.0037   0.0075  -0.0013  -0.0020  -0.0028  -0.40   28.5
2019/03/11 17:50:55.800   27.894570743  -82.373420239   -20.8221   1   8   0.0030   0.0037   0.0076  -0.0013  -0.0020  -0.0028  -0.20   28.6
2019/03/11 17:50:56.000   27.894570744  -82.373420278   -20.8190   1   8   0.0030   0.0037   0.0075  -0.0013  -0.0020  -0.0028   0.00   28.8
2019/03/11 17:50:56.200   27.894570765  -82.373420309   -20.8224   1   8   0.0030   0.0037   0.0076  -0.0013  -0.0020  -0.0028  -0.80   28.9
2019/03/11 17:50:56.400   27.894570753  -82.373420275   -20.8145   1   8   0.0030   0.0037   0.0075  -0.0013  -0.0020  -0.0028  -0.60   29.0
2019/03/11 17:50:56.600   27.894570772  -82.373420284   -20.8192   1   8   0.0030   0.0037   0.0075  -0.0013  -0.0020  -0.0028  -0.40   29.0
2019/03/11 17:50:56.800   27.894570781  -82.373420285   -20.8283   1   8   0.0030   0.0037   0.0076  -0.0013  -0.0020  -0.0028  -0.20   29.1
2019/03/11 17:50:57.000   27.894570772  -82.373420267   -20.8262   1   8   0.0030   0.0037   0.0075  -0.0013  -0.0020  -0.0028   0.00   29.2
2019/03/11 17:50:57.200   27.894570771  -82.373420269   -20.8242   1   8   0.0030   0.0037   0.0076  -0.0013  -0.0020  -0.0028  -0.80   29.3
2019/03/11 17:50:57.400   27.894570759  -82.373420275   -20.8262   1   8   0.0030   0.0037   0.0075  -0.0013  -0.0020  -0.0028  -0.60   29.4
2019/03/11 17:50:57.600   27.894570788  -82.373420287   -20.8307   1   8   0.0030   0.0037   0.0075  -0.0013  -0.0020  -0.0028  -0.40   29.4
2019/03/11 17:50:57.800   27.894570798  -82.373420291   -20.8339   1   8   0.0030   0.0037   0.0076  -0.0013  -0.0020  -0.0028  -0.20   29.5
2019/03/11 17:50:58.000   27.894570777  -82.373420283   -20.8287   1   8   0.0030   0.0037   0.0075  -0.0013  -0.0020  -0.0028   0.00   29.5
2019/03/11 17:50:58.200   27.894570777  -82.373420279   -20.8310   1   8   0.0030   0.0037   0.0076  -0.0013  -0.0020  -0.0028  -0.80   29.6
2019/03/11 17:50:58.400   27.894570783  -82.373420272   -20.8271   1   8   0.0030   0.0037   0.0075  -0.0013  -0.0020  -0.0028  -0.60   29.7
2019/03/11 17:50:58.600   27.894570758  -82.373420249   -20.8241   1   8   0.0030   0.0037   0.0075  -0.0013  -0.0020  -0.0028  -0.40   29.8
2019/03/11 17:50:58.800   27.894570765  -82.373420257   -20.8226   1   8   0.0030   0.0037   0.0076  -0.0013  -0.0020  -0.0028  -0.20   29.9
2019/03/11 17:50:59.000   27.894570750  -82.373420238   -20.8261   1   8   0.0030   0.0037   0.0075  -0.0013  -0.0020  -0.0028   0.00   30.1
2019/03/11 17:50:59.200   27.894570761  -82.373420250   -20.8258   1   8   0.0030   0.0037   0.0076  -0.0013  -0.0020  -0.0028  -0.80   30.2
2019/03/11 17:50:59.400   27.894570755  -82.373420245   -20.8234   1   8   0.0030   0.0037   0.0075  -0.0013  -0.0020  -0.0028  -0.60   30.2
2019/03/11 17:50:59.600   27.894570751  -82.373420253   -20.8189   1   8   0.0030   0.0037   0.0075  -0.0013  -0.0020  -0.0028  -0.40   30.4
2019/03/11 17:50:59.800   27.894570755  -82.373420244   -20.8205   1   8   0.0030   0.0037   0.0076  -0.0013  -0.0020  -0.0028  -0.20   30.4
2019/03/11 17:51:00.000   27.894570758  -82.373420241   -20.8197   1   8   0.0030   0.0037   0.0075  -0.0013  -0.0020  -0.0028   0.00   30.5
2019/03/11 17:51:00.200   27.894570762  -82.373420257   -20.8257   1   9   0.0030   0.0034   0.0075  -0.0009  -0.0016  -0.0029  -0.80   30.5
2019/03/11 17:51:00.400   27.894570747  -82.373420236   -20.8208   1   9   0.0029   0.0034   0.0074  -0.0007  -0.0015  -0.0029  -0.60   30.6
2019/03/11 17:51:00.600   27.894570736  -82.373420249   -20.8177   1   9   0.0029   0.0033   0.0074  -0.0006  -0.0014  -0.0030  -0.40   30.8
2019/03/11 17:51:00.800   27.894570747  -82.373420254   -20.8186   1   9   0.0029   0.0033   0.0074  -0.0006  -0.0014  -0.0030  -0.20   30.8
2019/03/11 17:51:01.000   27.894570750  -82.373420258   -20.8261   1   9   0.0029   0.0032   0.0074  -0.0004  -0.0013  -0.0030   0.00    4.1
2019/03/11 17:51:01.200   27.894570746  -82.373420242   -20.8295   1   9   0.0029   0.0033   0.0074  -0.0004  -0.0013  -0.0030  -0.80    4.7
2019/03/11 17:51:01.400   27.894570735  -82.373420249   -20.8212   1   9   0.0029   0.0032   0.0074  -0.0004  -0.0013  -0.0030  -0.60    5.3
2019/03/11 17:51:01.600   27.894570759  -82.373420275   -20.8300   1   9   0.0029   0.0032   0.0074  -0.0004  -0.0013  -0.0030  -0.40    5.9
2019/03/11 17:51:01.800   27.894570791  -82.373420281   -20.8328   1   9   0.0029   0.0033   0.0074  -0.0004  -0.0013  -0.0030  -0.20    6.5
2019/03/11 17:51:02.000   27.894570790  -82.373420289   -20.8346   1   9   0.0029   0.0032   0.0074  -0.0004  -0.0013  -0.0030   0.00    7.1
2019/03/11 17:51:02.200   27.894570790  -82.373420294   -20.8341   1   9   0.0029   0.0033   0.0074  -0.0004  -0.0013  -0.0030  -0.80    7.7
2019/03/11 17:51:02.400   27.894570784  -82.373420272   -20.8364   1   9   0.0029   0.0032   0.0074  -0.0004  -0.0013  -0.0030  -0.60    8.3
2019/03/11 17:51:02.600   27.894570783  -82.373420290   -20.8369   1   9   0.0029   0.0032   0.0074  -0.0004  -0.0013  -0.0030  -0.40    8.9
2019/03/11 17:51:02.800   27.894570781  -82.373420277   -20.8376   1   9   0.0029   0.0033   0.0074  -0.0004  -0.0013  -0.0030  -0.20    9.5
2019/03/11 17:51:03.000   27.894570777  -82.373420272   -20.8367   1   9   0.0029   0.0032   0.0074  -0.0004  -0.0013  -0.0030   0.00   10.1
2019/03/11 17:51:03.200   27.894570770  -82.373420285   -20.8375   1   9   0.0029   0.0033   0.0074  -0.0004  -0.0013  -0.0030  -0.80   10.7
2019/03/11 17:51:03.400   27.894570774  -82.373420282   -20.8394   1   9   0.0029   0.0032   0.0074  -0.0004  -0.0013  -0.0030  -0.60   11.3
2019/03/11 17:51:03.600   27.894570764  -82.373420266   -20.8394   1   9   0.0029   0.0032   0.0074  -0.0004  -0.0013  -0.0030  -0.40   11.9
2019/03/11 17:51:03.800   27.894570761  -82.373420283   -20.8374   1   9   0.0029   0.0033   0.0074  -0.0004  -0.0013  -0.0030  -0.20   12.5
2019/03/11 17:51:04.000   27.894570777  -82.373420278   -20.8381   1   9   0.0029   0.0032   0.0074  -0.0004  -0.0013  -0.0030   0.00   13.1
2019/03/11 17:51:04.200   27.894570776  -82.373420278   -20.8377   1   9   0.0029   0.0033   0.0074  -0.0004  -0.0013  -0.0030  -0.80   13.7
2019/03/11 17:51:04.400   27.894570774  -82.373420280   -20.8358   1   9   0.0029   0.0032   0.0074  -0.0004  -0.0013  -0.0030  -0.60   14.3
2019/03/11 17:51:04.600   27.894570765  -82.373420275   -20.8334   1   9   0.0029   0.0032   0.0074  -0.0004  -0.0013  -0.0030  -0.40   14.9
2019/03/11 17:51:04.800   27.894570759  -82.373420276   -20.8374   1   9   0.0029   0.0033   0.0074  -0.0004  -0.0013  -0.0030  -0.20   15.5
2019/03/11 17:51:05.000   27.894570749  -82.373420281   -20.8349   1   9   0.0029   0.0032   0.0074  -0.0004  -0.0013  -0.0030   0.00   16.0
2019/03/11 17:51:05.200   27.894570759  -82.373420272   -20.8364   1   9   0.0029   0.0033   0.0074  -0.0004  -0.0013  -0.0030  -0.80   16.6
2019/03/11 17:51:05.400   27.894570758  -82.373420265   -20.8376   1   9   0.0029   0.0032   0.0074  -0.0004  -0.0013  -0.0030  -0.60   17.1
2019/03/11 17:51:05.600   27.894570769  -82.373420279   -20.8395   1   9   0.0029   0.0032   0.0074  -0.0004  -0.0013  -0.0030  -0.40   17.7
2019/03/11 17:51:05.800   27.894570763  -82.373420286   -20.8401   1   9   0.0029   0.0033   0.0074  -0.0004  -0.0013  -0.0030  -0.20   18.3
2019/03/11 17:51:06.000   27.894570764  -82.373420283   -20.8380   1   9   0.0029   0.0032   0.0074  -0.0004  -0.0013  -0.0030   0.00   18.8
2019/03/11 17:51:06.200   27.894570754  -82.373420291   -20.8382   1   9   0.0029   0.0033   0.0074  -0.0004  -0.0013  -0.0030  -0.80   19.3
2019/03/11 17:51:06.400   27.894570768  -82.373420297   -20.8360   1   9   0.0029   0.0033   0.0074  -0.0004  -0.0013  -0.0030  -0.60   19.9
2019/03/11 17:51:06.600   27.894570743  -82.373420285   -20.8337   1   9   0.0029   0.0033   0.0074  -0.0004  -0.0013  -0.0030  -0.40   20.4
2019/03/11 17:51:06.800   27.894570753  -82.373420282   -20.8367   1   9   0.0029   0.0033   0.0074  -0.0004  -0.0013  -0.0030  -0.20   20.9
2019/03/11 17:51:07.000   27.894570752  -82.373420287   -20.8319   1   9   0.0029   0.0032   0.0074  -0.0004  -0.0013  -0.0030   0.00   21.4
2019/03/11 17:51:07.200   27.894570753  -82.373420245   -20.8346   1   9   0.0029   0.0033   0.0074  -0.0004  -0.0013  -0.0030  -0.80   21.8
2019/03/11 17:51:07.400   27.894570751  -82.373420247   -20.8334   1   9   0.0029   0.0033   0.0074  -0.0004  -0.0013  -0.0030  -0.60   22.3
2019/03/11 17:51:07.600   27.894570758  -82.373420244   -20.8323   1   9   0.0029   0.0033   0.0074  -0.0004  -0.0013  -0.0030  -0.40   22.7
2019/03/11 17:51:07.800   27.894570768  -82.373420251   -20.8269   1   9   0.0029   0.0033   0.0074  -0.0004  -0.0013  -0.0030  -0.20   23.3
2019/03/11 17:51:08.000   27.894570758  -82.373420274   -20.8281   1   9   0.0029   0.0032   0.0074  -0.0004  -0.0013  -0.0030   0.00   23.8
2019/03/11 17:51:08.200   27.894570771  -82.373420288   -20.8332   1   9   0.0029   0.0033   0.0074  -0.0004  -0.0013  -0.0030  -0.80   24.2
2019/03/11 17:51:08.400   27.894570751  -82.373420245   -20.8264   1   9   0.0029   0.0033   0.0074  -0.0004  -0.0013  -0.0030  -0.60   24.7
2019/03/11 17:51:08.600   27.894570745  -82.373420255   -20.8228   1   9   0.0029   0.0033   0.0074  -0.0004  -0.0013  -0.0030  -0.40   25.1
2019/03/11 17:51:08.800   27.894570740  -82.373420262   -20.8268   1   9   0.0029   0.0033   0.0074  -0.0004  -0.0013  -0.0030  -0.20   25.6
2019/03/11 17:51:09.000   27.894570732  -82.373420259   -20.8285   1   9   0.0029   0.0032   0.0074  -0.0004  -0.0013  -0.0030   0.00   26.0
2019/03/11 17:51:09.200   27.894570723  -82.373420248   -20.8266   1   9   0.0029   0.0033   0.0074  -0.0004  -0.0013  -0.0030  -0.80   26.4
2019/03/11 17:51:09.400   27.894570730  -82.373420249   -20.8279   1   9   0.0029   0.0033   0.0074  -0.0004  -0.0013  -0.0030  -0.60   26.8
2019/03/11 17:51:09.600   27.894570727  -82.373420267   -20.8257   1   9   0.0029   0.0033   0.0074  -0.0004  -0.0013  -0.0030  -0.40   27.3
2019/03/11 17:51:09.800   27.894570730  -82.373420268   -20.8281   1   9   0.0029   0.0033   0.0074  -0.0004  -0.0013  -0.0030  -0.20   27.7
2019/03/11 17:51:10.000   27.894570727  -82.373420289   -20.8230   1   9   0.0029   0.0032   0.0074  -0.0004  -0.0013  -0.0030   0.00   28.1
2019/03/11 17:51:10.200   27.894570716  -82.373420278   -20.8226   1   9   0.0029   0.0033   0.0074  -0.0004  -0.0013  -0.0030  -0.80   28.5
2019/03/11 17:51:10.400   27.894570732  -82.373420289   -20.8244   1   9   0.0029   0.0033   0.0074  -0.0004  -0.0013  -0.0030  -0.60   28.9
2019/03/11 17:51:10.600   27.894570722  -82.373420275   -20.8233   1   9   0.0029   0.0033   0.0074  -0.0004  -0.0013  -0.0030  -0.40   29.3
2019/03/11 17:51:10.800   27.894570722  -82.373420276   -20.8256   1   9   0.0029   0.0033   0.0074  -0.0004  -0.0013  -0.0030  -0.20   29.7
2019/03/11 17:51:11.000   27.894570730  -82.373420269   -20.8261   1   9   0.0029   0.0032   0.0074  -0.0003  -0.0013  -0.0030   0.00   30.0
2019/03/11 17:51:11.200   27.894570718  -82.373420284   -20.8264   1   9   0.0029   0.0033   0.0074  -0.0004  -0.0013  -0.0030  -0.80   30.4
2019/03/11 17:51:11.400   27.894570710  -82.373420281   -20.8246   1   9   0.0029   0.0033   0.0074  -0.0004  -0.0013  -0.0030  -0.60   30.7
2019/03/11 17:51:11.600   27.894570731  -82.373420272   -20.8254   1   9   0.0029   0.0033   0.0074  -0.0004  -0.0013  -0.0030  -0.40   31.1
2019/03/11 17:51:11.800   27.894570721  -82.373420272   -20.8264   1   9   0.0029   0.0033   0.0074  -0.0004  -0.0013  -0.0030  -0.20   31.4
2019/03/11 17:51:12.000   27.894570714  -82.373420278   -20.8258   1   9   0.0029   0.0032   0.0074  -0.0003  -0.0013  -0.0030   0.00   31.7
2019/03/11 17:51:12.200   27.894570717  -82.373420275   -20.8252   1   9   0.0029   0.0033   0.0074  -0.0004  -0.0013  -0.0030  -0.80   32.0
2019/03/11 17:51:12.400   27.894570724  -82.373420273   -20.8244   1   9   0.0029   0.0033   0.0074  -0.0004  -0.0013  -0.0030  -0.60   32.4
2019/03/11 17:51:12.600   27.894570724  -82.373420273   -20.8249   1   9   0.0029   0.0033   0.0074  -0.0004  -0.0013  -0.0030  -0.40   32.7
2019/03/11 17:51:12.800   27.894570723  -82.373420271   -20.8285   1   9   0.0029   0.0033   0.0074  -0.0004  -0.0013  -0.0030  -0.20   32.7
2019/03/11 17:51:13.000   27.894570731  -82.373420263   -20.8305   1   9   0.0029   0.0032   0.0074  -0.0003  -0.0012  -0.0030   0.00   32.7
2019/03/11 17:51:13.200   27.894570726  -82.373420270   -20.8328   1   9   0.0029   0.0033   0.0074  -0.0004  -0.0013  -0.0030  -0.80   32.7
2019/03/11 17:51:13.400   27.894570745  -82.373420263   -20.8324   1   9   0.0029   0.0033   0.0074  -0.0003  -0.0012  -0.0030  -0.60   32.8
2019/03/11 17:51:13.600   27.894570734  -82.373420305   -20.8247   1   9   0.0029   0.0033   0.0074  -0.0003  -0.0012  -0.0030  -0.40   32.8
2019/03/11 17:51:13.800   27.894570729  -82.373420282   -20.8231   1   9   0.0029   0.0033   0.0074  -0.0003  -0.0012  -0.0030  -0.20   32.9
2019/03/11 17:51:14.000   27.894570741  -82.373420241   -20.8176   1   9   0.0029   0.0032   0.0074  -0.0002  -0.0012  -0.0029   0.00   33.0
2019/03/11 17:51:14.200   27.894570730  -82.373420249   -20.8167   1   9   0.0029   0.0033   0.0075  -0.0001  -0.0012  -0.0030  -0.80   33.1
2019/03/11 17:51:14.400   27.894570708  -82.373420183   -20.8244   1   9   0.0029   0.0033   0.0075   0.0004  -0.0010  -0.0029  -0.60   33.4
2019/03/11 17:51:14.600   27.894570752  -82.373420194   -20.8283   1   9   0.0029   0.0033   0.0075   0.0004  -0.0010  -0.0029  -0.40   33.5
2019/03/11 17:51:14.800   27.894570778  -82.373420186   -20.8209   1   9   0.0029   0.0033   0.0075   0.0004  -0.0010  -0.0029  -0.20   33.7
2019/03/11 17:51:15.000   27.894570719  -82.373420256   -20.8238   1   9   0.0029   0.0033   0.0074   0.0004  -0.0010  -0.0029   0.00   33.7
2019/03/11 17:51:15.200   27.894570731  -82.373420251   -20.8182   1   9   0.0029   0.0033   0.0075   0.0004  -0.0010  -0.0029  -0.80   33.7
2019/03/11 17:51:15.400   27.894570719  -82.373420257   -20.8284   1   9   0.0029   0.0033   0.0075   0.0004  -0.0010  -0.0029  -0.60   33.7
2019/03/11 17:51:15.600   27.894570721  -82.373420240   -20.8310   1   9   0.0029   0.0033   0.0075   0.0004  -0.0010  -0.0029  -0.40   33.8
2019/03/11 17:51:15.800   27.894570671  -82.373420239   -20.8299   1   9   0.0029   0.0033   0.0075   0.0004  -0.0010  -0.0029  -0.20   33.8
2019/03/11 17:51:16.000   27.894570682  -82.373420239   -20.8319   1   9   0.0029   0.0033   0.0074   0.0004  -0.0010  -0.0029   0.00   33.8
2019/03/11 17:51:16.200   27.894570699  -82.373420244   -20.8223   1   9   0.0029   0.0033   0.0075   0.0004  -0.0010  -0.0029  -0.80   33.8
2019/03/11 17:51:16.400   27.894570714  -82.373420258   -20.8212   1   9   0.0029   0.0033   0.0075   0.0004  -0.0010  -0.0029  -0.60   33.8
2019/03/11 17:51:16.600   27.894570702  -82.373420267   -20.8275   1   9   0.0029   0.0033   0.0075   0.0004  -0.0010  -0.0029  -0.40   33.8
2019/03/11 17:51:16.800   27.894570707  -82.373420278   -20.8294   1   9   0.0029   0.0033   0.0075   0.0004  -0.0010  -0.0029  -0.20   33.8
2019/03/11 17:51:17.000   27.894570710  -82.373420281   -20.8359   1   9   0.0029   0.0033   0.0074   0.0004  -0.0010  -0.0029   0.00   33.8
2019/03/11 17:51:17.200   27.894570705  -82.373420274   -20.8332   1   9   0.0029   0.0033   0.0075   0.0004  -0.0010  -0.0029  -0.80   33.8
2019/03/11 17:51:17.400   27.894570688  -82.373420272   -20.8318   1   9   0.0029   0.0033   0.0074  -0.0001  -0.0012  -0.0029  -0.60   33.8
2019/03/11 17:51:17.600   27.894570682  -82.373420287   -20.8337   1   9   0.0029   0.0033   0.0074  -0.0003  -0.0012  -0.0030  -0.40   33.8
2019/03/11 17:51:17.800   27.894570701  -82.373420275   -20.8318   1   9   0.0029   0.0033   0.0074  -0.0003  -0.0012  -0.0030  -0.20   33.7
2019/03/11 17:51:18.000   27.894570685  -82.373420269   -20.8306   1   9   0.0029   0.0032   0.0074  -0.0003  -0.0012  -0.0030   0.00   33.6
2019/03/11 17:51:18.200   27.894570688  -82.373420270   -20.8256   1   9   0.0029   0.0033   0.0074  -0.0003  -0.0013  -0.0030  -0.80   33.5
2019/03/11 17:51:18.400   27.894570696  -82.373420262   -20.8303   1   9   0.0029   0.0033   0.0074  -0.0003  -0.0012  -0.0030  -0.60   33.4
2019/03/11 17:51:18.600   27.894570689  -82.373420256   -20.8316   1   9   0.0029   0.0033   0.0074  -0.0003  -0.0013  -0.0030  -0.40   33.3
2019/03/11 17:51:18.800   27.894570693  -82.373420260   -20.8340   1   9   0.0029   0.0033   0.0074  -0.0004  -0.0013  -0.0030  -0.20   33.3
2019/03/11 17:51:19.000   27.894570697  -82.373420247   -20.8326   1   9   0.0029   0.0032   0.0074  -0.0003  -0.0013  -0.0030   0.00    3.6
2019/03/11 17:51:19.200   27.894570691  -82.373420240   -20.8306   1   9   0.0029   0.0033   0.0074  -0.0004  -0.0013  -0.0030  -0.80    3.9
2019/03/11 17:51:19.400   27.894570672  -82.373420256   -20.8307   1   9   0.0029   0.0033   0.0074  -0.0004  -0.0013  -0.0030  -0.60    4.1
2019/03/11 17:51:19.600   27.894570690  -82.373420255   -20.8290   1   9   0.0029   0.0033   0.0074  -0.0004  -0.0013  -0.0030  -0.40    4.4
2019/03/11 17:51:19.800   27.894570686  -82.373420268   -20.8262   1   9   0.0029   0.0033   0.0074  -0.0004  -0.0013  -0.0030  -0.20    4.6
2019/03/11 17:51:20.000   27.894570692  -82.373420278   -20.8282   1   9   0.0029   0.0032   0.0074  -0.0003  -0.0013  -0.0030   0.00    4.9
2019/03/11 17:51:20.200   27.894570664  -82.373420276   -20.8300   1   9   0.0029   0.0033   0.0074  -0.0004  -0.0013  -0.0030  -0.80    5.1
2019/03/11 17:51:20.400   27.894570702  -82.373420275   -20.8304   1   9   0.0029   0.0033   0.0074  -0.0004  -0.0013  -0.0030  -0.60    5.4
2019/03/11 17:51:20.600   27.894570699  -82.373420268   -20.8307   1   9   0.0029   0.0033   0.0074  -0.0004  -0.0013  -0.0030  -0.40    5.6
2019/03/11 17:51:20.800   27.894570679  -82.373420263   -20.8311   1   9   0.0029   0.0033   0.0074  -0.0004  -0.0013  -0.0030  -0.20    5.8
2019/03/11 17:51:21.000   27.894570695  -82.373420276   -20.8273   1   9   0.0029   0.0032   0.0074  -0.0003  -0.0013  -0.0030   0.00    6.1
2019/03/11 17:51:21.200   27.894570702  -82.373420260   -20.8312   1   9   0.0029   0.0033   0.0074  -0.0004  -0.0013  -0.0030  -0.80    6.3
2019/03/11 17:51:21.400   27.894570686  -82.373420254   -20.8322   1   9   0.0029   0.0033   0.0074  -0.0004  -0.0013  -0.0030  -0.60    6.5
2019/03/11 17:51:21.600   27.894570667  -82.373420246   -20.8310   1   9   0.0029   0.0033   0.0074  -0.0004  -0.0013  -0.0030  -0.40    6.7
2019/03/11 17:51:21.800   27.894570654  -82.373420244   -20.8315   1   9   0.0029   0.0033   0.0074  -0.0004  -0.0013  -0.0030  -0.20    6.9
2019/03/11 17:51:22.000   27.894570672  -82.373420247   -20.8335   1   9   0.0029   0.0032   0.0074  -0.0003  -0.0013  -0.0030   0.00    7.1
2019/03/11 17:51:22.200   27.894570670  -82.373420248   -20.8356   1   9   0.0029   0.0033   0.0074  -0.0004  -0.0013  -0.0030  -0.80    7.4
2019/03/11 17:51:22.400   27.894570676  -82.373420255   -20.8324   1   9   0.0029   0.0033   0.0074  -0.0004  -0.0013  -0.0030  -0.60    7.6
2019/03/11 17:51:22.600   27.894570671  -82.373420272   -20.8359   1   9   0.0029   0.0033   0.0074  -0.0004  -0.0013  -0.0030  -0.40    7.8
2019/03/11 17:51:22.800   27.894570693  -82.373420260   -20.8338   1   9   0.0029   0.0033   0.0074  -0.0004  -0.0013  -0.0030  -0.20    8.0
2019/03/11 17:51:23.000   27.894570695  -82.373420245   -20.8338   1   9   0.0029   0.0032   0.0074  -0.0003  -0.0013  -0.0030   0.00    8.2
2019/03/11 17:51:23.200   27.894570668  -82.373420259   -20.8359   1   9   0.0029   0.0033   0.0074  -0.0004  -0.0013  -0.0030  -0.80    8.4
2019/03/11 17:51:23.400   27.894570669  -82.373420265   -20.8352   1   9   0.0029   0.0033   0.0074  -0.0004  -0.0013  -0.0030  -0.60    8.6
2019/03/11 17:51:23.600   27.894570689  -82.373420252   -20.8323   1   9   0.0029   0.0033   0.0074  -0.0004  -0.0013  -0.0030  -0.40    8.7
2019/03/11 17:51:23.800   27.894570659  -82.373420258   -20.8275   1   9   0.0029   0.0033   0.0074  -0.0004  -0.0013  -0.0030  -0.20    8.9
2019/03/11 17:51:24.000   27.894570682  -82.373420274   -20.8286   1   9   0.0029   0.0032   0.0074  -0.0003  -0.0013  -0.0030   0.00    9.1
2019/03/11 17:51:24.200   27.894570668  -82.373420270   -20.8321   1   9   0.0029   0.0033   0.0074  -0.0004  -0.0013  -0.0030  -0.80    9.3
2019/03/11 17:51:24.400   27.894570675  -82.373420263   -20.8329   1   9   0.0029   0.0033   0.0074  -0.0004  -0.0013  -0.0030  -0.60    9.4
2019/03/11 17:51:24.600   27.894570684  -82.373420260   -20.8298   1   9   0.0029   0.0033   0.0074  -0.0004  -0.0013  -0.0030  -0.40    9.6
2019/03/11 17:51:24.800   27.894570667  -82.373420266   -20.8284   1   9   0.0029   0.0033   0.0074  -0.0004  -0.0013  -0.0030  -0.20    9.7
2019/03/11 17:51:25.000   27.894570692  -82.373420279   -20.8269   1   9   0.0029   0.0032   0.0074  -0.0003  -0.0013  -0.0030   0.00    9.9
2019/03/11 17:51:25.200   27.894570681  -82.373420274   -20.8300   1   9   0.0029   0.0033   0.0074  -0.0004  -0.0013  -0.0030  -0.80   10.1
2019/03/11 17:51:25.400   27.894570665  -82.373420274   -20.8332   1   9   0.0029   0.0033   0.0074  -0.0004  -0.0013  -0.0030  -0.60   10.3
2019/03/11 17:51:25.600   27.894570668  -82.373420278   -20.8315   1   9   0.0029   0.0033   0.0074  -0.0004  -0.0013  -0.0030  -0.40   10.4
2019/03/11 17:51:25.800   27.894570674  -82.373420283   -20.8329   1   9   0.0029   0.0033   0.0074  -0.0004  -0.0013  -0.0030  -0.20   10.6
2019/03/11 17:51:26.000   27.894570679  -82.373420272   -20.8371   1   9   0.0029   0.0032   0.0074  -0.0003  -0.0013  -0.0030   0.00   10.8
2019/03/11 17:51:26.200   27.894570680  -82.373420284   -20.8356   1   9   0.0029   0.0033   0.0074  -0.0004  -0.0013  -0.0030  -0.80   11.0
2019/03/11 17:51:26.400   27.894570659  -82.373420271   -20.8313   1   9   0.0029   0.0033   0.0074  -0.0004  -0.0013  -0.0030  -0.60   11.1
2019/03/11 17:51:26.600   27.894570659  -82.373420275   -20.8318   1   9   0.0029   0.0033   0.0074  -0.0004  -0.0013  -0.0030  -0.40   11.2
2019/03/11 17:51:26.800   27.894570653  -82.373420260   -20.8303   1   9   0.0029   0.0033   0.0074  -0.0004  -0.0013  -0.0030  -0.20   11.4
2019/03/11 17:51:27.000   27.894570669  -82.373420254   -20.8257   1   9   0.0029   0.0032   0.0074  -0.0003  -0.0013  -0.0030   0.00   11.5
2019/03/11 17:51:27.200   27.894570674  -82.373420262   -20.8275   1   9   0.0029   0.0033   0.0074  -0.0004  -0.0013  -0.0030  -0.80   11.6
2019/03/11 17:51:27.400   27.894570669  -82.373420269   -20.8278   1   9   0.0029   0.0033   0.0074  -0.0004  -0.0013  -0.0030  -0.60   11.8
2019/03/11 17:51:27.600   27.894570685  -82.373420269   -20.8302   1   9   0.0029   0.0033   0.0074  -0.0004  -0.0013  -0.0030  -0.40   11.9
2019/03/11 17:51:27.800   27.894570691  -82.373420257   -20.8369   1   9   0.0029   0.0033   0.0074  -0.0004  -0.0013  -0.0030  -0.20   12.0
2019/03/11 17:51:28.000   27.894570695  -82.373420251   -20.8339   1   9   0.0029   0.0032   0.0074  -0.0003  -0.0013  -0.0030   0.00   12.1
2019/03/11 17:51:28.200   27.894570671  -82.373420257   -20.8340   1   9   0.0029   0.0033   0.0074  -0.0004  -0.0013  -0.0030  -0.80   12.2
2019/03/11 17:51:28.400   27.894570698  -82.373420244   -20.8316   1   9   0.0029   0.0033   0.0074  -0.0004  -0.0013  -0.0030  -0.60   12.3
2019/03/11 17:51:28.600   27.894570700  -82.373420259   -20.8349   1   9   0.0029   0.0033   0.0074  -0.0004  -0.0013  -0.0030  -0.40   12.4
2019/03/11 17:51:28.800   27.894570691  -82.373420270   -20.8345   1   9   0.0029   0.0033   0.0074  -0.0004  -0.0013  -0.0030  -0.20   12.5
2019/03/11 17:51:29.000   27.894570684  -82.373420268   -20.8339   1   9   0.0029   0.0032   0.0074  -0.0003  -0.0013  -0.0030   0.00   12.7
2019/03/11 17:51:29.200   27.894570689  -82.373420275   -20.8326   1   9   0.0029   0.0033   0.0074  -0.0004  -0.0013  -0.0030  -0.80   12.8
2019/03/11 17:51:29.400   27.894570689  -82.373420274   -20.8286   1   9   0.0029   0.0033   0.0074  -0.0004  -0.0013  -0.0030  -0.60   12.9
2019/03/11 17:51:29.600   27.894570699  -82.373420285   -20.8305   1   9   0.0029   0.0033   0.0074  -0.0004  -0.0013  -0.0030  -0.40   13.0
2019/03/11 17:51:29.800   27.894570678  -82.373420276   -20.8363   1   9   0.0029   0.0033   0.0074  -0.0004  -0.0013  -0.0030  -0.20   13.1
2019/03/11 17:51:30.000   27.894570680  -82.373420265   -20.8373   1   9   0.0029   0.0032   0.0074  -0.0003  -0.0013  -0.0030   0.00   13.2
2019/03/11 17:51:30.200   27.894570704  -82.373420271   -20.8347   1   9   0.0029   0.0033   0.0074  -0.0004  -0.0013  -0.0030  -0.80   13.3
2019/03/11 17:51:30.400   27.894570684  -82.373420282   -20.8381   1   9   0.0029   0.0033   0.0074  -0.0004  -0.0013  -0.0030  -0.60   13.4
2019/03/11 17:51:30.600   27.894570691  -82.373420285   -20.8375   1   9   0.0029   0.0033   0.0074  -0.0004  -0.0013  -0.0030  -0.40   13.5
2019/03/11 17:51:30.800   27.894570678  -82.373420259   -20.8383   1   9   0.0029   0.0033   0.0074  -0.0004  -0.0013  -0.0030  -0.20   13.6
2019/03/11 17:51:31.000   27.894570698  -82.373420273   -20.8353   1   9   0.0029   0.0032   0.0074  -0.0003  -0.0013  -0.0030   0.00   13.7
2019/03/11 17:51:31.200   27.894570662  -82.373420258   -20.8363   1   9   0.0029   0.0033   0.0074  -0.0004  -0.0013  -0.0030  -0.80   13.8
2019/03/11 17:51:31.400   27.894570675  -82.373420276   -20.8365   1   9   0.0029   0.0033   0.0074  -0.0004  -0.0013  -0.0030  -0.60   13.9
2019/03/11 17:51:31.600   27.894570681  -82.373420258   -20.8397   1   9   0.0029   0.0033   0.0074  -0.0004  -0.0013  -0.0030  -0.40   14.0
2019/03/11 17:51:31.800   27.894570684  -82.373420273   -20.8405   1   9   0.0029   0.0033   0.0074  -0.0004  -0.0013  -0.0030  -0.20   14.2
2019/03/11 17:51:32.000   27.894570674  -82.373420264   -20.8352   1   9   0.0029   0.0032   0.0074  -0.0003  -0.0013  -0.0030   0.00   14.3
2019/03/11 17:51:32.200   27.894570659  -82.373420290   -20.8340   1   9   0.0029   0.0033   0.0074  -0.0004  -0.0013  -0.0030  -0.80   14.4
2019/03/11 17:51:32.400   27.894570675  -82.373420262   -20.8378   1   9   0.0029   0.0033   0.0074  -0.0004  -0.0013  -0.0030  -0.60   14.5
2019/03/11 17:51:32.600   27.894570662  -82.373420260   -20.8382   1   9   0.0029   0.0033   0.0074  -0.0004  -0.0013  -0.0030  -0.40   14.6
2019/03/11 17:51:32.800   27.894570681  -82.373420275   -20.8372   1   9   0.0029   0.0033   0.0074  -0.0004  -0.0013  -0.0030  -0.20   14.6
2019/03/11 17:51:33.000   27.894570682  -82.373420290   -20.8345   1   9   0.0029   0.0032   0.0074  -0.0003  -0.0013  -0.0030   0.00   14.7
2019/03/11 17:51:33.200   27.894570683  -82.373420278   -20.8361   1   9   0.0029   0.0033   0.0074  -0.0004  -0.0013  -0.0030  -0.80   14.8
2019/03/11 17:51:33.400   27.894570707  -82.373420274   -20.8358   1   9   0.0029   0.0033   0.0074  -0.0004  -0.0013  -0.0030  -0.60   14.9
2019/03/11 17:51:33.600   27.894570687  -82.373420251   -20.8359   1   9   0.0029   0.0033   0.0074  -0.0004  -0.0013  -0.0030  -0.40   14.9
2019/03/11 17:51:33.800   27.894570691  -82.373420272   -20.8401   1   9   0.0029   0.0033   0.0074  -0.0004  -0.0013  -0.0030  -0.20   15.0
2019/03/11 17:51:34.000   27.894570675  -82.373420257   -20.8366   1   9   0.0029   0.0032   0.0074  -0.0003  -0.0013  -0.0030   0.00   15.1
2019/03/11 17:51:34.200   27.894570679  -82.373420274   -20.8325   1   9   0.0029   0.0033   0.0074  -0.0004  -0.0013  -0.0030  -0.80   15.1
2019/03/11 17:51:34.400   27.894570678  -82.373420275   -20.8348   1   9   0.0029   0.0033   0.0074  -0.0004  -0.0013  -0.0030  -0.60   15.2
2019/03/11 17:51:34.600   27.894570692  -82.373420284   -20.8353   1   9   0.0029   0.0033   0.0074  -0.0004  -0.0013  -0.0030  -0.40   15.2
2019/03/11 17:51:34.800   27.894570695  -82.373420280   -20.8354   1   9   0.0029   0.0033   0.0074  -0.0004  -0.0013  -0.0030  -0.20   15.3
2019/03/11 17:51:35.000   27.894570696  -82.373420292   -20.8369   1   9   0.0029   0.0032   0.0074  -0.0004  -0.0013  -0.0029   0.00   15.3
2019/03/11 17:51:35.200   27.894570694  -82.373420276   -20.8357   1   9   0.0029   0.0033   0.0075  -0.0004  -0.0013  -0.0029  -0.80   15.4
2019/03/11 17:51:35.400   27.894570699  -82.373420257   -20.8349   1   9   0.0030   0.0033   0.0074  -0.0005  -0.0013  -0.0029  -0.60   15.6
2019/03/11 17:51:35.600   27.894570688  -82.373420259   -20.8368   1   9   0.0029   0.0033   0.0074  -0.0004  -0.0013  -0.0029  -0.40   15.6
2019/03/11 17:51:35.800   27.894570693  -82.373420276   -20.8370   1   9   0.0030   0.0033   0.0075  -0.0005  -0.0013  -0.0029  -0.20   15.7
2019/03/11 17:51:36.000   27.894570709  -82.373420262   -20.8362   1   9   0.0030   0.0032   0.0074  -0.0005  -0.0013  -0.0028   0.00   15.7
2019/03/11 17:51:36.200   27.894570670  -82.373420273   -20.8390   1   9   0.0030   0.0033   0.0075  -0.0005  -0.0013  -0.0029  -0.80   20.5
2019/03/11 17:51:36.400   27.894570672  -82.373420259   -20.8395   1   9   0.0029   0.0033   0.0074  -0.0004  -0.0013  -0.0029  -0.60   20.6
2019/03/11 17:51:36.600   27.894570670  -82.373420278   -20.8377   1   9   0.0029   0.0033   0.0074  -0.0004  -0.0013  -0.0029  -0.40   20.6
2019/03/11 17:51:36.800   27.894570652  -82.373420284   -20.8335   1   9   0.0029   0.0033   0.0074  -0.0004  -0.0013  -0.0029  -0.20   20.7
2019/03/11 17:51:37.000   27.894570668  -82.373420270   -20.8338   1   9   0.0029   0.0032   0.0074  -0.0004  -0.0013  -0.0029   0.00   20.7
2019/03/11 17:51:37.200   27.894570652  -82.373420281   -20.8365   1   9   0.0029   0.0033   0.0074  -0.0004  -0.0013  -0.0029  -0.80   20.8
2019/03/11 17:51:37.400   27.894570653  -82.373420280   -20.8380   1   9   0.0029   0.0033   0.0074  -0.0004  -0.0013  -0.0029  -0.60   20.9
2019/03/11 17:51:37.600   27.894570674  -82.373420275   -20.8382   1   9   0.0029   0.0033   0.0074  -0.0004  -0.0013  -0.0029  -0.40   21.0
2019/03/11 17:51:37.800   27.894570640  -82.373420274   -20.8378   1   9   0.0029   0.0033   0.0075  -0.0004  -0.0013  -0.0029  -0.20   21.1
2019/03/11 17:51:38.000   27.894570641  -82.373420277   -20.8375   1   9   0.0029   0.0032   0.0074  -0.0004  -0.0013  -0.0029   0.00   21.2
2019/03/11 17:51:38.200   27.894570649  -82.373420251   -20.8342   1   9   0.0030   0.0033   0.0075  -0.0005  -0.0013  -0.0028  -0.80   21.3
2019/03/11 17:51:38.400   27.894570690  -82.373420256   -20.8434   1   9   0.0030   0.0033   0.0075  -0.0005  -0.0013  -0.0028  -0.60   21.4
2019/03/11 17:51:38.600   27.894570689  -82.373420280   -20.8328   1   8   0.0030   0.0033   0.0074  -0.0005  -0.0013  -0.0029  -0.40   21.5
2019/03/11 17:51:38.800   27.894570698  -82.373420275   -20.8246   1   8   0.0030   0.0033   0.0075  -0.0005  -0.0013  -0.0029  -0.20   21.5
2019/03/11 17:51:39.000   27.894570663  -82.373420234   -20.8334   1   8   0.0030   0.0032   0.0074  -0.0005  -0.0013  -0.0028   0.00   21.6
2019/03/11 17:51:39.200   27.894570672  -82.373420223   -20.8301   1   8   0.0030   0.0033   0.0075  -0.0005  -0.0013  -0.0029  -0.80   21.7
2019/03/11 17:51:39.400   27.894570715  -82.373420264   -20.8253   1   8   0.0030   0.0033   0.0074  -0.0005  -0.0013  -0.0029  -0.60    3.3
2019/03/11 17:51:39.600   27.894570719  -82.373420242   -20.8290   1   8   0.0030   0.0033   0.0074  -0.0005  -0.0013  -0.0029  -0.40    3.5
2019/03/11 17:51:39.800   27.894570717  -82.373420241   -20.8339   1   8   0.0030   0.0033   0.0075  -0.0005  -0.0013  -0.0029  -0.20    3.6
2019/03/11 17:51:40.000   27.894570740  -82.373420253   -20.8338   1   8   0.0030   0.0032   0.0074  -0.0005  -0.0013  -0.0029   0.00    3.8
2019/03/11 17:51:40.200   27.894570743  -82.373420212   -20.8319   1   8   0.0030   0.0033   0.0075  -0.0005  -0.0013  -0.0029  -0.80    3.9
2019/03/11 17:51:40.400   27.894570759  -82.373420210   -20.8321   1   8   0.0030   0.0033   0.0074  -0.0005  -0.0013  -0.0029  -0.60    4.0
2019/03/11 17:51:40.600   27.894570778  -82.373420199   -20.8337   1   8   0.0030   0.0033   0.0074  -0.0005  -0.0013  -0.0029  -0.40    4.1
2019/03/11 17:51:40.800   27.894570793  -82.373420199   -20.8383   1   8   0.0030   0.0033   0.0075  -0.0005  -0.0013  -0.0029  -0.20    4.2
2019/03/11 17:51:41.000   27.894570779  -82.373420200   -20.8399   1   8   0.0030   0.0032   0.0074  -0.0005  -0.0013  -0.0029   0.00    4.2
2019/03/11 17:51:41.200   27.894570775  -82.373420203   -20.8373   1   8   0.0030   0.0033   0.0075  -0.0005  -0.0013  -0.0029  -0.80    4.3
2019/03/11 17:51:41.400   27.894570777  -82.373420194   -20.8367   1   8   0.0030   0.0033   0.0074  -0.0005  -0.0013  -0.0029  -0.60    4.4
2019/03/11 17:51:41.600   27.894570777  -82.373420190   -20.8389   1   8   0.0030   0.0033   0.0074  -0.0005  -0.0013  -0.0029  -0.40    4.5
2019/03/11 17:51:41.800   27.894570776  -82.373420181   -20.8371   1   8   0.0030   0.0033   0.0075  -0.0005  -0.0013  -0.0029  -0.20    4.6
2019/03/11 17:51:42.000   27.894570762  -82.373420192   -20.8320   1   8   0.0030   0.0032   0.0074  -0.0005  -0.0013  -0.0029   0.00    4.7
2019/03/11 17:51:42.200   27.894570761  -82.373420191   -20.8294   1   8   0.0030   0.0033   0.0075  -0.0005  -0.0013  -0.0029  -0.80    4.7
2019/03/11 17:51:42.400   27.894570760  -82.373420186   -20.8281   1   8   0.0030   0.0033   0.0074  -0.0005  -0.0013  -0.0029  -0.60    4.8
2019/03/11 17:51:42.600   27.894570749  -82.373420183   -20.8263   1   8   0.0030   0.0033   0.0074  -0.0005  -0.0013  -0.0029  -0.40    4.8
2019/03/11 17:51:42.800   27.894570783  -82.373420195   -20.8278   1   8   0.0030   0.0033   0.0075  -0.0005  -0.0013  -0.0029  -0.20    4.8
2019/03/11 17:51:43.000   27.894570760  -82.373420208   -20.8285   1   8   0.0030   0.0032   0.0074  -0.0005  -0.0013  -0.0029   0.00    4.9
2019/03/11 17:51:43.200   27.894570776  -82.373420211   -20.8292   1   8   0.0030   0.0033   0.0075  -0.0005  -0.0013  -0.0029  -0.80    5.0
2019/03/11 17:51:43.400   27.894570745  -82.373420205   -20.8300   1   8   0.0030   0.0033   0.0075  -0.0005  -0.0013  -0.0029  -0.60    5.1
2019/03/11 17:51:43.600   27.894570758  -82.373420229   -20.8294   1   8   0.0030   0.0033   0.0075  -0.0005  -0.0013  -0.0029  -0.40    5.1
2019/03/11 17:51:43.800   27.894570776  -82.373420225   -20.8392   1   8   0.0030   0.0033   0.0075  -0.0005  -0.0013  -0.0029  -0.20    5.2
2019/03/11 17:51:44.000   27.894570776  -82.373420243   -20.8384   1   8   0.0030   0.0032   0.0074  -0.0004  -0.0013  -0.0028   0.00    5.3
2019/03/11 17:51:44.200   27.894570757  -82.373420225   -20.8354   1   8   0.0030   0.0033   0.0075  -0.0005  -0.0013  -0.0029  -0.80    5.4
2019/03/11 17:51:44.400   27.894570757  -82.373420219   -20.8359   1   8   0.0030   0.0033   0.0075  -0.0005  -0.0013  -0.0029  -0.60    5.5
2019/03/11 17:51:44.600   27.894570757  -82.373420219   -20.8384   1   8   0.0030   0.0033   0.0075  -0.0005  -0.0013  -0.0029  -0.40    5.6
2019/03/11 17:51:44.800   27.894570761  -82.373420216   -20.8379   1   8   0.0030   0.0033   0.0075  -0.0005  -0.0013  -0.0029  -0.20    5.7
2019/03/11 17:51:45.000   27.894570745  -82.373420216   -20.8362   1   8   0.0030   0.0032   0.0074  -0.0004  -0.0013  -0.0028   0.00    5.8
2019/03/11 17:51:45.200   27.894570754  -82.373420209   -20.8310   1   8   0.0030   0.0033   0.0075  -0.0005  -0.0013  -0.0029  -0.80    5.8
2019/03/11 17:51:45.400   27.894570763  -82.373420223   -20.8351   1   8   0.0030   0.0033   0.0075  -0.0005  -0.0013  -0.0029  -0.60    5.9
2019/03/11 17:51:45.600   27.894570753  -82.373420206   -20.8344   1   8   0.0030   0.0033   0.0075  -0.0004  -0.0013  -0.0029  -0.40    6.0
2019/03/11 17:51:45.800   27.894570774  -82.373420211   -20.8353   1   8   0.0030   0.0033   0.0075  -0.0005  -0.0013  -0.0029  -0.20    6.1
2019/03/11 17:51:46.000   27.894570771  -82.373420220   -20.8335   1   8   0.0030   0.0032   0.0074  -0.0004  -0.0013  -0.0028   0.00    6.1
2019/03/11 17:51:46.200   27.894570771  -82.373420213   -20.8329   1   8   0.0030   0.0033   0.0075  -0.0004  -0.0013  -0.0029  -0.80    6.2
2019/03/11 17:51:46.400   27.894570764  -82.373420250   -20.8276   1   8   0.0030   0.0033   0.0075  -0.0004  -0.0013  -0.0028  -0.60    6.3
2019/03/11 17:51:46.600   27.894570760  -82.373420219   -20.8353   1   8   0.0030   0.0033   0.0075  -0.0004  -0.0013  -0.0028  -0.40    6.4
2019/03/11 17:51:46.800   27.894570754  -82.373420217   -20.8364   1   8   0.0030   0.0033   0.0075  -0.0004  -0.0013  -0.0028  -0.20    6.4
2019/03/11 17:51:47.000   27.894570755  -82.373420237   -20.8361   1   8   0.0030   0.0032   0.0074  -0.0004  -0.0013  -0.0028   0.00    6.5
2019/03/11 17:51:47.200   27.894570765  -82.373420245   -20.8383   1   8   0.0030   0.0033   0.0075  -0.0004  -0.0013  -0.0028  -0.80    6.6
2019/03/11 17:51:47.400   27.894570774  -82.373420223   -20.8325   1   8   0.0030   0.0033   0.0075  -0.0003  -0.0012  -0.0028  -0.60    6.7
2019/03/11 17:51:47.600   27.894570757  -82.373420232   -20.8370   1   8   0.0030   0.0033   0.0075  -0.0002  -0.0012  -0.0028  -0.40    6.7
2019/03/11 17:51:47.800   27.894570714  -82.373420255   -20.8474   1   8   0.0031   0.0033   0.0076   0.0003  -0.0011  -0.0027  -0.20    6.9
2019/03/11 17:51:48.000   27.894570746  -82.373420372   -20.8436   1   7   0.0031   0.0033   0.0077   0.0007  -0.0005  -0.0025   0.00    7.1
2019/03/11 17:51:48.200   27.894570814  -82.373420224   -20.8434   1   7   0.0031   0.0034   0.0077   0.0007  -0.0005  -0.0025  -0.80    7.3
2019/03/11 17:51:48.400   27.894570804  -82.373420198   -20.8519   1   7   0.0031   0.0033   0.0077   0.0007  -0.0005  -0.0025  -0.60    7.5
2019/03/11 17:51:48.600   27.894570739  -82.373420352   -20.8537   1   7   0.0031   0.0033   0.0077   0.0007  -0.0005  -0.0025  -0.40    7.6
2019/03/11 17:51:48.800   27.894570768  -82.373420298   -20.8408   1   7   0.0031   0.0034   0.0077   0.0007  -0.0005  -0.0025  -0.20    7.8
2019/03/11 17:51:49.000   27.894570763  -82.373420244   -20.8537   1   7   0.0031   0.0033   0.0077   0.0007  -0.0005  -0.0025   0.00    8.0
