     2.11           OBSERVATION DATA    M (MIXED)           RINEX VERSION / TYPE
teqc  2018Jun8      root                20191212 04:36:59UTCPGM / RUN BY / DATE
Linux 2.4.21-27.ELsmp|Opteron|gcc|Linux 64|=+               COMMENT
teqc  2019Feb25     CORS-ADM Account    20190427 18:41:59UTCCOMMENT
teqc  2018Jan11     NOAA/NOS/NGS/CORS   20190327 00:27:14UTCCOMMENT
Linux 2.4.21-27.ELsmp|Opteron|gcc -static|Linux 64|=+       COMMENT
  0.0000      (antenna height)                              COMMENT
 +39.99143103 (latitude)                                    COMMENT
-105.26103266 (longitude)                                   COMMENT
1656.307      (elevation)                                   COMMENT
BIT 2 OF LLI FLAGS DATA COLLECTED UNDER A/S CONDITION       COMMENT
DSRC (COGO code)                                            COMMENT
 SNR is mapped to RINEX snr flag value [0-9]                COMMENT
  L1 & L2: min(max(int(snr_dBHz/6), 0), 9)                  COMMENT
teqc.e edited: all SBAS satellites excluded                 COMMENT
teqc.e edited: all QZSS satellites excluded                 COMMENT
Forced Modulo Decimation to 30 seconds                      COMMENT
DSRC                                                        MARKER NAME
DSRC                                                        MARKER NUMBER
Don Haw             NGS                                     OBSERVER / AGENCY
5101K72953          TRIMBLE NETR9       5.37                REC # / TYPE / VERS
1441107284          TRM57971.00     NONE                    ANT # / TYPE
 -1288338.0320 -4721989.8640  4078321.1770                  APPROX POSITION XYZ
        0.0000        0.0000        0.0000                  ANTENNA: DELTA H/E/N
     1     1                                                WAVELENGTH FACT L1/2
    11    L1    L2    L5    C1    P1    C2    P2    C5    S1# / TYPES OF OBSERV
          S2    S5                                          # / TYPES OF OBSERV
    30.0000                                                 INTERVAL
teqc.w windowed: start @ 2019 Mar 26 19:00:00.000           COMMENT
teqc.w windowed:  end  @ 2019 Mar 26 22:00:00.000           COMMENT
  2019     3    26    19     0    0.0000000     GPS         TIME OF FIRST OBS
    18                                                      LEAP SECONDS
                                                            END OF HEADER
 19  3 26 19  0  0.0000000  4  5
DSRC (COGO code)                                            COMMENT
  0.0000      (antenna height)                              COMMENT
 +39.99143103 (latitude)                                    COMMENT
-105.26103266 (longitude)                                   COMMENT
1656.307      (elevation)                                   COMMENT
 19  3 26 19  0  0.0000000  0 10G16G08G30G09G11G23G28G05G07G27
 127178821.044 6  99100411.50143                  24201326.602
                  24201331.699                          39.600          19.000

 111189920.880 8  86641439.100 7  83031395.854 8  21158711.773
  21158719.305    21158719.332    21158718.676          49.300          47.300
        52.600
 116319464.487 7  90638566.043 7  86861962.238 8  22134855.773
  22134864.137    22134864.000    22134864.309          45.300          45.000
        50.500
 107926017.152 8  84098213.196 8  80594122.257 8  20537638.156
  20537645.777    20537646.098    20537646.469          49.200          50.100
        53.900
 131187152.560 6 102223763.26143                  24964082.773
                  24964087.969                          39.900          20.900

 116971999.698 7  91147037.97245                  22259035.305
                  22259039.301                          46.400          31.500

 121791076.746 7  94902162.51443                  23176065.508
                  23176068.855                          43.000          23.200

 129346438.757 6 100789542.600 5                  24613804.422
  24613809.273    24613810.004                          38.900          34.400

 108778171.938 8  84762274.899 7                  20699802.969
  20699807.813    20699808.039                          48.900          47.000

 116104164.950 7  90470804.677 7  86701199.482 8  22093864.852
  22093872.938    22093873.258    22093872.031          47.600          45.200
        48.400
 19  3 26 19  0 30.0000000  0 10G16G08G30G09G11G23G28G05G07G27
 127284595.558 6  99182833.20342                  24221454.102
                  24221460.051                          39.600          17.800

 111171028.617 8  86626717.875 7  83017288.011 8  21155116.508
  21155124.227    21155124.355    21155123.844          49.500          47.500
        52.500
 116249606.196 7  90584131.042 7  86809795.365 8  22121561.953
  22121569.980    22121570.445    22121570.477          45.300          45.000
        50.200
 107974912.196 8  84136313.223 8  80630634.764 8  20546942.719
  20546950.023    20546950.594    20546951.008          49.700          50.000
        53.600
 131093395.318 6 102150705.74943                  24946240.313
                  24946246.641                          40.200          21.300

 117066531.193 7  91220698.85245                  22277023.695
                  22277028.215                          46.800          31.400

 121710965.447 6  94839738.16343                  23160818.055
                  23160823.457                          41.200          23.000

 129343406.403 6 100787179.712 5                  24613224.891
  24613230.141    24613232.125                          37.100          33.900

 108748955.333 8  84739508.740 7                  20694243.227
  20694248.262    20694248.430                          49.900          47.700

 116150299.788 7  90506753.898 7  86735650.821 8  22102644.727
  22102651.875    22102652.480    22102651.527          47.600          45.800
        48.400
 19  3 26 19  1  0.0000000  0 10G16G08G30G09G11G23G28G05G07G27
 127390381.021 6  99265263.41343                  24241586.063
                  24241590.363                          40.200          19.000

 111152749.675 8  86612474.556 7  83003638.168 8  21151638.602
  21151646.457    21151646.063    21151645.758          48.500          47.900
        52.500
 116179875.006 7  90529795.084 7  86757723.392 8  22108293.016
  22108300.621    22108300.824    22108300.754          45.400          44.600
        50.000
 108024334.944 8  84174824.430 8  80667541.353 8  20556347.742
  20556354.906    20556355.324    20556355.781          49.800          49.800
        53.800
 130999593.976 6 102077613.86943                  24928390.227
                  24928397.422                          39.800          19.900

 117161380.639 7  91294607.47845                  22295072.461
                  22295077.316                          46.400          31.400

 121631104.879 7  94777509.19844                  23145623.430
                  23145627.246                          43.200          24.700

 129340898.133 6 100785225.186 5                  24612749.234
  24612754.660    24612755.266                          38.100          35.700

 108719974.103 8  84716925.958 7                  20688728.586
  20688733.039    20688733.645                          49.200          47.100

 116197016.612 7  90543156.606 7  86770536.758 8  22111534.242
  22111542.387    22111542.551    22111541.406          47.300          45.500
        49.000
 19  3 26 19  1 30.0000000  0 10G16G08G30G09G11G23G28G05G07G27
 127496175.718 6  99347700.78243                  24261718.156
                  24261722.465                          39.700          18.300

 111135084.469 8  86598709.475 8  82990446.631 8  21148276.352
  21148284.543    21148284.613    21148284.289          48.600          48.000
        53.000
 116110271.941 7  90475558.946 7  86705747.101 8  22095046.992
  22095055.125    22095055.484    22095055.395          45.700          44.700
        49.900
 108074284.224 7  84213745.938 8  80704841.118 8  20565853.375
  20565859.789    20565860.195    20565860.848          47.600          50.100
        53.600
 130905751.608 6 102004490.03443                  24910531.047
                  24910539.676                          39.000          19.900

 117256545.727 7  91368762.04945                  22313182.805
                  22313186.867                          47.100          30.400

 121551495.222 6  94715475.78143                  23130470.977
                  23130478.035                          41.000          22.900

 129338913.397 6 100783678.607 5                  24612373.250
  24612376.754    24612377.164                          40.100          34.400

 108691229.622 8  84694527.682 7                  20683259.094
  20683263.207    20683263.922                          50.800          47.300

 116244313.775 7  90580011.530 7  86805856.063 8  22120535.188
  22120542.473    22120542.910    22120541.836          45.000          45.700
        49.100
 19  3 26 19  2  0.0000000  0 10G16G08G30G09G11G23G28G05G07G27
 127601978.560 6  99430144.52743                  24281851.383
                  24281856.551                          37.900          19.600

 111118034.357 8  86585423.685 7  82977714.425 8  21145032.148
  21145039.719    21145039.508    21145039.535          49.400          47.100
        53.000
 116040798.435 7  90421423.761 7  86653867.532 8  22081827.539
  22081834.359    22081835.266    22081834.941          45.100          44.600
        49.200
 108124759.275 8  84253077.134 8  80742533.511 8  20575457.602
  20575465.004    20575465.367    20575466.023          49.300          50.100
        53.900
 130811871.513 6 101931336.81043                  24892667.156
                  24892674.793                          40.300          19.900

 117352024.828 7  91443161.30945                  22331352.727
                  22331356.051                          47.300          31.300

 121472137.549 6  94653638.67744                  23115370.547
                  23115377.527                          41.400          25.500

 129337452.041 6 100782539.876 5                  24612093.758
  24612098.035    24612099.188                          39.200          33.800

 108662723.007 8  84672314.735 7                  20677834.531
  20677838.594    20677839.215                          49.700          47.900

 116292189.981 7  90617317.687 7  86841607.786 8  22129645.109
  22129652.805    22129653.277    22129652.754          45.500          45.300
        48.900
 19  3 26 19  2 30.0000000  0 10G16G08G30G09G11G23G28G05G07G27
 127707787.075 6  99512592.67243                  24301985.008
                  24301991.465                          37.800          19.600

 111101599.311 8  86572617.160 7  82965441.497 8  21141903.828
  21141912.535    21141912.164    21141911.664          48.200          47.700
        52.500
 115971454.538 7  90367389.603 7  86602084.788 8  22068631.719
  22068639.367    22068639.699    22068639.297          45.000          44.400
        50.100
 108175757.932 7  84292816.335 8  80780616.918 8  20585162.742
  20585169.625    20585170.273    20585170.758          47.900          50.100
        53.500
 130717955.681 6 101858155.68643                  24874795.891
                  24874803.250                          39.600          20.900

 117447814.631 7  91517802.66845                  22349581.148
                  22349584.270                          47.600          30.400

 121393032.204 6  94591998.19844                  23100317.172
                  23100324.215                          40.900          24.700

 129336512.880 6 100781808.144 5                  24611912.984
  24611919.523    24611920.633                          37.600          33.700

 108634455.008 8  84650287.729 8                  20672454.852
  20672459.387    20672459.855                          49.900          48.000

 116340642.633 7  90655073.006 7  86877789.946 8  22138865.398
  22138872.961    22138873.641    22138873.355          44.400          44.900
        49.300
 19  3 26 19  3  0.0000000  0 10G16G08G30G09G11G23G28G05G07G27
 127813600.038 6  99595044.30543                  24322121.789
                  24322126.195                          38.700          19.900

 111085780.344 8  86560290.710 8  82953628.648 8  21138894.273
  21138902.125    21138902.063    21138901.250          49.100          48.000
        52.500
 115902241.665 7  90313457.493 7  86550399.861 8  22055461.055
  22055468.754    22055469.285    22055468.832          46.300          45.300
        50.300
 108227279.341 8  84332962.872 8  80819090.688 8  20594967.031
  20594973.906    20594974.281    20594974.738          49.100          49.500
        53.300
 130624006.823 6 101784948.88243                  24856917.641
                  24856925.629                          39.800          20.900

 117543913.271 7  91592684.67945                  22367867.320
                  22367871.453                          46.900          30.400

 121314179.765 7  94530554.81444                  23085314.320
                  23085319.070                          43.700          24.400

 129336095.963 6 100781483.170 6                  24611834.594
  24611841.949    24611841.395                          37.900          36.300

 108606426.459 8  84628447.290 7                  20667121.359
  20667125.648    20667126.035                          49.500          47.300

 116389670.264 7  90693276.354 7  86914401.507 8  22148195.320
  22148203.344    22148203.273    22148202.738          46.500          45.200
        49.300
 19  3 26 19  3 30.0000000  0 10G16G08G30G09G11G23G28G05G07G27
 127919416.218 6  99677498.41343                  24342256.875
                  24342262.301                          38.600          19.900

 111070578.479 8  86548445.110 8  82942276.619 8  21136001.594
  21136009.336    21136009.055    21136008.578          49.000          48.200
        52.900
 115833161.136 7  90259628.547 7  86498813.781 8  22042315.984
  22042323.527    22042323.723    22042323.410          46.000          45.500
        50.700
 108279322.494 8  84373515.954 8  80857954.058 8  20604870.867
  20604877.293    20604877.496    20604878.180          49.200          49.500
        53.200
 130530028.146 6 101711718.80643                  24839034.359
                  24839041.480                          39.300          21.100

 117640318.669 7  91667805.72544                  22386212.781
                  22386216.941                          46.100          29.700

 121235581.452 6  94469309.38944                  23070354.969
                  23070361.957                          41.100          25.100

 129336200.758 6 100781564.795 5                  24611852.258
  24611862.141    24611861.371                          37.400          35.900

 108578639.552 8  84606795.156 7                  20661833.680
  20661837.836    20661838.375                          50.400          47.300

 116439271.433 7  90731926.644 7  86951441.354 8  22157634.086
  22157641.156    22157641.758    22157641.621          47.500          45.100
        49.300
 19  3 26 19  4  0.0000000  0 10G16G08G30G09G11G23G28G05G07G27
 128025233.250 6  99759953.21343                  24362394.375
                  24362398.879                          40.100          20.100

 111055993.635 8  86537080.303 7  82931385.360 8  21133225.914
  21133233.395    21133233.586    21133233.199          49.100          47.300
        52.200
 115764213.285 7  90205902.967 7  86447326.784 8  22029195.227
  22029203.316    22029203.578    22029203.047          46.000          45.400
        50.800
 108331885.419 8  84414474.075 8  80897205.591 8  20614872.383
  20614879.961    20614880.457    20614880.625          49.400          50.000
        53.300
 130436022.017 6 101638467.35843                  24821144.922
                  24821152.512                          38.800          20.400

 117737028.207 7  91743163.76844                  22404615.406
                  22404619.883                          46.200          29.600

 121157237.718 7  94408262.35944                  23055449.086
                  23055452.828                          43.200          25.200

 129336826.213 6 100782052.121 6                  24611972.180
  24611981.012    24611980.703                          37.400          36.100

 108551094.272 8  84585331.308 8                  20656591.805
  20656596.023    20656596.699                          49.500          48.000

 116489443.716 7  90771021.926 7  86988907.671 8  22167181.555
  22167189.094    22167189.164    22167189.074          47.200          44.600
        49.800
 19  3 26 19  4 30.0000000  0 10G16G08G30G09G11G23G28G05G07G27
 128131050.261 6  99842407.94143                  24382530.703
                  24382535.152                          39.900          19.000

 111042027.295 8  86526197.437 7  82920955.944 8  21130568.234
  21130576.055    21130575.809    21130575.445          49.500          47.800
        52.100
 115695400.010 7  90152282.260 7  86395940.275 8  22016099.828
  22016107.930    22016108.594    22016108.309          45.500          45.000
        50.500
 108384967.720 8  84455836.892 8  80936844.940 8  20624973.766
  20624980.891    20624981.574    20624981.852          49.500          49.900
        53.200
 130341992.011 6 101565197.28543                  24803251.445
                  24803258.867                          39.000          20.400

 117834040.315 7  91818757.56145                  22423076.609
                  22423080.793                          45.800          30.600

 121079149.825 7  94347414.69144                  23040586.742
                  23040593.324                          42.100          24.300

 129337972.376 6 100782945.233 6                  24612191.461
  24612199.984    24612198.918                          39.900          37.000

 108523792.904 8  84564057.513 7                  20651396.602
  20651400.719    20651401.480                          50.500          47.600

 116540186.127 7  90810561.448 7  87026799.729 8  22176838.461
  22176845.164    22176845.336    22176844.566          47.500          45.700
        48.800
 19  3 26 19  5  0.0000000  0 10G16G08G30G09G11G23G28G05G07G27
 128236863.932 6  99924860.13843                  24402666.594
                  24402670.598                          39.900          19.900

 111028678.293 8  86515795.631 7  82910987.553 8  21128028.359
  21128035.965    21128035.984    21128035.145          48.200          47.600
        52.200
 115626720.849 7  90098766.045 7  86344653.908 8  22003030.617
  22003039.160    22003039.070    22003039.273          45.900          44.900
        50.700
 108438566.485 8  84497602.158 8  80976869.986 8  20635172.922
  20635180.613    20635181.285    20635181.449          49.200          49.800
        53.200
 130247939.565 6 101491909.74743                  24785354.125
                  24785361.066                          37.600          20.600

 117931351.204 7  91894584.17944                  22441594.469
                  22441597.906                          46.300          29.700

 121001317.141 7  94286765.90544                  23025778.352
                  23025783.469                          44.300          25.700

 129339637.405 6 100784242.624 6                  24612509.719
  24612517.816    24612516.047                          38.900          36.500

 108496734.998 8  84542973.439 8                  20646247.523
  20646251.766    20646252.379                          49.800          48.100

 116591495.287 7  90850542.590 7  87065114.997 8  22186600.852
  22186608.477    22186609.074    22186607.773          47.200          44.400
        48.400
 19  3 26 19  5 30.0000000  0 10G16G08G30G09G11G23G28G05G07G27
 128342673.458 6 100007309.08143                  24422800.141
                  24422805.977                          38.700          19.900

 111015947.734 8  86505875.742 7  82901480.994 8  21125605.875
  21125613.090    21125613.133    21125612.719          49.800          47.400
        52.500
 115558177.167 7  90045355.384 7  86293468.721 8  21989987.688
  21989995.551    21989995.633    21989996.059          46.500          45.100
        51.000
 108492680.724 8  84539769.089 8  81017279.950 8  20645470.680
  20645478.508    20645478.637    20645479.504          48.900          49.600
        53.400
 130153867.482 6 101418606.89743                  24767451.688
                  24767460.047                          37.800          19.600

 118028958.775 7  91970641.97545                  22460168.195
                  22460172.148                          46.000          30.000

 120923740.804 7  94226316.86444                  23011014.906
                  23011021.168                          43.900          24.500

 129341820.998 6 100785944.142 5                  24612925.109
  24612931.313    24612932.023                          38.600          34.900

 108469921.896 8  84522080.104 7                  20641145.453
  20641149.496    20641149.980                          50.300          47.300

 116643369.679 7  90890964.193 7  87103852.353 8  22196473.250
  22196479.797    22196479.887    22196479.297          47.300          43.400
        48.800
 19  3 26 19  6  0.0000000  0 10G16G08G30G09G11G23G28G05G07G27
 128448477.699 6 100089753.89743                  24442933.461
                  24442940.230                          38.700          19.900

 111003837.150 8  86496438.944 7  82892437.382 8  21123301.039
  21123308.266    21123308.055    21123308.586          48.300          47.900
        52.700
 115489770.757 7  89992051.686 7  86242386.014 8  21976969.750
  21976978.191    21976978.410    21976978.652          45.400          45.700
        51.000
 108547309.824 8  84582337.191 8  81058074.392 8  20655866.313
  20655873.883    20655874.250    20655875.145          48.900          49.600
        53.300
 130059779.962 6 101345292.07343                  24749548.297
                  24749555.730                          38.700          19.300

 118126861.493 7  92046929.75445                  22478798.805
                  22478802.723                          45.800          30.500

 120846422.092 7  94166068.55244                  22996301.047
                  22996307.164                          44.400          25.800

 129344523.174 6 100788049.700 5                  24613442.063
  24613442.492    24613444.891                          40.700          32.900

 108443355.768 8  84501379.250 8                  20636089.391
  20636094.195    20636094.797                          49.800          48.000

 116695808.192 7  90931825.364 7  87143010.976 8  22206451.258
  22206457.617    22206458.543    22206458.672          46.800          44.000
        48.800
 19  3 26 19  6 30.0000000  0 10G16G08G30G09G11G23G28G05G07G27
 128554274.988 6 100172193.29143                  24463066.797
                  24463072.391                          37.600          18.600

 110992346.420 8  86487485.143 7  82883856.651 8  21121113.945
  21121121.898    21121121.742    21121121.516          48.100          47.600
        52.600
 115421502.003 7  89938855.292 7  86191406.127 8  21963979.078
  21963986.988    21963987.449    21963987.539          45.700          45.800
        51.400
 108602451.729 8  84625304.889 8  81099251.770 8  20666359.633
  20666366.625    20666367.043    20666368.027          48.800          49.100
        53.100
 129965678.568 6 101271966.37143                  24731642.281
                  24731648.723                          37.600          18.600

 118225056.718 7  92123445.45045                  22497484.266
                  22497488.598                          46.100          30.000

 120769360.986 7  94106020.99944                  22981638.914
                  22981643.250                          45.200          27.300

 129347742.604 6 100790558.356 5                  24614053.070
  24614056.465    24614057.281                          41.600          33.900

 108417036.811 8  84480870.985 7                  20631081.555
  20631085.945    20631086.484                          49.500          47.800

 116748808.255 7  90973124.123 7  87182588.922 8  22216537.344
  22216544.156    22216544.387    22216543.980          46.700          44.300
        48.700
 19  3 26 19  7  0.0000000  0 10G16G08G30G09G11G23G28G05G07G27
 128660062.983 6 100254625.47043                  24483198.703
                  24483203.777                          39.700          19.300

 110981475.734 8  86479014.482 7  82875738.949 8  21119046.156
  21119053.297    21119053.262    21119052.426          48.600          47.900
        52.700
 115353371.685 7  89885766.754 7  86140529.618 8  21951014.352
  21951021.840    21951022.410    21951022.691          45.000          45.000
        51.000
 108658104.720 8  84668670.841 8  81140810.809 8  20676950.836
  20676957.105    20676957.500    20676958.090          48.800          49.600
        53.000
 129871566.124 6 101198632.08143                  24713732.438
                  24713739.773                          37.100          19.000

 118323541.321 7  92200186.65445                  22516225.008
                  22516230.020                          46.500          31.100

 120692557.846 7  94046174.44144                  22967021.742
                  22967028.160                          43.700          25.300

 129351478.262 6 100793469.218 5                  24614761.430
  24614768.715    24614768.535                          40.000          34.100

 108390966.053 8  84460556.093 7                  20626120.773
  20626124.984    20626125.559                          50.000          47.900

 116802367.697 7  91014858.745 7  87222584.608 8  22226729.203
  22226736.645    22226736.855    22226735.402          46.400          44.100
        48.100
 19  3 26 19  7 30.0000000  0 10G16G08G30G09G11G23G28G05G07G27
 128765840.322 6 100337049.29243                  24503327.867
                  24503332.691                          39.400          18.600

 110971225.647 7  86471027.410 7  82868084.682 8  21117094.914
  21117102.891    21117102.656    21117102.160          47.600          47.600
        52.600
 115285381.238 7  89832787.207 7  86089757.552 8  21938076.805
  21938083.625    21938084.152    21938084.410          46.000          45.200
        50.900
 108714267.743 8  84712434.208 8  81182750.715 8  20687637.344
  20687644.469    20687645.164    20687645.586          49.200          49.300
        53.000
 129777445.673 6 101125291.54642                  24695820.484
                  24695829.398                          36.900          17.800

 118422313.804 7  92277152.16645                  22535020.953
                  22535025.773                          46.400          30.200

 120616013.856 7  93986529.85744                  22952456.398
                  22952462.891                          44.400          25.300

 129355729.946 6 100796782.183 5                  24615572.359
  24615578.863    24615577.438                          41.700          35.600

 108365145.050 8  84440435.839 8                  20621206.695
  20621211.395    20621211.664                          51.000          48.100

 116856484.885 7  91057027.999 7  87262996.805 8  22237027.898
  22237034.484    22237034.906    22237033.574          46.600          44.300
        48.300
 19  3 26 19  8  0.0000000  0 10G16G08G30G09G11G23G28G05G07G27
 128871605.408 6 100419463.64543                  24523453.914
                  24523458.195                          38.800          18.300

 110961595.808 8  86463523.640 7  82860893.567 8  21115262.758
  21115270.086    21115270.313    21115269.879          48.200          47.900
        52.300
 115217531.004 7  89779916.909 7  86039090.191 8  21925164.297
  21925172.078    21925172.176    21925173.012          45.300          45.000
        51.100
 108770938.625 7  84756593.346 8  81225069.862 8  20698421.633
  20698429.313    20698429.879    20698429.957          47.800          49.700
        53.200
 129683319.685 6 101051946.65043                  24677909.320
                  24677917.953                          37.200          19.600

 118521370.947 7  92354339.50345                  22553871.563
                  22553875.809                          47.100          30.700

 120539728.951 7  93927087.10844                  22937938.984
                  22937945.641                          43.600          25.800

 129360496.097 6 100800496.030 5                  24616478.625
  24616485.012    24616484.543                          41.300          34.000

 108339574.334 8  84420510.601 7                  20616340.594
  20616345.133    20616345.836                          50.400          47.800

 116911157.195 7  91099629.772 7  87303823.506 8  22247430.609
  22247438.102    22247438.477    22247437.785          46.600          44.500
        48.400
 19  3 26 19  8 30.0000000  0 10G16G08G30G09G11G23G28G05G07G27
 128977356.817 6 100501867.25842                  24543576.969
                  24543582.531                          37.900          16.900

 110952587.399 7  86456504.121 7  82854166.523 8  21113547.898
  21113556.031    21113556.191    21113555.797          47.900          47.300
        52.400
 115149822.675 7  89727157.194 7  85988528.796 8  21912279.523
  21912287.648    21912287.750    21912288.633          45.100          45.100
        51.600
 108828116.543 8  84801147.552 8  81267767.639 8  20709302.773
  20709310.113    20709310.375    20709310.551          48.000          49.900
        53.200
 129589191.418 6 100978600.03043                  24659995.969
                  24660005.453                          36.700          18.300

 118620710.843 7  92431747.15444                  22572776.563
                  22572779.418                          47.100          28.800

 120463704.540 7  93867847.34844                  22923473.273
                  22923478.602                          43.900          24.100

 129365776.739 6 100804610.846 5                  24617482.180
  24617487.508    24617489.078                          39.000          32.900

 108314255.471 8  84400781.629 8                  20611522.328
  20611527.375    20611527.805                          50.500          48.500

 116966383.266 7  91142663.066 7  87345063.730 8  22257940.398
  22257947.566    22257947.957    22257947.238          45.900          44.100
        49.400
 19  3 26 19  9  0.0000000  0 10G16G08G30G09G11G23G28G05G07G27
 129083093.092 6 100584259.10842                  24563698.047
                  24563703.805                          37.900          16.300

 110944201.006 8  86449969.295 8  82847903.979 8  21111952.016
  21111960.453    21111960.543    21111959.805          48.500          48.400
        52.700
 115082257.326 7  89674508.895 7  85938074.176 8  21899422.844
  21899430.348    21899430.559    21899431.680          46.100          44.900
        51.200
 108885799.993 7  84846095.665 8  81310842.906 8  20720278.539
  20720286.438    20720286.965    20720287.156          47.500          49.100
        53.000
 129495063.968 6 100905254.02843                  24642085.336
                  24642093.156                          38.300          19.600

 118720331.148 7  92509373.33145                  22591732.703
                  22591736.754                          47.000          30.000

 120387941.023 7  93808810.92744                  22909055.797
                  22909061.348                          44.200          25.700

 129371571.057 6 100809125.891 5                  24618584.188
  24618590.477    24618591.137                          39.400          32.000

 108289189.715 8  84381249.884 7                  20606752.844
  20606757.188    20606757.801                          50.800          47.900

 117022161.071 7  91186126.290 7  87386716.000 8  22268553.875
  22268562.012    22268562.586    22268561.137          45.700          45.600
        48.600
 19  3 26 19  9 30.0000000  0 10G16G08G30G09G11G23G28G05G07G27
 129188813.113 6 100666638.21742                  24583815.180
                  24583821.074                          36.300          16.300

 110936436.568 8  86443919.086 8  82842105.873 8  21110475.023
  21110482.434    21110482.730    21110482.273          48.600          48.000
        53.000
 115014835.956 7  89621972.799 7  85887727.091 8  21886592.875
  21886600.188    21886600.680    21886601.750          46.300          43.600
        51.400
 108943987.283 8  84891436.418 8  81354294.463 8  20731351.578
  20731359.047    20731359.469    20731359.734          48.700          49.000
        53.200
 129400939.866 6 100831910.61343                  24624174.883
                  24624181.699                          38.400          21.100

 118820229.794 7  92587216.39444                  22610743.242
                  22610746.602                          47.400          29.700

 120312439.256 7  93749978.42944                  22894684.102
                  22894694.031                          42.000          25.600

 129377878.029 6 100814040.351 5                  24619788.117
  24619790.391    24619791.156                          41.100          33.100

 108264378.064 8  84361916.117 7                  20602032.078
  20602035.617    20602036.523                          51.100          47.900

 117078488.461 7  91230017.763 7  87428778.655 8  22279273.242
  22279281.023    22279281.512    22279280.039          45.700          44.700
        48.400
 19  3 26 19 10  0.0000000  0 10G16G08G30G09G11G23G28G05G07G27
 129294514.899 6 100749003.16442                  24603931.461
                  24603935.609                          37.000          15.600

 110929294.728 8  86438354.029 7  82836772.696 8  21109115.766
  21109123.313    21109123.172    21109123.457          48.600          47.900
        52.500
 114947559.675 7  89569549.730 7  85837488.334 8  21873791.008
  21873797.887    21873797.973    21873799.117          46.700          44.900
        51.600
 109002677.054 8  84937168.666 8  81398121.205 8  20742520.234
  20742526.965    20742527.625    20742528.203          48.600          49.100
        52.900
 129306822.035 6 100758572.10643                  24606264.914
                  24606271.613                          39.200          20.400

 118920404.367 7  92665274.46344                  22629805.539
                  22629809.359                          46.600          28.900

 120237199.509 7  93691350.07944                  22880369.469
                  22880375.820                          43.900          25.600

 129384697.012 6 100819353.732 5                  24621084.633
  24621086.980    24621088.859                          39.400          31.200

 108239821.908 8  84342781.452 8                  20597358.898
  20597362.973    20597363.625                          51.000          48.300

 117135363.445 7  91274335.932 7  87471250.244 8  22290096.320
  22290103.188    22290104.063    22290103.316          45.800          44.700
        49.200
 19  3 26 19 10 30.0000000  0 10G16G08G30G09G11G23G28G05G07G27
 129400196.209 6 100831352.16352                  24624041.914
                  24624045.316                          38.100          16.300

 110922774.693 7  86433273.505 7  82831903.854 8  21107874.766
  21107882.684    21107882.684    21107882.328          47.700          47.600
        52.500
 114880428.741 7  89517239.920 7  85787358.107 8  21861016.070
  21861023.621    21861023.641    21861024.047          46.600          44.600
        51.000
 109061866.790 8  84983290.536 8  81442321.327 8  20753782.680
  20753790.531    20753790.930    20753791.895          49.100          49.000
        53.000
 129212712.756 6 100685240.26543                  24588355.070
                  24588363.035                          39.400          21.700

 119020851.382 7  92743544.82244                  22648919.852
                  22648923.508                          46.100          28.600

 120162221.737 7  93632925.89944                  22866103.406
                  22866109.051                          45.500          27.100

 129392026.388 6 100825064.983 5                  24622478.750
  24622483.910    24622483.723                          39.600          34.200

 108215521.450 8  84323846.038 8                  20592734.328
  20592738.594    20592739.422                          50.900          48.500

 117192783.180 7  91319078.561 7  87514128.603 8  22301022.797
  22301030.301    22301030.414    22301030.320          47.500          44.100
        49.300
 19  3 26 19 11  0.0000000  0 10G16G08G30G09G11G23G28G05G07G27
 129505855.727 6 100913684.34642                  24644147.688
                  24644151.125                          37.600          13.900

 110916877.174 7  86428678.051 7  82827499.870 8  21106753.234
  21106760.406    21106760.441    21106759.828          47.600          47.700
        52.400
 114813444.530 7  89465044.451 7  85737337.443 8  21848269.414
  21848276.414    21848276.762    21848277.172          46.000          45.400
        51.200
 109121555.277 8  85029801.034 8  81486893.880 8  20765141.992
  20765148.723    20765149.051    20765150.098          50.000          48.900
        52.800
 129118615.322 6 100611917.67643                  24570449.680
                  24570456.770                          38.700          21.100

 119121568.726 7  92822025.81544                  22668085.344
                  22668089.590                          45.900          28.900

 120087506.865 7  93574706.56544                  22851884.289
                  22851890.734                          44.700          26.200

 129399865.481 6 100831173.289 5                  24623971.141
  24623976.355    24623976.051                          39.100          34.200

 108191478.256 8  84305111.088 8                  20588159.156
  20588163.434    20588164.156                          51.500          48.000

 117250745.850 7  91364244.272 7  87557412.388 8  22312053.336
  22312059.918    22312060.672    22312059.941          47.000          44.400
        48.800
 19  3 26 19 11 30.0000000  0 10G16G08G30G09G11G23G28G05G07G27
 129611492.793 6 100995998.87642                  24664248.914
                  24664254.777                          39.400          16.300

 110911602.404 7  86424567.851 8  82823560.933 8  21105749.023
  21105757.086    21105756.898    21105756.438          47.900          48.300
        52.400
 114746608.547 7  89412964.494 7  85687427.462 8  21835551.227
  21835558.148    21835558.617    21835558.863          46.800          45.300
        50.900
 109181741.291 8  85076699.213 8  81531837.967 8  20776594.633
  20776601.617    20776602.398    20776603.004          49.300          48.100
        52.900
 129024532.761 6 100538606.62443                  24552546.977
                  24552553.043                          39.500          22.300

 119222554.417 7  92900715.91444                  22687301.875
                  22687306.719                          46.200          28.200

 120013055.666 7  93516692.67644                  22837714.422
                  22837722.680                          43.900          27.300

 129408213.965 6 100837678.624 5                  24625559.531
  24625564.594    24625564.719                          39.900          35.600

 108167693.880 8  84286577.816 8                  20583633.203
  20583637.543    20583637.891                          50.900          48.100

 117309249.698 7  91409831.683 7  87601100.329 8  22323185.836
  22323192.840    22323193.582    22323192.559          47.000          44.200
        49.200
 19  3 26 19 12  0.0000000  0 10G16G08G30G09G11G23G28G05G07G27
 129717105.285 6 101078294.24842                  24684347.742
                  24684351.652                          40.800          17.400

 110906950.964 8  86420943.361 7  82820087.469 8  21104864.305
  21104871.691    21104871.617    21104871.313          48.300          47.700
        52.600
 114679921.611 7  89361000.680 7  85637628.814 8  21822860.711
  21822868.539    21822868.418    21822868.895          46.300          45.700
        51.100
 109242422.947 8  85123983.598 8  81577152.177 8  20788142.422
  20788149.539    20788149.961    20788150.219          48.600          49.400
        52.700
 128930467.587 6 100465309.15343                  24534647.023
                  24534653.820                          39.900          21.800

 119323805.852 7  92979613.08844                  22706570.422
                  22706574.773                          46.100          28.900

 119938868.686 7  93458884.69044                  22823600.750
                  22823605.582                          45.500          27.500

 129417070.102 6 100844579.500 5                  24627243.578
  24627250.184    24627250.582                          39.400          35.300

 108144169.157 8  84268246.877 7                  20579156.648
  20579160.680    20579161.188                          50.700          47.800

 117368292.400 7  91455838.947 7  87645190.613 8  22334421.141
  22334428.566    22334428.887    22334427.930          45.300          44.400
        49.200
 19  3 26 19 12 30.0000000  0 10G16G08G30G09G11G23G28G05G07G27
 129822691.188 6 101160569.00543                  24704440.266
                  24704443.824                          41.100          19.000

 110902922.006 7  86417803.929 7  82817078.841 8  21104096.750
  21104104.652    21104105.016    21104104.355          47.300          47.900
        52.500
 114613384.138 7  89309153.313 7  85587941.746 8  21810199.539
  21810206.949    21810207.098    21810207.363          46.500          45.800
        51.100
 109303597.846 7  85171652.348 8  81622834.720 8  20799783.563
  20799791.281    20799791.160    20799791.695          47.100          49.600
        52.600
 128836421.924 6 100392026.89243                  24516750.945
                  24516757.105                          40.000          22.600

 119425319.896 7  93058714.89844                  22725888.195
                  22725892.504                          45.900          29.400

 119864945.492 7  93401282.25644                  22809532.094
                  22809538.469                          44.100          27.200

 129426432.625 6 100851874.957 5                  24629024.711
  24629033.125    24629032.523                          39.100          35.700

 108120904.544 8  84250118.607 8                  20574729.203
  20574733.434    20574733.988                          50.500          48.000

 117427870.987 7  91502263.853 7  87689681.122 8  22345758.656
  22345766.238    22345766.438    22345765.883          45.700          44.800
        49.600
 19  3 26 19 13  0.0000000  0 10G16G08G30G09G11G23G28G05G07G27
 129928249.509 6 101242822.18643                  24724527.297
                  24724531.391                          41.400          21.100

 110899515.906 7  86415149.854 8  82814535.353 8  21103449.258
  21103456.934    21103456.660    21103456.316          47.200          48.200
        52.400
 114546997.490 7  89257423.470 7  85538367.323 8  21797566.719
  21797573.969    21797574.105    21797574.316          46.400          45.600
        51.200
 109365264.704 7  85219704.432 8  81668884.622 8  20811517.859
  20811525.590    20811525.680    20811526.277          47.500          49.100
        52.800
 128742399.014 6 100318762.33943                  24498860.883
                  24498865.484                          39.800          22.300

 119527094.351 7  93138019.59045                  22745255.648
                  22745259.738                          46.100          30.200

 119791286.988 7  93343886.07744                  22795515.531
                  22795521.250                          44.300          27.700

 129436300.877 6 100859564.473 5                  24630900.500
  24630910.797    24630910.516                          38.600          35.600

 108097901.473 8  84232194.135 8                  20570351.680
  20570356.328    20570356.727                          50.700          48.200

 117487983.696 7  91549104.904 7  87734570.458 8  22357197.203
  22357204.957    22357205.496    22357205.590          46.500          44.900
        49.500
 19  3 26 19 13 30.0000000  0 10G16G08G30G09G11G23G28G05G07G27
 130033778.977 6 101325052.91243                  24744607.055
                  24744614.125                          41.400          20.400

 110896732.857 8  86412981.218 8  82812457.107 8  21102919.594
  21102927.340    21102927.340    21102927.012          48.300          48.300
        53.000
 114480763.134 7  89205812.304 7  85488906.632 8  21784962.102
  21784970.191    21784969.973    21784969.992          46.000          46.100
        51.000
 109427422.132 8  85268138.779 8  81715300.866 8  20823346.227
  20823353.723    20823353.875    20823354.434          48.300          48.700
        52.500
 128648402.475 6 100245518.34043                  24480971.102
                  24480978.395                          38.300          21.800

 119629127.227 7  93217525.65445                  22764672.930
                  22764675.980                          46.800          30.700

 119717894.256 7  93286696.96844                  22781548.750
                  22781554.465                          44.300          25.300

 129446674.231 6 100867647.510 6                  24632876.563
  24632884.605    24632884.719                          40.000          36.500

 108075161.408 8  84214474.596 8                  20566024.539
  20566029.332    20566029.707                          50.800          48.000

 117548628.630 7  91596360.686 7  87779857.244 8  22368737.461
  22368745.063    22368745.508    22368746.031          45.000          44.400
        49.600
 19  3 26 19 14  0.0000000  0 10G16G08G30G09G11G23G28G05G07G27
 130139278.787 6 101407260.51743                  24764682.672
                  24764689.879                          40.800          21.500

 110894573.972 7  86411298.981 8  82810844.959 8  21102508.219
  21102516.723    21102516.430    21102516.309          47.900          48.000
        52.500
 114414682.938 7  89154321.230 7  85439561.044 8  21772388.133
  21772395.188    21772395.109    21772395.180          46.600          45.800
        51.200
 109490069.168 7  85316954.614 8  81762082.729 8  20835268.156
  20835274.887    20835275.219    20835276.023          47.900          49.300
        52.700
 128554435.781 6 100172297.61343                  24463089.273
                  24463096.965                          37.100          20.600

 119731416.837 7  93297231.77245                  22784137.367
                  22784141.016                          47.200          31.300

 119644768.538 7  93229715.90744                  22767634.172
                  22767638.426                          44.800          25.900

 129457552.664 6 100876124.204 6                  24634947.273
  24634956.602    24634955.590                          40.900          37.700

 108052686.578 8  84196961.746 8                  20561748.195
  20561752.598    20561753.199                          50.800          48.400

 117609804.285 7  91644030.058 7  87825540.371 8  22380379.055
  22380386.082    22380387.145    22380387.090          45.100          44.300
        49.200
 19  3 26 19 14 30.0000000  0 10G16G08G30G09G11G23G28G05G07G27
 130244747.657 6 101489443.98543                  24784754.031
                  24784760.066                          39.300          20.900

 110893038.983 8  86410102.899 8  82809698.716 8  21102217.133
  21102224.133    21102224.242    21102223.988          48.700          48.200
        52.900
 114348757.884 7  89102951.096 7  85390331.317 8  21759842.969
  21759850.191    21759850.262    21759850.258          47.100          45.800
        51.200
 109553203.999 8  85366150.566 8  81809228.835 8  20847282.461
  20847289.195    20847289.434    20847290.207          49.000          48.100
        52.400
 128460501.748 6 100099102.39043                  24445213.969
                  24445221.996                          37.900          21.100

 119833960.488 7  93377135.86145                  22803650.422
                  22803653.945                          46.400          30.800

 119571910.078 7  93172943.10544                  22753768.453
                  22753773.801                          44.100          24.900

 129468934.357 7 100884993.019 6                  24637114.086
  24637121.621    24637121.457                          42.400          36.600

 108030477.838 8  84179656.250 8                  20557521.414
  20557526.125    20557526.617                          50.500          48.000

 117671508.413 7  91692111.202 7  87871618.126 8  22392121.773
  22392128.500    22392128.883    22392128.617          45.900          44.600
        48.700
 19  3 26 19 15  0.0000000  0 10G16G08G30G09G11G23G28G05G07G27
 130350183.067 6 101571601.43343                  24804816.688
                  24804823.961                          38.700          20.600

 110892127.277 7  86409392.499 7  82809017.904 8  21102043.227
  21102050.598    21102050.766    21102049.984          47.000          47.600
        52.600
 114282988.336 7  89051702.090 7  85341217.714 8  21747327.039
  21747334.852    21747334.695    21747334.902          47.500          45.300
        51.500
 109616824.059 8  85415724.627 8  81856737.313 8  20859388.727
  20859395.738    20859395.938    20859396.520          48.300          48.600
        52.600
 128366602.197 6 100025933.94543                  24427347.000
                  24427353.375                          38.600          20.100

 119936755.192 7  93457235.57945                  22823211.063
                  22823215.238                          46.000          30.200

 119499318.483 7  93116378.28744                  22739955.461
                  22739960.102                          44.500          24.700

 129480817.620 6 100894252.713 6                  24639376.945
  24639382.535    24639382.957                          41.900          36.100

 108008535.368 8  84162558.216 8                  20553345.945
  20553350.527    20553351.145                          50.800          48.500

 117733737.939 7  91740601.701 7  87918088.210 8  22403963.641
  22403970.121    22403970.820    22403970.156          46.100          44.000
        48.000
 19  3 26 19 15 30.0000000  0 10G16G08G30G09G11G23G28G05G07G27
 130455583.732 6 101653731.76043                  24824873.352
                  24824881.203                          37.100          19.600

 110891838.908 7  86409167.784 7  82808802.569 8  21101987.344
  21101995.934    21101995.930    21101995.188          47.200          47.800
        53.000
 114217375.414 7  89000575.144 7  85292221.064 8  21734841.016
  21734848.988    21734849.074    21734849.473          46.400          45.800
        51.200
 109680927.625 7  85465675.462 8  81904606.855 8  20871587.586
  20871594.348    20871594.648    20871595.152          47.100          49.100
        53.000
 128272740.422 6  99952794.97643                  24409484.906
                  24409491.824                          38.100          20.900

 120039798.105 7  93537528.72544                  22842819.172
                  22842823.297                          45.300          28.000

 119426994.464 7  93060021.93344                  22726193.430
                  22726197.629                          45.200          26.200

 129493201.486 6 100903902.419 6                  24641730.430
  24641739.563    24641739.199                          40.800          37.000

 107986860.495 8  84145668.706 8                  20549221.219
  20549225.902    20549226.457                          50.000          48.500

 117796490.623 7  91789499.873 7  87964948.969 8  22415905.219
  22415911.734    22415912.383    22415911.578          45.100          44.100
        48.300
 19  3 26 19 16  0.0000000  0 10G16G08G30G09G11G23G28G05G07G27
 130560949.004 6 101735834.51843                  24844923.688
                  24844930.820                          36.000          19.600

 110892174.053 8  86409428.954 7  82809052.855 8  21102052.109
  21102060.027    21102059.621    21102059.625          48.200          47.900
        52.700
 114151920.525 7  88949571.342 7  85243342.421 8  21722385.125
  21722393.336    21722393.574    21722393.844          46.700          46.100
        51.900
 109745513.209 7  85516001.868 8  81952836.325 8  20883876.422
  20883884.879    20883885.164    20883885.613          46.800          49.000
        52.500
 128178919.444 6  99879687.77243                  24391629.070
                  24391638.449                          36.600          20.400

 120143087.375 7  93618013.82944                  22862473.742
                  22862478.805                          45.300          27.100

 119354938.626 7  93003874.53644                  22712478.969
                  22712486.449                          43.800          25.300

 129506085.152 6 100913941.621 6                  24644183.688
  24644190.023    24644190.426                          41.900          36.000

 107965454.704 8  84128988.881 8                  20545147.797
  20545152.461    20545153.035                          50.300          48.000

 117859764.450 7  91838804.147 7  88012198.898 8  22427946.031
  22427952.391    22427953.035    22427952.668          45.200          44.500
        48.100
 19  3 26 19 16 30.0000000  0 10G16G08G30G09G11G23G28G05G07G27
 130666276.707 5 101817907.91842                  24864967.555
                  24864974.039                          34.300          17.400

 110893131.850 8  86410175.296 7  82809768.085 8  21102233.625
  21102241.605    21102241.641    21102241.648          48.300          47.800
        53.100
 114086624.407 7  88898691.284 7  85194582.364 8  21709959.836
  21709968.188    21709968.051    21709968.395          46.700          46.600
        51.600
 109810578.652 8  85566702.190 8  82001424.148 8  20896259.055
  20896266.262    20896266.660    20896267.000          48.700          48.900
        52.400
 128085142.124 6  99806614.60243                  24373784.828
                  24373792.816                          37.200          18.300

 120246619.963 7  93698688.51344                  22882176.148
                  22882180.773                          44.900          28.200

 119283151.118 7  92947936.27544                  22698820.109
                  22698825.004                          44.900          25.500

 129519467.206 6 100924369.196 6                  24646730.406
  24646736.875    24646737.160                          41.600          36.100

 107944318.568 8  84112519.180 8                  20541125.766
  20541130.730    20541131.195                          50.300          48.300

 117923556.759 7  91888512.441 7  88059836.011 8  22440085.641
  22440091.836    22440092.023    22440092.125          46.600          44.500
        48.400
 19  3 26 19 17  0.0000000  0 10G16G08G30G09G11G23G28G05G07G27
 130771565.276 5 101899950.85842                  24885004.539
                  24885009.820                          35.000          16.300

 110894712.636 8  86411407.091 7  82810948.561 8  21102534.547
  21102542.566    21102542.504    21102541.953          48.200          47.500
        52.600
 114021488.193 7  88847935.817 7  85145941.716 8  21697565.336
  21697573.016    21697573.117    21697573.367          47.600          46.400
        51.400
 109876122.083 7  85617774.980 8  82050368.904 8  20908731.828
  20908738.680    20908739.219    20908739.336          47.900          49.100
        52.300
 127991410.882 6  99733577.26443                  24355946.773
                  24355956.281                          37.200          18.600

 120350393.475 7  93779550.92944                  22901923.891
                  22901928.121                          45.300          27.700

 119211632.371 7  92892207.40044                  22685209.391
                  22685216.637                          45.100          27.100

 129533346.153 6 100935183.882 6                  24649368.859
  24649377.664    24649377.609                          41.400          36.500

 107923453.409 8  84096260.597 8                  20537155.672
  20537160.141    20537160.691                          50.500          48.300

 117987865.207 7  91938622.900 7  88107858.530 8  22452321.805
  22452328.727    22452329.590    22452329.719          44.400          44.600
        48.700
 19  3 26 19 17 30.0000000  0 10G16G08G30G09G11G23G28G05G07G27
 130876812.680 5 101981961.79642                  24905033.695
                  24905037.855                          34.500          16.900

 110896915.325 8  86413123.462 7  82812593.420 8  21102953.602
  21102961.652    21102961.570    21102961.344          48.700          47.300
        52.300
 113956512.224 7  88797305.213 7  85097420.712 8  21685200.750
  21685208.180    21685208.492    21685208.715          47.300          46.100
        51.900
 109942140.893 7  85669218.185 8  82099668.627 8  20921294.484
  20921301.594    20921301.953    20921302.406          47.000          49.000
        52.700
 127897728.230 6  99660577.87943                  24338121.563
                  24338129.129                          37.200          19.300

 120454404.244 7  93860598.23744                  22921717.281
                  22921720.844                          45.200          27.300

 119140381.866 7  92836687.58544                  22671651.859
                  22671657.656                          45.800          27.100

 129547720.409 7 100946384.552 5                  24652106.383
  24652113.055    24652112.680                          42.100          35.600

 107902859.771 8  84080213.599 8                  20533236.719
  20533241.480    20533241.746                          50.800          48.200

 118052686.640 7  91989133.102 7  88156264.135 8  22464657.305
  22464664.535    22464665.168    22464665.066          44.600          44.300
        48.800
 19  3 26 19 18  0.0000000  0 10G16G08G30G09G11G23G28G05G07G27
 130982018.343 5 102063940.12242                  24925052.672
                  24925058.219                          34.500          16.900

 110899740.618 7  86415325.001 7  82814703.231 8  21103491.938
  21103499.586    21103499.488    21103499.594          46.900          47.000
        52.500
 113891698.326 7  88746800.901 7  85049020.749 8  21672867.094
  21672874.449    21672875.000    21672875.043          47.900          46.900
        51.900
 110008633.876 7  85721030.882 8  82149322.447 8  20933946.758
  20933954.941    20933954.988    20933955.926          46.300          48.900
        53.000
 127804097.485 6  99587618.89443                  24320303.719
                  24320312.113                          38.500          18.300

 120558650.911 7  93941829.33744                  22941554.789
                  22941558.219                          44.200          26.100

 119069400.889 7  92781377.75944                  22658143.242
                  22658150.332                          44.700          27.600

 129562589.252 7 100957970.655 5                  24654935.844
  24654941.508    24654942.742                          42.100          35.800

 107882539.249 8  84064379.452 8                  20529370.250
  20529374.633    20529374.930                          50.200          48.600

 118118019.413 7  92040041.768 7  88205051.589 8  22477090.453
