     2.11           OBSERVATION DATA    M (MIXED)           RINEX VERSION / TYPE
teqc  2018Jun8      root                20191212 04:37:42UTCPGM / RUN BY / DATE
Linux 2.4.21-27.ELsmp|Opteron|gcc|Linux 64|=+               COMMENT
teqc  2019Feb25     CORS-ADM Account    20190427 20:20:17UTCCOMMENT
teqc  2018Jan11     NOAA/NOS/NGS/CORS   20190328 08:54:24UTCCOMMENT
Linux 2.4.21-27.ELsmp|Opteron|gcc -static|Linux 64|=+       COMMENT
BIT 2 OF LLI FLAGS DATA COLLECTED UNDER A/S CONDITION       COMMENT
 SNR is mapped to RINEX snr flag value [0-9]                COMMENT
  L1 & L2: min(max(int(snr_dBHz/6), 0), 9)                  COMMENT
teqc.e edited: all SBAS satellites excluded                 COMMENT
teqc.e edited: all QZSS satellites excluded                 COMMENT
Forced Modulo Decimation to 30 seconds                      COMMENT
TMG2                                                        MARKER NAME
Don Haw             NGS                                     OBSERVER / AGENCY
3025662             SEPT POLARX5        5.2.0               REC # / TYPE / VERS
00446               JAVRINGANT_DM   SCIS                    ANT # / TYPE
 -1283433.9380 -4713073.2970  4090105.0960                  APPROX POSITION XYZ
        0.0083        0.0000        0.0000                  ANTENNA: DELTA H/E/N
     1     1                                                WAVELENGTH FACT L1/2
    11    L1    L2    L5    C1    P1    C2    P2    C5    S1# / TYPES OF OBSERV
          S2    S5                                          # / TYPES OF OBSERV
    30.0000                                                 INTERVAL
teqc.w windowed: start @ 2019 Mar 26 19:00:00.000           COMMENT
teqc.w windowed:  end  @ 2019 Mar 26 22:00:00.000           COMMENT
  2019     3    26    19     0    0.0000000     GPS         TIME OF FIRST OBS
    18                                                      LEAP SECONDS
                                                            END OF HEADER
 19  3 26 19  0  0.0000000  0 27R08G23G08E05R15R17E08G16G09E24E03G30
                                G07G11G27E02E25R16R07R09G05R06G28E12
                                R18E11R19
 125801766.793 7  97845829.327 7                  23492592.684
  23492596.070                                          43.500          42.000

 117032815.369 7  91194386.37745                  22270603.121    22270602.469
                  22270599.440                          46.000          34.000

 111194709.491 8  86645255.871 7  83035042.634 8  21159640.681    21159640.190
  21159642.080    21159641.378    21159640.058          48.750          46.500
        52.250
 134692354.149 7                 100581966.570 7  25631102.685
                                  25631105.467          44.250
        46.250
 127324732.841 7  99030357.766 7                  23827091.425
  23827095.558                                          43.750          42.000

 121953480.221 7  94852735.893 7                  22789917.868
  22789921.786                                          44.250          42.750

 129833543.403 6                  96953616.926 7  24706497.565
                                  24706498.316          39.750
        42.000
 127119617.496 6  99054253.95643                  24190057.985    24190057.127
                  24190056.254                          37.250          19.750

 107962169.699 8  84126373.297 8  80621110.715 9  20544514.481    20544514.048
  20544514.713    20544514.503    20544514.403          50.750          48.750
        54.000
 122526121.881 7                  91496827.306 7  23315946.293
                                  23315958.706          45.500
        47.750
 127517789.456 8                  95224338.162 8  24265826.621
                                  24265828.593          48.750
        50.750
 116297835.797 7  90621710.636 7  86845806.450 8  22130735.486    22130734.856
  22130735.950    22130735.602    22130735.480          45.750          43.250
        50.250
 108753071.854 8  84742666.288 7                  20695014.382    20695013.962
  20695011.909    20695011.663                          51.250          46.500

 131246513.585 6 102270023.92243                  24975377.743    24975377.100
                  24975377.511                          38.000          20.750

 116063110.060 7  90438806.026 7  86670536.796 8  22086068.483    22086067.902
  22086068.707    22086068.179    22086067.834          46.500          44.000
        49.250
 137492859.701 7                 102673265.692 7  26164016.146
                                  26164018.046          42.500
        43.750
 120608931.132 8                  90065134.293 8  22951109.984
                                  22951111.545          49.750
        52.500
 108441394.357 8  84343328.588 7                  20300450.387
  20300452.793                                          48.000          45.000

 110607803.019 8  86028330.687 8                  20662469.063
  20662472.282                                          52.000          49.500

 111255059.515 8  86531745.502 8                  20834492.091
  20834494.430                                          50.500          49.250

 129308213.180 6 100759633.848 5                  24606535.749    24606535.450
  24606534.765    24606534.300                          38.500          30.250

 112674808.247 7                                  21115209.643
                                                        45.750

 121842074.499 6  94941880.94944                  23185771.529    23185770.702
                  23185770.116                          40.000          24.000

 131123119.513 5                  97916643.781 6  24951897.091
                                  24951896.720          35.750
        39.500
 114423793.390 8  88996320.607 7                  21435425.256
  21435429.677                                          49.250          46.500

 134021780.699 5                 100081208.833 6  25503492.975
                                  25503492.304          34.500
        38.250
 122974464.928 6  95646834.973 6                  22988774.571
  22988778.966                                          39.250          39.250

 19  3 26 19  0 30.0000000  0 27R08G23G08E05R15R17E08G16G09E24E03G30
                                G07G11G27E02E25R16R07R09G05R06G28E12
                                R18E11R19
 125700554.500 7  97767108.679 7                  23473692.030
  23473694.790                                          43.750          42.000

 117127537.225 7  91268195.57145                  22288628.129    22288627.468
                  22288624.390                          46.000          33.500

 111175470.243 8  86630264.263 7  83020675.674 8  21155979.500    21155979.009
  21155980.976    21155980.233    21155978.887          49.000          46.750
        52.500
 134777107.264 7                 100645256.193 7  25647230.581
                                  25647233.420          43.750
        46.500
 127411602.947 7  99097923.367 7                  23843348.121
  23843352.120                                          42.500          42.000

 122007843.666 7  94895018.552 7                  22800076.572
  22800080.790                                          44.500          43.000

 129775483.520 6                  96910260.540 7  24695449.263
                                  24695449.818          39.250
        42.000
 127225411.872 6  99136691.08143                  24210190.276    24210189.422
                  24210188.192                          37.250          20.250

 108011380.870 8  84164719.649 8  80657859.300 9  20553879.114    20553878.676
  20553879.319    20553879.064    20553878.974          50.750          49.000
        54.250
 122580432.725 7                  91537384.095 8  23326281.398
                                  23326293.758          45.250
        48.000
 127536086.800 8                  95238001.747 8  24269308.504
                                  24269310.445          48.500
        50.750
 116227873.171 7  90567194.334 7  86793561.663 8  22117421.892    22117421.258
  22117422.665    22117422.137    22117421.993          45.750          43.750
        50.500
 108723888.237 8  84719925.812 7                  20689460.980    20689460.560
  20689458.301    20689458.225                          51.500          46.750

 131152600.249 6 102196844.76643                  24957507.414    24957506.757
                  24957506.059                          39.250          21.750

 116108967.458 7  90474539.065 7  86704780.957 8  22094794.690    22094794.109
  22094794.868    22094794.555    22094794.192          46.500          44.000
        49.250
 137436952.085 7                 102631516.557 7  26153377.190
                                  26153379.238          42.250
        44.250
 120606872.396 8                  90063596.936 8  22950718.199
                                  22950719.814          49.500
        52.500
 108485130.637 7  84377345.705 7                  20308638.036
  20308640.719                                          47.500          45.000

 110598560.156 8  86021141.789 8                  20660742.427
  20660745.749                                          51.750          49.500

 111204040.147 8  86492063.796 8                  20824937.844
  20824939.945                                          50.500          49.250

 129305435.704 6 100757469.551 5                  24606007.181    24606006.886
  24606005.933    24606005.620                          38.750          30.500

 112777118.193 7                                  21134382.070
                                                        45.250

 121761747.846 6  94879288.80244                  23170485.744    23170484.913
                  23170484.796                          40.250          24.250

 131093754.772 5                  97894715.564 6  24946309.317
                                  24946308.834          35.750
        39.750
 114375756.061 8  88958958.258 7                  21426426.380
  21426430.577                                          49.250          46.500

 133942072.315 5                 100021686.407 6  25488324.803
                                  25488324.105          34.000
        38.250
 122852441.732 6  95551928.154 6                  22965964.181
  22965968.384                                          39.750          38.250

 19  3 26 19  1  0.0000000  0 28R10R08G23G08E05R15R17E08G16G09E24E03
                                G30G07G11G27E02E25R16R07R09G05R06G28
                                E12R18E11R19
 129230650.536 6                                  24243343.130
                                                        37.000

 125599795.972 7  97688740.960 6                  23454876.027
  23454879.336                                          43.750          41.750

 117222575.551 7  91342251.36545                  22306713.515    22306712.863
                  22306709.607                          46.000          33.750

 111156843.979 8  86615750.301 7  83006766.466 8  21152435.179    21152434.688
  21152436.547    21152435.738    21152434.409          49.000          46.750
        52.250
 134862028.120 7                 100708671.076 7  25663390.544
                                  25663393.424          44.000
        46.000
 127498456.302 6  99165475.926 7                  23859601.461
  23859605.719                                          41.000          42.000

 122062911.651 7  94937849.189 7                  22810367.334
  22810371.329                                          44.500          42.750

 129717731.765 6                  96867134.247 6  24684459.328
                                  24684459.882          39.750
        41.750
 127331218.452 6  99219137.73943                  24230324.377    24230323.506
                  24230322.302                          37.750          20.500

 108061118.985 8  84203476.607 8  80695001.387 9  20563344.022    20563343.584
  20563344.263    20563343.927    20563343.841          50.750          49.000
        54.000
 122634793.536 7                  91577978.201 7  23336625.940
                                  23336638.287          45.750
        47.750
 127554802.684 8                  95251977.886 8  24272870.016
                                  24272871.988          49.000
        50.500
 116158038.745 7  90512777.912 7  86741412.601 8  22104132.814    22104132.180
  22104133.520    22104133.117    22104132.938          45.750          43.750
        50.500
 108694941.461 8  84697369.894 7                  20683952.575    20683952.155
  20683950.034    20683949.842                          51.500          46.750

 131058641.825 6 102123630.46943                  24939627.393    24939626.741
                  24939626.140                          39.250          22.250

 116155407.687 7  90510726.258 7  86739460.353 8  22103631.960    22103631.379
  22103632.260    22103631.844    22103631.490          46.500          44.250
        49.000
 137381158.636 7                 102589852.666 7  26142759.956
                                  26142761.986          42.750
        44.000
 120604973.580 8                  90062178.998 8  22950356.904
                                  22950358.487          50.000
        52.500
 108529069.532 7  84411520.384 7                  20316863.696
  20316865.619                                          47.500          45.000

 110590139.667 8  86014592.510 8                  20659169.322
  20659172.720                                          52.000          49.500

 111153236.753 8  86452550.054 8                  20815423.974
  20815426.120                                          50.750          49.250

 129303182.663 6 100755713.893 5                  24605578.615    24605578.311
  24605577.631    24605577.031                          38.750          31.000

 112879897.950 7                                  21153643.493
                                                        45.500

 121681670.679 6  94816891.06644                  23155247.714    23155246.878
                  23155246.403                          40.500          25.000

 131064774.224 6                  97873074.235 6  24940794.391
                                  24940793.958          36.250
        39.500
 114328441.925 8  88922158.391 7                  21417562.956
  21417566.831                                          49.250          46.500

 133862446.984 5                  99962225.995 6  25473172.310
                                  25473172.037          34.000
        38.000
 122730569.009 6  95457138.347 6                  22943181.330
  22943184.401                                          40.250          37.500

 19  3 26 19  1 30.0000000  0 28R10R08G23G08E05R15R17E08G16G09E24E03
                                G30G07G11G27E02E25R16R07R09G05R06G28
                                E12R18E11R19
 129145725.423 6                                  24227410.110
                                                        40.750

 125499494.043 7  97610728.387 6                  23436145.304
  23436148.931                                          44.000          41.750

 117317927.067 7  91416551.20345                  22324858.252    22324857.600
                  22324854.401                          45.750          33.500

 111138830.148 8  86601713.562 7  82993314.592 8  21149007.288    21149006.797
  21149008.450    21149007.797    21149006.491          49.000          47.000
        52.250
 134947114.092 7                 100772209.252 7  25679581.830
                                  25679584.674          44.000
        46.000
 127585292.059 6  99233014.779 6                  23875850.932
  23875856.223                                          39.000          41.750

 122118680.813 7  94981225.194 7                  22820789.664
  22820793.198                                          44.750          42.250

 129660288.753 6                  96824238.516 7  24673528.287
                                  24673529.087          40.000
        42.000
 127437034.533 6  99301591.78543                  24250460.626    24250459.804
                  24250458.337                          37.500          20.500

 108111381.861 8  84242642.469 8  80732535.341 9  20572908.653    20572908.215
  20572908.957    20572908.689    20572908.554          50.500          49.000
        54.000
 122689202.932 7                  91618608.585 7  23346979.724
                                  23346992.071          45.500
        47.750
 127573935.847 8                  95266265.624 8  24276510.982
                                  24276512.904          49.000
        50.500
 116088332.563 7  90458461.431 7  86689359.310 8  22090868.265    22090867.635
  22090868.944    22090868.368    22090868.304          45.750          43.750
        50.500
 108666231.984 8  84674998.877 7                  20678489.299    20678488.879
  20678486.884    20678486.598                          51.250          47.000

 130964640.359 6 102050382.65643                  24921739.012    24921738.360
                  24921738.546                          38.500          21.500

 116202428.133 7  90547365.562 7  86774573.016 8  22112579.620    22112579.039
  22112579.848    22112579.553    22112579.172          46.250          44.000
        49.000
 137325478.243 7                 102548273.200 7  26132164.407
                                  26132166.330          42.750
        44.000
 120603233.229 8                  90060879.390 8  22950025.665
                                  22950027.284          49.750
        52.500
 108573209.588 7  84445851.530 7                  20325126.723
  20325129.317                                          47.500          45.250

 110582540.668 8  86008682.167 8                  20657749.789
  20657753.155                                          52.000          49.500

 111102648.250 8  86413203.464 8                  20805950.078
  20805952.711                                          51.000          49.250

 129301452.667 6 100754365.873 5                  24605249.075    24605248.771
  24605247.818    24605247.599                          38.000          31.500

 112983141.625 7                                  21172990.993
                                                        45.500

 121601842.296 6  94754687.18744                  23140056.982    23140056.137
                  23140055.618                          40.750          25.500

 131036178.088 6                  97851720.017 6  24935352.875
                                  24935352.383          36.250
        39.500
 114281853.010 8  88885922.587 7                  21408835.303
  21408839.544                                          49.000          46.500

 133782906.013 5                  99902828.578 6  25458036.669
                                  25458035.837          34.750
        38.000
 122608850.361 6  95362468.386 6                  22920427.408
  22920430.269                                          40.500          37.500

 19  3 26 19  2  0.0000000  0 28R10R08G23G08E05R15R17E08G16G09E24E03
                                G30G07G11G27E02E25R16R07R09G05R06G28
                                E12R18E11R19
 129060861.362 7 100380704.032 5                  24211490.396
  24211498.423                                          43.500          33.500

 125399655.199 7  97533075.972 6                  23417500.843
  23417503.889                                          43.500          41.250

 117413592.008 7  91491095.26745                  22343062.554    22343061.902
                  22343058.834                          46.000          33.500

 111121432.022 8  86588156.592 7  82980322.498 8  21145696.468    21145695.977
  21145697.666    21145696.982    21145695.711          49.000          46.750
        52.250
 135032365.834 7                 100835871.227 7  25695804.650
                                  25695807.650          43.500
        46.000
 127672112.378 6  99300541.601 6                  23892098.582
  23892102.970                                          38.250          40.750

 122175151.335 7  95025146.691 7                  22831342.273
  22831345.969                                          44.750          42.000

 129603158.392 6                  96781576.247 7  24662656.552
                                  24662657.339          39.500
        42.250
 127542860.870 6  99384053.82243                  24270598.741    24270597.914
                  24270596.969                          38.000          20.750

 108162170.646 8  84282218.140 8  80770462.015 9  20582573.503    20582573.065
  20582573.704    20582573.494    20582573.376          50.750          49.000
        54.000
 122743662.824 7                  91659276.676 7  23357342.983
                                  23357355.410          45.250
        47.500
 127593488.273 8                  95280866.452 8  24280231.694
                                  24280233.653          48.750
        50.750
 116018757.951 7  90404247.471 7  86637404.260 8  22077628.672    22077628.038
  22077629.316    22077628.730    22077628.689          46.000          43.750
        50.500
 108637762.770 8  84652815.073 7                  20673071.818    20673071.398
  20673069.242    20673069.094                          51.500          47.000

 130870601.113 6 101977105.39343                  24903844.407    24903843.755
                  24903843.472                          38.500          21.250

 116250029.404 7  90584457.458 7  86810119.418 8  22121637.863    22121637.282
  22121638.403    22121637.742    22121637.405          46.250          44.000
        49.000
 137269913.110 7                 102506779.795 7  26121590.778
                                  26121592.535          42.500
        44.250
 120601653.182 8                  90059699.484 8  22949724.963
                                  22949726.653          49.500
        52.500
 108617552.412 7  84480340.389 7                  20333427.822
  20333430.250                                          47.500          45.000

 110575766.307 8  86003413.208 8                  20656484.482
  20656487.777                                          52.000          49.500

 111052277.073 8  86374025.887 8                  20796517.365
  20796519.730                                          50.750          49.250

 129300247.400 6 100753426.658 5                  24605019.789    24605019.499
  24605018.367    24605018.340                          38.500          30.500

 113086847.461 7                                  21192425.891
                                                        45.500

 121522265.617 6  94692679.43144                  23124913.905    23124913.056
                  23124912.590                          41.000          26.000

 131007969.999 6                  97830655.528 6  24929985.198
                                  24929984.724          36.000
        39.750
 114235994.596 8  88850254.944 7                  21400244.373
  21400248.404                                          49.250          46.500

 133703453.873 5                  99843497.490 6  25442916.943
                                  25442916.536          34.750
        38.000
 122487292.854 6  95267923.710 6                  22897703.294
  22897706.137                                          41.000          37.500

 19  3 26 19  2 30.0000000  0 28R10R08G23G08E05R15R17E08G16G09E24E03
                                G30G07G11G27E02E25R16R07R09G05R06G28
                                E12R18E11R19
 128976056.420 7 100314744.680 5                  24195581.063
  24195589.769                                          43.750          35.000

 125300281.219 7  97455785.160 6                  23398942.946
  23398946.483                                          42.250          41.000

 117509565.937 7  91565880.10245                  22361325.937    22361325.285
                  22361322.172                          46.000          33.500

 111104648.386 8  86575078.451 7  82967789.273 8  21142502.663    21142502.172
  21142503.839    21142503.213    21142501.870          49.000          46.750
        52.250
 135117779.628 7                 100899654.205 7  25712058.360
                                  25712061.383          43.500
        46.000
 127758915.180 6  99368054.809 6                  23908341.485
  23908347.107                                          37.500          41.250

 122232318.944 7  95069610.373 7                  22842025.331
  22842028.892                                          44.750          42.000

 129546340.134 6                  96739147.042 7  24651844.578
                                  24651845.222          40.250
        42.250
 127648693.925 6  99466521.09343                  24290738.273    24290737.437
                  24290736.185                          38.250          20.000

 108213481.995 8  84322200.992 8  80808778.916 9  20592337.789    20592337.351
  20592338.021    20592337.749    20592337.614          50.750          49.000
        54.000
 122798170.729 7                  91699980.631 7  23367715.477
                                  23367727.917          45.250
        47.500
 127613457.569 8                  95295778.581 8  24284031.690
                                  24284033.671          49.000
        50.500
 115949313.846 7  90350135.194 7  86585546.674 8  22064413.899    22064413.260
  22064414.435    22064413.912    22064413.884          46.250          43.500
        50.750
 108609533.421 8  84630818.188 7                  20667699.907    20667699.487
  20667697.506    20667697.215                          51.500          47.000

 130776524.860 6 101903799.28843                  24885941.668    24885941.007
                  24885940.863                          38.250          20.500

 116298207.722 7  90621998.994 7  86846096.731 8  22130805.925    22130805.340
  22130806.247    22130805.773    22130805.419          46.500          43.750
        49.000
 137214461.054 7                 102465370.837 7  26111038.439
                                  26111040.353          42.750
        44.250
 120600230.877 8                  90058637.384 8  22949454.360
                                  22949455.948          49.750
        52.250
 108662095.320 7  84514984.869 7                  20341766.215
  20341768.589                                          47.750          45.000

 110569814.303 8  85998783.864 8                  20655372.691
  20655375.869                                          52.000          49.250

 111002121.035 8  86335015.653 8                  20787124.746
  20787126.933                                          51.000          49.250

 129299564.446 6 100752894.445 5                  24604889.788    24604889.529
  24604888.745    24604888.593                          38.250          31.750

 113191009.065 7                                  21211945.379
                                                        45.500

 121442939.784 6  94630867.15344                  23109818.622    23109817.777
                  23109817.365                          41.500          26.250

 130980148.990 6                  97809880.120 6  24924690.942
                                  24924690.401          36.250
        39.500
 114190867.510 8  88815156.121 7                  21391790.777
  21391794.446                                          49.250          46.250

 133624090.749 5                  99784232.890 6  25427814.652
                                  25427814.120          35.500
        37.750
 122365899.325 6  95173506.612 6                  22875010.446
  22875013.723                                          41.000          37.750

 19  3 26 19  3  0.0000000  0 28R10R08G23G08E05R15R17E08G16G09E24E03
                                G30G07G11G27E02E25R16R07R09G05R06G28
                                E12R18E11R19
 128891309.768 7 100248830.678 6                  24179682.988
  24179691.064                                          42.500          36.000

 125201375.263 6  97378858.336 6                  23380473.446
  23380476.505                                          41.500          40.500

 117605845.920 7  91640903.42645                  22379647.428    22379646.771
                  22379643.703                          46.000          33.250

 111088479.294 8  86562479.158 7  82955714.956 8  21139425.683    21139425.192
  21139427.059    21139426.317    21139424.952          49.000          46.750
        52.250
 135203353.123 7                 100963556.435 7  25728342.365
                                  25728345.509          43.750
        45.750
 127845699.829 6  99435553.891 6                  23924582.978
  23924587.683                                          38.000          40.500

 122290180.554 7  95114613.822 6                  22852838.627
  22852841.951                                          45.000          41.250

 129489834.893 6                  96696951.582 7  24641091.834
                                  24641092.706          40.250
        42.500
 127754531.364 6  99548991.79243                  24310878.140    24310877.282
                  24310876.490                          38.000          19.500

 108265313.996 8  84362589.551 8  80847484.618 9  20602200.969    20602200.531
  20602201.282    20602201.054    20602200.954          50.750          48.750
        54.000
 122852725.588 7                  91740719.641 7  23378096.998
                                  23378109.327          45.500
        47.250
 127633842.707 8                  95311001.231 8  24287910.891
                                  24287912.877          49.000
        50.500
 115880000.597 7  90296124.884 7  86533786.798 8  22051223.932    22051223.293
  22051224.679    22051224.035    22051224.034          46.250          43.750
        50.500
 108581543.751 8  84609008.056 7                  20662373.678    20662373.258
  20662371.134    20662370.937                          51.500          47.000

 130682413.344 6 101830465.72343                  24868033.313    24868032.687
                  24868031.850                          38.500          19.750

 116346960.656 7  90659988.302 7  86882503.148 8  22140083.121    22140082.536
  22140083.479    22140083.157    22140082.794          46.250          43.750
        49.000
 137159121.313 7                 102424045.748 7  26100507.702
                                  26100509.589          43.000
        44.500
 120598965.161 8                  90057692.207 8  22949213.475
                                  22949215.076          50.000
        52.500
 108706836.989 7  84549783.937 7                  20350141.968
  20350144.422                                          47.500          45.000

 110564684.461 8  85994793.977 8                  20654414.204
  20654417.741                                          52.250          49.500

 110952179.603 8  86296172.324 8                  20777772.452
  20777774.571                                          50.750          49.250

 129299402.791 6 100752768.496 5                  24604858.756    24604858.502
  24604858.348    24604857.959                          38.500          31.500

 113295621.371 7                                  21231549.734
                                                        45.500

 121363864.462 6  94569250.07144                  23094771.336    23094770.496
                  23094769.815                          41.500          26.250

 130952715.676 6                  97789394.213 6  24919470.677
                                  24919469.872          36.500
        39.500
 114146473.857 8  88780627.745 7                  21383474.124
  21383478.187                                          49.250          46.500

 133544818.188 6                  99725035.909 6  25412729.836
                                  25412729.084          36.500
        37.750
 122244673.558 6  95079219.956 6                  22852348.211
  22852350.839                                          40.750          38.750

 19  3 26 19  3 30.0000000  0 28R10R08G23G08E05R15R17E08G16G09E24E03
                                G30G07G11G27E02E25R16R07R09G05R06G28
                                E12R18E11R19
 128806623.833 6 100182963.889 6                  24163795.264
  24163803.326                                          40.250          36.500

 125102943.831 6  97302300.617 6                  23362091.442
  23362095.082                                          40.750          39.750

 117702432.235 7  91716165.44845                  22398027.286    22398026.625
                  22398023.493                          46.000          33.000

 111072928.070 8  86550361.335 7  82944102.043 8  21136466.501    21136466.010
  21136467.525    21136467.033    21136465.704          49.500          46.750
        52.250
 135289087.256 7                 101027578.631 7  25744657.133
                                  25744660.215          43.250
        45.750
 127932469.057 6  99503040.995 6                  23940820.508
  23940825.146                                          39.250          40.250

 122348736.505 7  95160157.323 6                  22863780.898
  22863784.794                                          45.500          41.500

 129433646.903 6                  96654993.033 7  24630399.858
                                  24630400.524          40.500
        42.500
 127860374.341 6  99631466.80643                  24331019.504    24331018.650
                  24331018.033                          38.000          19.000

 108317667.975 8  84403384.847 8  80886580.108 9  20612163.659    20612163.226
  20612164.021    20612163.703    20612163.581          50.750          48.750
        54.000
 122907329.610 7                  91781495.368 7  23388487.770
                                  23388500.143          45.500
        47.500
 127654645.944 8                  95326536.105 8  24291869.614
                                  24291871.595          48.750
        50.500
 115810821.868 7  90242219.407 7  86482127.382 8  22038059.542    22038058.908
  22038060.262    22038059.636    22038059.675          46.500          43.750
        50.750
 108553798.259 8  84587388.200 7                  20657093.953    20657093.533
  20657091.430    20657091.140                          51.750          46.750

 130588272.057 6 101757108.94343                  24850118.267    24850117.637
                  24850117.511                          37.750          19.000

 116396289.060 7  90698426.027 7  86919339.295 8  22149470.192    22149469.607
  22149470.420    22149470.053    22149469.650          46.500          43.750
        49.000
 137103896.360 7                 102382806.377 7  26089998.606
                                  26090000.547          42.750
        44.750
 120597858.184 8                  90056865.570 8  22949002.798
                                  22949004.431          50.000
        52.500
 108751779.523 7  84584739.236 7                  20358555.195
  20358557.637                                          47.500          44.750

 110560379.677 8  85991445.798 8                  20653610.085
  20653613.237                                          52.250          49.500

 110902454.960 8  86257497.616 8                  20768460.356
  20768462.725                                          50.750          49.250

 129299764.344 6 100753050.222 5                  24604927.837    24604927.551
  24604927.864    24604926.750                          38.250          31.500

 113400682.373 7                                  21251238.569
                                                        45.500

 121285043.099 6  94507830.87644                  23079771.792    23079770.943
                  23079770.579                          41.750          26.250

 130925673.817 6                  97769200.650 6  24914324.684
                                  24914323.965          36.500
        39.500
 114102819.164 8  88746674.110 7                  21375296.125
  21375300.067                                          49.250          46.500

 133465641.155 6                  99665910.241 6  25397662.900
                                  25397662.104          36.500
        37.500
 122123622.974 6  94985069.572 6                  22829718.017
  22829722.394                                          40.500          38.750

 19  3 26 19  4  0.0000000  0 28R10R08G23G08E05R15R17E08G16G09E24E03
                                G30G07G11G27E02E25R16R07R09G05R06G28
                                E12R18E11R19
 128721998.880 6 100117144.556 6                  24147919.813
  24147929.181                                          39.250          36.250

 125004990.699 6  97226114.895 6                  23343799.397
  23343803.100                                          40.500          39.000

 117799322.822 7  91791664.55745                  22416464.983    22416464.326
                  22416461.311                          46.000          32.500

 111057995.245 8  86538725.376 7  82932950.914 8  21133624.810    21133624.319
  21133626.152    21133625.391    21133624.094          49.250          46.750
        52.250
 135374980.238 7                 101091719.450 7  25761002.120
                                  25761005.161          43.250
        45.500
 128019222.640 6  99570515.930 6                  23957056.065
  23957060.359                                          40.000          39.500

 122407984.278 7  95206238.905 6                  22874853.327
  22874855.895                                          45.750          40.750

 129377777.538 6                  96613272.397 7  24619768.341
                                  24619768.811          40.750
        42.500
 127966221.008 6  99713944.68042                  24351161.533    24351160.679
                  24351159.346                          37.500          17.750

 108370542.516 8  84444585.779 8  80926064.330 8  20622225.399    20622224.966
  20622225.649    20622225.421    20622225.290          50.750          48.750
        53.750
 122961982.298 7                  91822307.428 7  23398887.891
                                  23398900.246          45.250
        47.000
 127675866.792 8                  95342382.834 8  24295907.787
                                  24295909.782          48.750
        50.500
 115741778.586 7  90188419.468 7  86430569.111 8  22024921.104    22024920.470
  22024921.600    22024921.185    22024921.184          46.500          43.750
        50.500
 108526297.549 8  84565959.079 7                  20651860.713    20651860.293
  20651858.245    20651857.936                          51.750          47.000

 130494103.927 6 101683731.27143                  24832198.833    24832198.185
                  24832197.911                          37.000          18.000

 116446191.073 7  90737310.704 7  86956603.788 8  22158966.227    22158965.642
  22158966.410    22158966.093    22158965.739          46.250          43.500
        48.750
 137048785.973 7                 102341652.572 7  26079511.443
                                  26079513.388          42.750
        44.750
 120596909.349 8                  90056157.026 8  22948822.238
                                  22948823.914          49.750
        52.250
 108796922.183 7  84619850.196 7                  20367006.288
  20367008.586                                          47.500          44.750

 110556899.686 8  85988739.124 8                  20652959.812
  20652963.223                                          52.250          49.750

 110852947.185 8  86218991.577 8                  20759189.205
  20759191.579                                          50.750          49.250

 129300648.510 6 100753739.180 5                  24605095.862    24605095.612
  24605095.490    24605095.052                          38.250          31.500

 113506188.430 7                                  21271009.995
                                                        45.250

 121206476.783 7  94446610.41644                  23064821.269    23064820.420
                  23064819.659                          42.000          26.250

 130899024.497 6                  97749300.193 6  24909253.434
                                  24909252.799          36.500
        39.250
 114059906.111 8  88713297.310 7                  21367256.956
  21367260.853                                          49.250          46.250

 133386561.607 6                  99606857.372 6  25382614.628
                                  25382613.639          36.750
        37.000
 122002752.098 6  94891058.972 6                  22807122.844
  22807127.029                                          40.000          40.250

 19  3 26 19  4 30.0000000  0 28R10R08G23G08E05R15R17E08G16G09E24E03
                                G30G07G11G27E02E25R16R07R09G05R06G28
                                E12R18E11R19
 128637432.972 6 100051371.119 6                  24132055.294
  24132064.542                                          38.500          37.500

 124907518.251 6  97150303.010 6                  23325597.521
  23325600.468                                          40.500          39.000

 117896513.607 7  91867397.59945                  22434959.848    22434959.182
                  22434956.002                          46.000          33.000

 111043679.778 8  86527570.476 7  82922260.807 8  21130900.678    21130900.187
  21130901.925    21130901.241    21130899.836          49.250          47.000
        52.500
 135461028.787 7                 101155976.435 7  25777376.591
                                  25777379.623          43.250
        45.500
 128105959.069 6  99637977.559 6                  23973287.413
  23973292.056                                          41.250          38.000

 122467919.879 7  95252855.444 6                  22886053.585
  22886057.044                                          45.500          41.250

 129322226.694 6                  96571789.650 7  24609197.262
                                  24609197.982          40.750
        43.000
 128072067.996 6  99796422.81742                  24371303.870    24371303.048
                  24371301.374                          37.250          17.500

 108423934.733 8  84486190.087 8  80965935.127 9  20632385.607    20632385.174
  20632385.830    20632385.611    20632385.534          50.750          49.000
        54.000
 123016681.663 7                  91863154.353 7  23409296.748
                                  23409309.135          45.250
        47.250
 127697503.284 8                  95358539.941 8  24300025.125
                                  24300027.053          48.750
        50.500
 115672870.152 7  90134724.605 7  86379111.543 8  22011808.364    22011807.730
  22011808.806    22011808.364    22011808.314          46.500          44.000
        51.000
 108499041.357 8  84544720.491 7                  20646674.031    20646673.611
  20646671.625    20646671.263                          52.000          47.250

 130399910.061 6 101610333.52742                  24814273.996    24814273.308
                  24814272.878                          36.250          16.750

 116496663.269 7  90776639.697 7  86994294.063 8  22168570.720    22168570.139
  22168570.979    22168570.541    22168570.312          46.250          43.750
        49.000
 136993788.424 7                 102300583.015 7  26069045.729
                                  26069047.660          42.750
        45.000
 120596116.578 8                  90055565.024 8  22948671.412
                                  22948673.026          49.750
        52.500
 108842262.714 7  84655115.043 7                  20375494.051
  20375496.122                                          47.750          45.000

 110554243.251 8  85986673.001 8                  20652463.710
  20652467.072                                          52.000          49.500

 110803654.665 8  86180652.978 8                  20749958.240
  20749960.507                                          51.000          49.500

 129302052.936 6 100754833.474 5                  24605363.128    24605362.856
  24605362.752    24605361.849                          38.000          31.250

 113612133.113 7                                  21290864.167
                                                        45.250

 121128164.294 7  94385587.74144                  23049918.874    23049918.020
                  23049917.183                          42.250          26.750

 130872767.237 6                  97729692.528 6  24904256.760
                                  24904256.161          36.500
        39.750
 114017735.765 8  88680498.176 7                  21359356.969
  21359361.014                                          49.250          46.500

 133307580.260 6                  99547877.832 6  25367584.952
                                  25367583.740          36.750
        37.000
 121882064.167 6  94797190.668 6                  22784561.735
  22784564.829                                          40.000          40.250

 19  3 26 19  5  0.0000000  0 28R10R08G23G08E05R15R17E08G16G09E24E03
                                G30G07G11G27E02E25R16R07R09G05R06G28
                                E12R18E11R19
 128552925.217 6  99985642.898 6                  24116202.317
  24116210.715                                          36.500          37.000

 124810529.259 6  97074867.149 6                  23307485.417
  23307488.592                                          41.250          38.500

 117994001.312 7  91943362.00045                  22453511.088    22453510.422
                  22453507.474                          45.500          32.750

 111029981.053 8  86516896.159 7  82912031.252 8  21128293.961    21128293.465
  21128295.119    21128294.430    21128293.084          49.250          47.000
        52.500
 135547230.154 7                 101220347.541 7  25793780.303
                                  25793783.093          43.000
        45.250
 128192677.232 6  99705424.954 6                  23989515.448
  23989520.193                                          41.250          37.500

 122528539.943 7  95300004.383 6                  22897381.496
  22897385.075                                          45.000          41.000

 129266994.895 6                  96530545.139 7  24598687.105
                                  24598687.655          40.750
        43.500
 128177912.552 6  99878899.06042                  24391445.352    24391444.525
                  24391442.937                          36.750          16.000

 108477842.179 8  84528195.874 8  81006190.672 8  20642643.838    20642643.405
  20642644.133    20642643.873    20642643.778          50.500          48.750
        53.750
 123071426.234 7                  91904035.030 7  23419714.290
                                  23419726.622          45.250
        47.250
 127719553.888 8                  95375006.285 8  24304221.204
                                  24304223.136          48.750
        50.750
 115604096.588 7  90081134.837 7  86327754.684 8  21998720.786    21998720.147
  21998721.706    21998721.174    21998721.106          46.500          44.000
        51.000
 108472029.764 8  84523672.498 7                  20641533.890    20641533.470
  20641531.439    20641531.171                          51.500          47.250

 130305692.337 6 101536917.19442                  24796345.247    24796344.550
                  24796343.838                          36.500          15.750

 116547702.735 7  90816410.704 7  87032407.943 8  22178283.257    22178282.672
  22178283.368    22178283.082    22178282.741          46.250          43.500
        49.000
 136938902.502 7                 102259596.840 7  26058601.300
                                  26058603.222          42.250
        45.250
 120595478.303 8                  90055088.397 8  22948550.005
                                  22948551.561          49.750
        52.500
 108887799.470 7  84690532.507 7                  20384018.639
  20384020.816                                          47.500          45.000

 110552409.217 8  85985246.519 8                  20652121.199
  20652124.338                                          52.000          49.500

 110754576.308 8  86142480.942 8                  20740767.448
  20740769.572                                          51.250          49.500

 129303976.167 6 100756332.065 5                  24605729.178    24605728.901
  24605729.236    24605727.948                          37.750          32.000

 113718511.104 7                                  21310799.494
                                                        45.000

 121050105.459 6  94324762.72444                  23035064.647    23035063.780
                  23035063.282                          41.750          26.750

 130846902.128 6                  97710377.709 6  24899334.579
                                  24899334.150          36.250
        39.750
 113976309.776 8  88648277.985 7                  21351596.614
  21351600.498                                          49.000          46.500

 133228698.175 6                  99488972.385 6  25352574.227
                                  25352573.100          36.500
        36.750
 121761562.702 6  94703467.405 6                  22762034.303
  22762038.966                                          39.250          40.250

 19  3 26 19  5 30.0000000  0 28R10R08G23G08E05R15R17E08G16G09E24E03
                                G30G07G11G27E02E25R16R07R09G05R06G28
                                E12R18E11R19
 128468476.592 5  99919960.680 6                  24100360.136
  24100368.807                                          34.250          36.750

 124714028.323 7  96999810.892 6                  23289464.617
  23289467.166                                          42.000          38.500

 118091784.657 7  92019556.76645                  22472118.614    22472117.948
                  22472115.067                          45.250          32.500

 111016901.012 8  86506703.932 7  82902263.704 8  21125804.757    21125804.266
  21125806.125    21125805.355    21125804.094          49.000          46.750
        52.000
 135633583.854 7                 101284832.405 7  25810212.845
                                  25810215.694          43.000
        45.250
 128279378.447 7  99772859.189 5                  24005740.596
  24005745.543                                          42.500          35.250

 122589842.916 7  95347684.444 6                  22908837.095
  22908840.781                                          45.000          40.250

 129212084.863 6                  96489540.907 7  24588237.992
                                  24588238.662          40.750
        43.500
 128283754.579 5  99961373.34142                  24411586.372    24411585.541
                  24411583.725                          35.750          15.000

 108532264.710 8  84570603.026 8  81046830.857 8  20653000.138    20652999.705
  20653000.326    20653000.142    20653000.083          50.250          48.750
        53.750
 123126216.842 7                  91944950.085 7  23430140.597
                                  23430152.935          45.250
        47.250
 127742019.415 8                  95391782.484 8  24308496.254
                                  24308498.240          48.750
        50.750
 115535460.118 7  90027651.893 7  86276500.202 8  21985659.901    21985659.258
  21985660.651    21985660.151    21985660.047          46.250          44.000
        50.500
 108445264.942 8  84502816.798 7                  20636440.690    20636440.270
  20636438.221    20636437.975                          51.500          47.000

 130211454.525 6 101463485.18242                  24778412.091    24778411.389
                  24778410.722                          36.250          15.250

 116599308.833 7  90856623.238 7  87070944.963 8  22188103.548    22188102.958
  22188103.955    22188103.445    22188103.068          46.000          43.500
        48.750
 136884129.289 7                 102218694.817 7  26048178.149
                                  26048180.241          42.250
        45.250
 120594995.270 8                  90054727.691 8  22948458.051
                                  22948459.620          49.750
        52.500
 108933533.087 7  84726103.097 7                  20392580.276
  20392582.507                                          47.750          44.750

 110551398.603 8  85984460.471 8                  20651932.390
  20651935.814                                          52.000          49.500

 110705713.278 8  86104476.386 8                  20731617.104
  20731619.152                                          51.000          49.250

 129306418.782 6 100758235.415 5                  24606194.151    24606193.879
  24606192.657    24606193.269                          37.500          31.000

 113825319.411 7                                  21330815.219
                                                        45.000

 120972302.299 6  94264136.93844                  23020259.185    23020258.309
                  23020257.749                          41.750          26.000

 130821431.500 6                  97691357.457 6  24894488.020
                                  24894487.358          36.500
        39.500
 113935631.893 8  88616639.660 7                  21343975.985
  21343980.227                                          49.000          46.500

 133149918.907 6                  99430143.774 6  25337582.898
                                  25337581.977          36.500
        36.750
 121641253.776 6  94609893.873 6                  22739544.313
  22739548.345                                          40.000          40.750

 19  3 26 19  6  0.0000000  0 28R10R08G23G08E05R15R17E08G16G09E24E03
                                G30G07G11G27E02E25R16R07R09G05R06G28
                                E12R18E11R19
 128384087.084 5  99854324.471 6                  24084528.359
  24084537.678                                          34.000          36.750

 124618019.624 7  96925137.482 6                  23271535.698
  23271538.359                                          42.500          38.750

 118189861.263 7  92095980.04945                  22490782.104    22490781.438
                  22490778.446                          45.250          32.750

 111004440.355 8  86496994.346 7  82892958.682 8  21123433.552    21123433.061
  21123434.817    21123434.195    21123432.871          49.250          47.000
        52.250
 135720088.048 7                 101349429.635 7  25826674.294
                                  25826677.027          43.750
        44.750
 128366062.395 7  99840280.047 5                  24021962.085
  24021966.387                                          42.500          35.000

 122651826.348 7  95395893.764 6                  22920421.162
  22920424.388                                          45.250          41.000

 129157497.992 6                  96448777.994 7  24577850.500
                                  24577851.085          41.500
        43.500
 128389592.216 5 100043844.19242                  24431726.509    24431725.633
                  24431724.027                          35.250          15.000

 108587200.839 8  84613410.392 8  81087854.580 8  20663454.003    20663453.570
  20663454.472    20663454.150    20663454.095          50.500          48.500
        53.750
 123181053.002 7                  91985899.159 7  23440575.650
                                  23440587.969          45.500
        47.000
 127764899.324 8                  95408868.118 8  24312850.200
                                  24312852.145          49.000
        50.500
 115466961.677 7  89974276.508 7  86225348.793 8  21972625.029    21972624.386
  21972625.740    21972625.284    21972625.171          46.500          44.000
        51.000
 108418748.233 8  84482154.432 7                  20631394.672    20631394.257
  20631392.199    20631391.970                          51.750          47.000

 130117199.810 6 101390040.03242                  24760476.321    24760475.619
                  24760474.586                          37.000          16.000

 116651479.595 7  90897275.776 7  87109903.644 8  22198031.290    22198030.709
  22198031.415    22198031.187    22198030.855          46.000          43.250
        49.000
 136829468.545 7                 102177876.782 7  26037776.526
                                  26037778.650          42.750
        45.000
 120594666.889 8                  90054482.479 8  22948395.491
                                  22948397.185          50.000
        52.500
 108979462.955 7  84761826.319 7                  20401178.193
  20401180.500                                          47.750          44.500

 110551211.423 8  85984314.877 8                  20651897.549
  20651900.755                                          52.000          49.500

 110657065.365 8  86066639.137 8                  20722506.802
  20722509.073                                          51.000          49.500

 129309379.938 6 100760542.793 5                  24606757.671    24606757.408
  24606757.626    24606756.455                          37.750          31.750

 113932552.820 7                                  21350910.738
                                                        44.750

 120894755.251 6  94203710.72644                  23005502.417    23005501.537
                  23005500.802                          41.750          26.250

 130796356.385 6                  97672632.544 6  24889716.220
                                  24889715.679          36.750
        39.250
 113895704.741 8  88585585.232 7                  21336496.407
  21336500.604                                          49.000          46.500

 133071244.434 6                  99371393.388 6  25322611.371
                                  25322610.365          36.750
        36.250
 121521141.882 6  94516473.602 6                  22717090.840
  22717094.905                                          40.250          40.500

 19  3 26 19  6 30.0000000  0 28R10R08G23G08E05R15R17E08G16G09E24E03
                                G30G07G11G27E02E25R16R07R09G05R06G28
                                E12R18E11R19
 128299756.997 5  99788734.496 6                  24068708.608
  24068717.986                                          34.750          36.750

 124522507.588 7  96850850.370 6                  23253699.492
  23253702.765                                          43.250          39.250

 118288229.733 7  92172630.75145                  22509500.938    22509500.263
                  22509497.410                          45.250          32.750

 110992600.208 8  86487768.267 7  82884117.026 8  21121180.529    21121180.038
  21121181.857    21121181.048    21121179.737          49.250          47.000
        52.250
 135806741.634 7                 101414138.447 7  25843163.966
                                  25843166.716          43.750
        44.750
 128452729.993 7  99907688.149 5                  24038180.964
  24038184.757                                          43.500          34.250

 122714488.281 7  95444630.818 6                  22932130.885
  22932133.386                                          45.750          40.500

 129103236.400 6                  96408257.988 7  24567524.822
                                  24567525.595          41.250
        43.750
 128495424.942 5 100126311.19642                  24451865.333    24451864.479
