% program   : RTKPOST ver.demo5 b31
% inp file  : H:\Data\Colorado\2019-0611\Joe_M600_PPK_Test_20190611_Ricoh_JPGs\CWW_PPK\2019\0611\GPS\UAS\GP231811.obs
% inp file  : H:\Data\Colorado\2019-0611\Joe_M600_PPK_Test_20190611_Ricoh_JPGs\CWW_PPK\2019\0611\GPS\UAS\GP231811.gnav
% inp file  : H:\Data\Colorado\2019-0611\Joe_M600_PPK_Test_20190611_Ricoh_JPGs\CWW_PPK\2019\0611\GPS\UAS\GP231811.nav
% obs start : 2019/06/11 23:18:26.0 UTC (week2057 256724.0s)
% obs end   : 2019/06/11 23:25:00.0 UTC (week2057 257118.0s)
% pos mode  : single
% elev mask : 10.0 deg
% ionos opt : broadcast
% tropo opt : saastamoinen
% ephemeris : broadcast
% navi sys  : gps glonass sbas
%
% (lat/lon/height=WGS84/ellipsoidal,Q=1:fix,2:float,3:sbas,4:dgps,5:single,6:ppp,ns=# of satellites)
%  UTC                   latitude(deg) longitude(deg)  height(m)   Q  ns   sdn(m)   sde(m)   sdu(m)  sdne(m)  sdeu(m)  sdun(m) age(s)  ratio
2019/06/11 23:18:26.000   39.708313939 -105.119372376  2445.1880   5   5   5.2590   5.1598  19.2785   2.4570  -5.9755  -7.0002   0.00    0.0
2019/06/11 23:18:27.000   39.708312185 -105.119372538  2446.6443   5   5   5.2575   5.1594  19.2761   2.4553  -5.9739  -6.9960   0.00    0.0
2019/06/11 23:18:28.000   39.708312346 -105.119371254  2447.0902   5   5   5.2561   5.1591  19.2737   2.4536  -5.9723  -6.9919   0.00    0.0
2019/06/11 23:18:29.000   39.708312289 -105.119370325  2446.6887   5   5   5.2546   5.1587  19.2713   2.4520  -5.9708  -6.9878   0.00    0.0
2019/06/11 23:18:31.000   39.714893347 -105.115241102  1691.3776   5  10   2.9826   2.6921  10.6869  -1.0698  -1.4488  -3.5716   0.00    0.0
2019/06/11 23:18:32.000   39.714894504 -105.115238451  1691.3583   5  10   2.9827   2.6921  10.6856  -1.0706  -1.4463  -3.5720   0.00    0.0
2019/06/11 23:18:33.000   39.714894138 -105.115238549  1691.2466   5  10   2.9828   2.6921  10.6844  -1.0713  -1.4439  -3.5723   0.00    0.0
2019/06/11 23:18:34.000   39.714894710 -105.115240260  1691.7187   5  10   2.9829   2.6920  10.6831  -1.0721  -1.4414  -3.5726   0.00    0.0
2019/06/11 23:18:35.000   39.714916520 -105.115242246  1692.0527   5   5   3.7950   3.3191  13.2612  -1.9591   1.6665  -4.5015   0.00    0.0
2019/06/11 23:18:36.000   39.714891938 -105.115242364  1692.7900   5  10   2.9832   2.6919  10.6805  -1.0736  -1.4365  -3.5733   0.00    0.0
2019/06/11 23:18:37.000   39.714892482 -105.115240269  1691.9538   5  10   2.9833   2.6919  10.6792  -1.0744  -1.4340  -3.5736   0.00    0.0
2019/06/11 23:18:38.000   39.714893771 -105.115241181  1692.0142   5  10   2.9834   2.6918  10.6779  -1.0751  -1.4316  -3.5740   0.00    0.0
2019/06/11 23:18:39.000   39.714895662 -105.115240996  1691.3392   5  10   2.9835   2.6918  10.6766  -1.0759  -1.4291  -3.5743   0.00    0.0
2019/06/11 23:18:40.000   39.714894237 -105.115241866  1691.6068   5  10   2.9837   2.6917  10.6753  -1.0767  -1.4266  -3.5747   0.00    0.0
2019/06/11 23:18:41.000   39.714905378 -105.115244587  1686.1536   5  11   2.7313   2.6745   9.1587  -0.8924  -1.9214  -2.4892   0.00    0.0
2019/06/11 23:18:42.000   39.714904415 -105.115245550  1686.1223   5  11   2.7314   2.6744   9.1578  -0.8929  -1.9202  -2.4897   0.00    0.0
2019/06/11 23:18:43.000   39.714904725 -105.115247680  1686.8392   5  11   2.7314   2.6743   9.1570  -0.8934  -1.9191  -2.4902   0.00    0.0
2019/06/11 23:18:44.000   39.714904895 -105.115246126  1686.7683   5  11   2.7314   2.6742   9.1561  -0.8940  -1.9179  -2.4907   0.00    0.0
2019/06/11 23:18:45.000   39.714906008 -105.115243718  1686.0267   5  11   2.7315   2.6741   9.1552  -0.8945  -1.9167  -2.4912   0.00    0.0
2019/06/11 23:18:46.000   39.714906424 -105.115244608  1686.0837   5  11   2.7315   2.6740   9.1543  -0.8950  -1.9156  -2.4917   0.00    0.0
2019/06/11 23:18:47.000   39.714906207 -105.115247422  1685.8891   5  11   2.7316   2.6739   9.1534  -0.8956  -1.9144  -2.4922   0.00    0.0
2019/06/11 23:18:48.000   39.714905996 -105.115247620  1686.0999   5  11   2.7316   2.6738   9.1525  -0.8961  -1.9132  -2.4927   0.00    0.0
2019/06/11 23:18:49.000   39.714905038 -105.115249029  1686.1288   5  11   2.7317   2.6737   9.1516  -0.8966  -1.9121  -2.4932   0.00    0.0
2019/06/11 23:18:50.000   39.714906316 -105.115246957  1685.8732   5  11   2.7317   2.6735   9.1507  -0.8971  -1.9109  -2.4937   0.00    0.0
2019/06/11 23:18:51.000   39.714906944 -105.115246039  1685.4909   5  11   2.7317   2.6734   9.1498  -0.8977  -1.9097  -2.4943   0.00    0.0
2019/06/11 23:18:52.000   39.714906751 -105.115243054  1685.3494   5  11   2.7318   2.6733   9.1489  -0.8982  -1.9085  -2.4948   0.00    0.0
2019/06/11 23:18:53.000   39.714906255 -105.115244675  1686.0163   5  11   2.7318   2.6732   9.1480  -0.8987  -1.9074  -2.4953   0.00    0.0
2019/06/11 23:18:54.000   39.714906044 -105.115244948  1685.8532   5  11   2.7319   2.6731   9.1471  -0.8993  -1.9062  -2.4958   0.00    0.0
2019/06/11 23:18:55.000   39.714905640 -105.115246666  1685.8289   5  11   2.7319   2.6730   9.1462  -0.8998  -1.9050  -2.4963   0.00    0.0
2019/06/11 23:18:56.000   39.714905199 -105.115246616  1685.7197   5  11   2.7320   2.6729   9.1453  -0.9003  -1.9038  -2.4968   0.00    0.0
2019/06/11 23:18:57.000   39.714905602 -105.115247181  1685.8707   5  11   2.7320   2.6728   9.1444  -0.9008  -1.9027  -2.4973   0.00    0.0
2019/06/11 23:18:58.000   39.714905099 -105.115249558  1685.3920   5  11   2.7320   2.6727   9.1435  -0.9014  -1.9015  -2.4978   0.00    0.0
2019/06/11 23:18:59.000   39.714906820 -105.115246582  1685.2025   5  11   2.7321   2.6726   9.1426  -0.9019  -1.9003  -2.4983   0.00    0.0
2019/06/11 23:19:00.000   39.714904932 -105.115244390  1685.7489   5  11   2.7321   2.6725   9.1417  -0.9024  -1.8991  -2.4988   0.00    0.0
2019/06/11 23:19:01.000   39.714906362 -105.115246342  1685.6057   5  11   2.7322   2.6724   9.1408  -0.9029  -1.8980  -2.4993   0.00    0.0
2019/06/11 23:19:02.000   39.714906849 -105.115245155  1685.7644   5  11   2.7322   2.6723   9.1399  -0.9035  -1.8968  -2.4998   0.00    0.0
2019/06/11 23:19:03.000   39.714905305 -105.115246752  1685.9695   5  11   2.7323   2.6722   9.1390  -0.9040  -1.8956  -2.5003   0.00    0.0
2019/06/11 23:19:04.000   39.714904929 -105.115249619  1685.9033   5  11   2.7323   2.6721   9.1381  -0.9045  -1.8944  -2.5008   0.00    0.0
2019/06/11 23:19:05.000   39.714905939 -105.115244204  1685.5315   5  11   2.7323   2.6720   9.1372  -0.9050  -1.8933  -2.5013   0.00    0.0
2019/06/11 23:19:06.000   39.714906505 -105.115247466  1685.6165   5  11   2.7324   2.6719   9.1362  -0.9056  -1.8921  -2.5018   0.00    0.0
2019/06/11 23:19:07.000   39.714907434 -105.115247826  1685.2455   5  11   2.7324   2.6718   9.1353  -0.9061  -1.8909  -2.5023   0.00    0.0
2019/06/11 23:19:08.000   39.714907727 -105.115246311  1685.2981   5  11   2.7325   2.6717   9.1344  -0.9066  -1.8897  -2.5028   0.00    0.0
2019/06/11 23:19:09.000   39.714906366 -105.115245569  1685.3655   5  11   2.7325   2.6716   9.1335  -0.9071  -1.8885  -2.5033   0.00    0.0
2019/06/11 23:19:10.000   39.714905494 -105.115246292  1685.1221   5  11   2.7326   2.6715   9.1326  -0.9077  -1.8874  -2.5038   0.00    0.0
2019/06/11 23:19:11.000   39.714903669 -105.115246063  1685.8074   5  13   2.5206   2.5616   8.1823  -0.7863  -2.5359  -1.9421   0.00    0.0
2019/06/11 23:19:12.000   39.714903201 -105.115247189  1686.2325   5  13   2.5206   2.5615   8.1811  -0.7867  -2.5352  -1.9428   0.00    0.0
2019/06/11 23:19:13.000   39.714902750 -105.115245355  1685.7217   5  13   2.5207   2.5613   8.1800  -0.7871  -2.5344  -1.9435   0.00    0.0
2019/06/11 23:19:14.000   39.714903958 -105.115247107  1686.0569   5  13   2.5208   2.5612   8.1789  -0.7875  -2.5337  -1.9442   0.00    0.0
2019/06/11 23:19:15.000   39.714904996 -105.115247938  1686.6269   5  13   2.5209   2.5611   8.1777  -0.7879  -2.5329  -1.9448   0.00    0.0
2019/06/11 23:19:16.000   39.714903705 -105.115247555  1686.2451   5  13   2.5209   2.5610   8.1766  -0.7883  -2.5322  -1.9455   0.00    0.0
2019/06/11 23:19:17.000   39.714902748 -105.115248095  1686.0016   5  13   2.5210   2.5609   8.1754  -0.7887  -2.5314  -1.9462   0.00    0.0
2019/06/11 23:19:18.000   39.714903376 -105.115246747  1685.5646   5  13   2.5211   2.5608   8.1743  -0.7891  -2.5307  -1.9469   0.00    0.0
2019/06/11 23:19:19.000   39.714905038 -105.115245842  1685.7505   5  13   2.5211   2.5607   8.1732  -0.7895  -2.5299  -1.9476   0.00    0.0
2019/06/11 23:19:20.000   39.714904218 -105.115247529  1685.5706   5  13   2.5212   2.5606   8.1720  -0.7899  -2.5292  -1.9483   0.00    0.0
2019/06/11 23:19:21.000   39.714902774 -105.115249894  1686.0507   5  13   2.5213   2.5605   8.1709  -0.7903  -2.5285  -1.9489   0.00    0.0
2019/06/11 23:19:22.000   39.714901905 -105.115252945  1686.7395   5  13   2.5214   2.5604   8.1697  -0.7906  -2.5277  -1.9496   0.00    0.0
2019/06/11 23:19:23.000   39.714904026 -105.115248494  1686.3181   5  13   2.5214   2.5603   8.1686  -0.7910  -2.5270  -1.9503   0.00    0.0
2019/06/11 23:19:24.000   39.714905496 -105.115248877  1685.7528   5  13   2.5215   2.5602   8.1675  -0.7914  -2.5262  -1.9510   0.00    0.0
2019/06/11 23:19:25.000   39.714904772 -105.115248322  1686.5041   5  13   2.5216   2.5601   8.1663  -0.7918  -2.5255  -1.9517   0.00    0.0
2019/06/11 23:19:26.000   39.714903607 -105.115247468  1686.2719   5  13   2.5216   2.5600   8.1652  -0.7922  -2.5247  -1.9523   0.00    0.0
2019/06/11 23:19:27.000   39.714904630 -105.115246889  1685.8705   5  13   2.5217   2.5599   8.1640  -0.7926  -2.5240  -1.9530   0.00    0.0
2019/06/11 23:19:28.000   39.714902708 -105.115246868  1685.7221   5  13   2.5218   2.5598   8.1629  -0.7930  -2.5232  -1.9537   0.00    0.0
2019/06/11 23:19:29.000   39.714904230 -105.115246055  1686.1415   5  13   2.5219   2.5597   8.1617  -0.7934  -2.5225  -1.9544   0.00    0.0
2019/06/11 23:19:30.000   39.714904424 -105.115248433  1686.6933   5  13   2.5219   2.5596   8.1606  -0.7938  -2.5217  -1.9550   0.00    0.0
2019/06/11 23:19:31.000   39.714902437 -105.115244542  1687.8864   5  14   2.4998   2.5359   6.8031  -0.7177  -2.8136  -1.5237   0.00    0.0
2019/06/11 23:19:32.000   39.714901392 -105.115245262  1688.0678   5  14   2.4998   2.5358   6.8025  -0.7180  -2.8131  -1.5242   0.00    0.0
2019/06/11 23:19:33.000   39.714900727 -105.115242970  1687.7510   5  14   2.4999   2.5356   6.8020  -0.7182  -2.8127  -1.5246   0.00    0.0
2019/06/11 23:19:34.000   39.714900878 -105.115244843  1688.0927   5  14   2.4999   2.5354   6.8015  -0.7185  -2.8123  -1.5251   0.00    0.0
2019/06/11 23:19:35.000   39.714900695 -105.115244955  1688.1196   5  14   2.4999   2.5353   6.8010  -0.7187  -2.8119  -1.5255   0.00    0.0
2019/06/11 23:19:36.000   39.714901482 -105.115244737  1688.2886   5  14   2.4999   2.5351   6.8004  -0.7190  -2.8115  -1.5260   0.00    0.0
2019/06/11 23:19:37.000   39.714901678 -105.115245343  1688.3859   5  14   2.5000   2.5350   6.7999  -0.7192  -2.8111  -1.5265   0.00    0.0
2019/06/11 23:19:38.000   39.714912684 -105.115255379  1689.6896   5  13   2.8433   2.6125   6.8925  -1.1722  -2.9350  -0.8954   0.00    0.0
2019/06/11 23:19:39.000   39.714900392 -105.115247872  1688.5939   5  14   2.5000   2.5346   6.7988  -0.7197  -2.8103  -1.5274   0.00    0.0
2019/06/11 23:19:40.000   39.714902244 -105.115245980  1687.9909   5  14   2.5000   2.5345   6.7983  -0.7200  -2.8099  -1.5278   0.00    0.0
2019/06/11 23:19:41.000   39.714901865 -105.115245964  1687.9608   5  14   2.5001   2.5343   6.7978  -0.7202  -2.8094  -1.5283   0.00    0.0
2019/06/11 23:19:42.000   39.714900660 -105.115244368  1688.1878   5  14   2.5001   2.5341   6.7973  -0.7204  -2.8090  -1.5287   0.00    0.0
2019/06/11 23:19:43.000   39.714899324 -105.115244790  1688.2696   5  14   2.5001   2.5340   6.7967  -0.7207  -2.8086  -1.5292   0.00    0.0
2019/06/11 23:19:44.000   39.714899933 -105.115248666  1688.6511   5  14   2.5001   2.5338   6.7962  -0.7209  -2.8082  -1.5296   0.00    0.0
2019/06/11 23:19:45.000   39.714900568 -105.115245922  1688.0111   5  14   2.5002   2.5337   6.7957  -0.7212  -2.8078  -1.5301   0.00    0.0
2019/06/11 23:19:46.000   39.714899886 -105.115244921  1688.2615   5  14   2.5002   2.5335   6.7951  -0.7214  -2.8074  -1.5305   0.00    0.0
2019/06/11 23:19:47.000   39.714899299 -105.115243687  1687.5754   5  14   2.5002   2.5333   6.7946  -0.7217  -2.8070  -1.5310   0.00    0.0
2019/06/11 23:19:48.000   39.714900826 -105.115243885  1687.9710   5  14   2.5002   2.5332   6.7941  -0.7219  -2.8066  -1.5314   0.00    0.0
2019/06/11 23:19:49.000   39.714900285 -105.115243178  1688.2906   5  14   2.5002   2.5330   6.7936  -0.7222  -2.8061  -1.5319   0.00    0.0
2019/06/11 23:19:50.000   39.714900178 -105.115246571  1688.5166   5  14   2.5003   2.5329   6.7930  -0.7224  -2.8057  -1.5323   0.00    0.0
2019/06/11 23:19:51.000   39.714901444 -105.115245137  1688.4062   5  14   2.5003   2.5327   6.7925  -0.7227  -2.8053  -1.5328   0.00    0.0
2019/06/11 23:19:52.000   39.714902052 -105.115246000  1688.4452   5  14   2.5003   2.5325   6.7920  -0.7229  -2.8049  -1.5332   0.00    0.0
2019/06/11 23:19:53.000   39.714901503 -105.115244453  1688.2922   5  14   2.5003   2.5324   6.7914  -0.7232  -2.8045  -1.5337   0.00    0.0
2019/06/11 23:19:54.000   39.714901173 -105.115243993  1687.9916   5  14   2.5004   2.5322   6.7909  -0.7234  -2.8041  -1.5341   0.00    0.0
2019/06/11 23:19:55.000   39.714900884 -105.115243978  1688.0935   5  14   2.5004   2.5320   6.7904  -0.7236  -2.8037  -1.5346   0.00    0.0
2019/06/11 23:19:56.000   39.714900749 -105.115246285  1688.0967   5  14   2.5004   2.5319   6.7898  -0.7239  -2.8032  -1.5350   0.00    0.0
2019/06/11 23:19:57.000   39.714900755 -105.115247602  1688.5016   5  14   2.5004   2.5317   6.7893  -0.7241  -2.8028  -1.5355   0.00    0.0
2019/06/11 23:19:58.000   39.714899970 -105.115245934  1687.7540   5  14   2.5005   2.5316   6.7888  -0.7244  -2.8024  -1.5359   0.00    0.0
2019/06/11 23:19:59.000   39.714898366 -105.115246531  1688.5466   5  14   2.5005   2.5314   6.7882  -0.7246  -2.8020  -1.5364   0.00    0.0
2019/06/11 23:20:00.000   39.714899415 -105.115247203  1688.4091   5  14   2.5005   2.5312   6.7877  -0.7249  -2.8016  -1.5368   0.00    0.0
2019/06/11 23:20:01.000   39.714899494 -105.115247161  1688.4114   5  14   2.5005   2.5311   6.7872  -0.7251  -2.8012  -1.5373   0.00    0.0
2019/06/11 23:20:02.000   39.714898302 -105.115247809  1688.8947   5  14   2.5006   2.5309   6.7866  -0.7254  -2.8008  -1.5377   0.00    0.0
2019/06/11 23:20:03.000   39.714900637 -105.115245265  1688.6319   5  14   2.5006   2.5307   6.7861  -0.7256  -2.8003  -1.5382   0.00    0.0
2019/06/11 23:20:04.000   39.714901282 -105.115246074  1688.4353   5  14   2.5006   2.5306   6.7856  -0.7258  -2.7999  -1.5386   0.00    0.0
2019/06/11 23:20:05.000   39.714900378 -105.115243133  1687.9379   5  14   2.5006   2.5304   6.7850  -0.7261  -2.7995  -1.5391   0.00    0.0
2019/06/11 23:20:06.000   39.714902341 -105.115240876  1687.4359   5  14   2.5007   2.5303   6.7845  -0.7263  -2.7991  -1.5395   0.00    0.0
2019/06/11 23:20:07.000   39.714901533 -105.115244437  1687.8526   5  14   2.5007   2.5301   6.7839  -0.7266  -2.7987  -1.5399   0.00    0.0
2019/06/11 23:20:08.000   39.714901284 -105.115244118  1687.7424   5  14   2.5007   2.5299   6.7834  -0.7268  -2.7983  -1.5404   0.00    0.0
2019/06/11 23:20:09.000   39.714901783 -105.115246607  1687.8491   5  14   2.5007   2.5298   6.7829  -0.7271  -2.7978  -1.5408   0.00    0.0
2019/06/11 23:20:10.000   39.714902509 -105.115244091  1687.3286   5  14   2.5008   2.5296   6.7823  -0.7273  -2.7974  -1.5413   0.00    0.0
2019/06/11 23:20:11.000   39.714902723 -105.115246550  1688.4985   5  14   2.5008   2.5294   6.7818  -0.7276  -2.7970  -1.5417   0.00    0.0
2019/06/11 23:20:12.000   39.714901116 -105.115245156  1688.3284   5  14   2.5008   2.5293   6.7813  -0.7278  -2.7966  -1.5422   0.00    0.0
2019/06/11 23:20:13.000   39.714902368 -105.115246549  1687.9116   5  14   2.5008   2.5291   6.7807  -0.7280  -2.7962  -1.5426   0.00    0.0
2019/06/11 23:20:14.000   39.714901833 -105.115244088  1687.5190   5  14   2.5009   2.5290   6.7802  -0.7283  -2.7958  -1.5431   0.00    0.0
2019/06/11 23:20:15.000   39.714901153 -105.115245584  1687.9164   5  14   2.5009   2.5288   6.7796  -0.7285  -2.7953  -1.5435   0.00    0.0
2019/06/11 23:20:16.000   39.714901644 -105.115244665  1687.9778   5  14   2.5009   2.5286   6.7791  -0.7288  -2.7949  -1.5439   0.00    0.0
2019/06/11 23:20:17.000   39.714901390 -105.115244902  1688.1334   5  14   2.5010   2.5285   6.7786  -0.7290  -2.7945  -1.5444   0.00    0.0
2019/06/11 23:20:18.000   39.714901257 -105.115244310  1688.3729   5  14   2.5010   2.5283   6.7780  -0.7293  -2.7941  -1.5448   0.00    0.0
2019/06/11 23:20:19.000   39.714901465 -105.115244828  1688.2416   5  14   2.5010   2.5281   6.7775  -0.7295  -2.7937  -1.5453   0.00    0.0
2019/06/11 23:20:20.000   39.714900897 -105.115245043  1688.2135   5  14   2.5010   2.5280   6.7769  -0.7297  -2.7932  -1.5457   0.00    0.0
2019/06/11 23:20:21.000   39.714900301 -105.115245332  1688.4146   5  14   2.5011   2.5278   6.7764  -0.7300  -2.7928  -1.5462   0.00    0.0
2019/06/11 23:20:22.000   39.714900003 -105.115245055  1688.7929   5  14   2.5011   2.5277   6.7759  -0.7302  -2.7924  -1.5466   0.00    0.0
2019/06/11 23:20:23.000   39.714898604 -105.115245924  1688.9180   5  14   2.5011   2.5275   6.7753  -0.7305  -2.7920  -1.5470   0.00    0.0
2019/06/11 23:20:24.000   39.714900056 -105.115245190  1688.2485   5  14   2.5011   2.5273   6.7748  -0.7307  -2.7916  -1.5475   0.00    0.0
2019/06/11 23:20:25.000   39.714901103 -105.115245192  1688.0703   5  14   2.5012   2.5272   6.7742  -0.7310  -2.7911  -1.5479   0.00    0.0
2019/06/11 23:20:26.000   39.714902527 -105.115243662  1688.0463   5  14   2.5012   2.5270   6.7737  -0.7312  -2.7907  -1.5484   0.00    0.0
2019/06/11 23:20:27.000   39.714901875 -105.115244370  1687.8978   5  14   2.5012   2.5268   6.7731  -0.7314  -2.7903  -1.5488   0.00    0.0
2019/06/11 23:20:28.000   39.714901373 -105.115244090  1688.1586   5  14   2.5012   2.5267   6.7726  -0.7317  -2.7899  -1.5492   0.00    0.0
2019/06/11 23:20:29.000   39.714900886 -105.115244982  1688.2863   5  14   2.5013   2.5265   6.7721  -0.7319  -2.7895  -1.5497   0.00    0.0
2019/06/11 23:20:30.000   39.714902556 -105.115242745  1687.5250   5  14   2.5013   2.5264   6.7715  -0.7322  -2.7890  -1.5501   0.00    0.0
2019/06/11 23:20:31.000   39.714902104 -105.115242382  1687.9277   5  14   2.5013   2.5262   6.7710  -0.7324  -2.7886  -1.5506   0.00    0.0
2019/06/11 23:20:32.000   39.714901929 -105.115243417  1687.6521   5  14   2.5013   2.5260   6.7704  -0.7327  -2.7882  -1.5510   0.00    0.0
2019/06/11 23:20:33.000   39.714901979 -105.115244342  1687.7578   5  14   2.5014   2.5259   6.7699  -0.7329  -2.7878  -1.5514   0.00    0.0
2019/06/11 23:20:34.000   39.714901789 -105.115244567  1687.9500   5  14   2.5014   2.5257   6.7693  -0.7331  -2.7873  -1.5519   0.00    0.0
2019/06/11 23:20:35.000   39.714900406 -105.115246786  1688.5314   5  14   2.5014   2.5255   6.7688  -0.7334  -2.7869  -1.5523   0.00    0.0
2019/06/11 23:20:36.000   39.714903789 -105.115243785  1688.0852   5  14   2.5015   2.5254   6.7682  -0.7336  -2.7865  -1.5527   0.00    0.0
2019/06/11 23:20:37.000   39.714903486 -105.115241333  1687.7264   5  14   2.5015   2.5252   6.7677  -0.7339  -2.7861  -1.5532   0.00    0.0
2019/06/11 23:20:38.000   39.714903151 -105.115243533  1688.0722   5  14   2.5015   2.5251   6.7672  -0.7341  -2.7857  -1.5536   0.00    0.0
2019/06/11 23:20:39.000   39.714901713 -105.115243279  1688.2216   5  14   2.5015   2.5249   6.7666  -0.7343  -2.7852  -1.5541   0.00    0.0
2019/06/11 23:20:40.000   39.714915597 -105.115253366  1689.4997   5  13   2.8468   2.5995   6.8423  -1.1749  -2.8957  -1.0162   0.00    0.0
2019/06/11 23:20:41.000   39.714900274 -105.115248334  1690.7960   5  14   2.5016   2.5246   6.7655  -0.7348  -2.7844  -1.5549   0.00    0.0
2019/06/11 23:20:42.000   39.714888804 -105.115247401  1697.0541   5  13   2.6750   2.5245   7.2129  -0.7501  -2.7733  -2.1885   0.00    0.0
2019/06/11 23:20:43.000   39.714887311 -105.115247495  1699.3271   5  13   2.6750   2.5244   7.2121  -0.7506  -2.7728  -2.1887   0.00    0.0
2019/06/11 23:20:44.000   39.714887184 -105.115245982  1699.5372   5  13   2.6751   2.5242   7.2114  -0.7510  -2.7722  -2.1889   0.00    0.0
2019/06/11 23:20:45.000   39.714896432 -105.115244973  1696.9308   5  14   2.5017   2.5239   6.7633  -0.7358  -2.7827  -1.5567   0.00    0.0
2019/06/11 23:20:46.000   39.714897895 -105.115242633  1696.2653   5  14   2.5017   2.5238   6.7628  -0.7360  -2.7823  -1.5571   0.00    0.0
2019/06/11 23:20:47.000   39.714897322 -105.115239420  1696.6613   5  14   2.5018   2.5236   6.7622  -0.7363  -2.7818  -1.5575   0.00    0.0
2019/06/11 23:20:48.000   39.714898829 -105.115239518  1696.5405   5  14   2.5018   2.5234   6.7617  -0.7365  -2.7814  -1.5580   0.00    0.0
2019/06/11 23:20:49.000   39.714900145 -105.115239150  1696.6581   5  14   2.5018   2.5233   6.7611  -0.7368  -2.7810  -1.5584   0.00    0.0
2019/06/11 23:20:50.000   39.714899481 -105.115243758  1696.5912   5  14   2.5018   2.5231   6.7606  -0.7370  -2.7806  -1.5588   0.00    0.0
2019/06/11 23:20:51.000   39.714899581 -105.115246099  1697.1282   5  14   2.5019   2.5229   6.7600  -0.7372  -2.7801  -1.5593   0.00    0.0
2019/06/11 23:20:52.000   39.714898069 -105.115247359  1697.3967   5  14   2.5019   2.5228   6.7595  -0.7375  -2.7797  -1.5597   0.00    0.0
2019/06/11 23:20:53.000   39.714898842 -105.115248883  1697.8111   5  14   2.5019   2.5226   6.7589  -0.7377  -2.7793  -1.5601   0.00    0.0
2019/06/11 23:20:54.000   39.714899353 -105.115250051  1697.7358   5  14   2.5020   2.5225   6.7584  -0.7380  -2.7789  -1.5606   0.00    0.0
2019/06/11 23:20:55.000   39.714894240 -105.115244801  1697.4610   5  14   2.5020   2.5223   6.7578  -0.7382  -2.7784  -1.5610   0.00    0.0
2019/06/11 23:20:56.000   39.714883420 -105.115238024  1696.9383   5  14   2.5020   2.5221   6.7573  -0.7385  -2.7780  -1.5614   0.00    0.0
2019/06/11 23:20:57.000   39.714861161 -105.115230534  1696.4952   5  15   2.4990   2.2274   6.1854  -0.6328  -2.1211  -1.6653   0.00    0.0
2019/06/11 23:20:58.000   39.714825679 -105.115218940  1698.2797   5  13   2.5882   2.5507   6.7796  -0.5410  -2.7380  -1.4378   0.00    0.0
2019/06/11 23:20:59.000   39.714755880 -105.115200546  1700.7664   5  14   2.5021   2.5216   6.7556  -0.7392  -2.7767  -1.5627   0.00    0.0
2019/06/11 23:21:00.000   39.714655880 -105.115144237  1707.4757   5  13   2.6759   2.5217   7.1997  -0.7581  -2.7631  -2.1923   0.00    0.0
2019/06/11 23:21:01.000   39.714566707 -105.115055904  1709.4870   5  14   2.5022   2.5213   6.7545  -0.7397  -2.7759  -1.5635   0.00    0.0
2019/06/11 23:21:02.000   39.714460435 -105.114946652  1714.6317   5  14   2.5022   2.5212   6.7539  -0.7399  -2.7755  -1.5639   0.00    0.0
2019/06/11 23:21:03.000   39.714336501 -105.114823525  1722.5747   5  13   2.6760   2.5212   7.1975  -0.7594  -2.7614  -2.1928   0.00    0.0
2019/06/11 23:21:04.000   39.714234509 -105.114702486  1724.8148   5  14   2.5022   2.5209   6.7528  -0.7404  -2.7746  -1.5647   0.00    0.0
2019/06/11 23:21:05.000   39.714123784 -105.114563446  1729.8358   5  14   2.5023   2.5207   6.7523  -0.7407  -2.7742  -1.5651   0.00    0.0
2019/06/11 23:21:06.000   39.714013976 -105.114423117  1732.0053   5  14   2.5023   2.5205   6.7517  -0.7409  -2.7738  -1.5655   0.00    0.0
2019/06/11 23:21:07.000   39.713899281 -105.114274518  1732.7430   5  14   2.5023   2.5204   6.7512  -0.7412  -2.7734  -1.5659   0.00    0.0
2019/06/11 23:21:08.000   39.713780117 -105.114119007  1732.6805   5  14   2.5023   2.5202   6.7506  -0.7414  -2.7730  -1.5663   0.00    0.0
2019/06/11 23:21:09.000   39.713665298 -105.113964569  1732.3735   5  14   2.5024   2.5201   6.7501  -0.7417  -2.7726  -1.5667   0.00    0.0
2019/06/11 23:21:10.000   39.713554719 -105.113810657  1732.1268   5  14   2.5024   2.5199   6.7495  -0.7419  -2.7722  -1.5671   0.00    0.0
2019/06/11 23:21:11.000   39.713445284 -105.113664212  1731.8660   5  14   2.5024   2.5198   6.7490  -0.7422  -2.7718  -1.5675   0.00    0.0
2019/06/11 23:21:12.000   39.713335804 -105.113512160  1732.6411   5  14   2.5024   2.5196   6.7484  -0.7424  -2.7713  -1.5679   0.00    0.0
2019/06/11 23:21:13.000   39.713226050 -105.113366738  1732.9150   5  14   2.5025   2.5194   6.7479  -0.7427  -2.7709  -1.5683   0.00    0.0
2019/06/11 23:21:14.000   39.713118767 -105.113219765  1732.7896   5  14   2.5025   2.5193   6.7473  -0.7429  -2.7705  -1.5687   0.00    0.0
2019/06/11 23:21:15.000   39.713007668 -105.113072400  1732.3007   5  14   2.5025   2.5191   6.7467  -0.7432  -2.7701  -1.5691   0.00    0.0
2019/06/11 23:21:16.000   39.712898819 -105.112926788  1731.9813   5  14   2.5026   2.5190   6.7462  -0.7434  -2.7697  -1.5695   0.00    0.0
2019/06/11 23:21:17.000   39.712765149 -105.112795976  1734.9054   5  13   2.6766   2.5191   7.1873  -0.7656  -2.7536  -2.1954   0.00    0.0
2019/06/11 23:21:18.000   39.712621132 -105.112687514  1735.2798   5  13   2.6767   2.5189   7.1865  -0.7661  -2.7530  -2.1956   0.00    0.0
2019/06/11 23:21:19.000   39.712472014 -105.112625965  1731.8784   5  14   2.5026   2.5185   6.7445  -0.7442  -2.7684  -1.5707   0.00    0.0
2019/06/11 23:21:20.000   39.712306260 -105.112609339  1731.9145   5  14   2.5027   2.5183   6.7440  -0.7444  -2.7680  -1.5710   0.00    0.0
2019/06/11 23:21:21.000   39.712138589 -105.112643448  1732.2099   5  14   2.5027   2.5182   6.7434  -0.7447  -2.7676  -1.5714   0.00    0.0
2019/06/11 23:21:22.000   39.711982207 -105.112729940  1732.7243   5  14   2.5027   2.5180   6.7429  -0.7449  -2.7671  -1.5718   0.00    0.0
2019/06/11 23:21:23.000   39.711843131 -105.112855767  1733.0955   5  14   2.5027   2.5179   6.7423  -0.7452  -2.7667  -1.5722   0.00    0.0
2019/06/11 23:21:24.000   39.711732986 -105.113018650  1733.2404   5  14   2.5028   2.5177   6.7417  -0.7454  -2.7662  -1.5726   0.00    0.0
2019/06/11 23:21:25.000   39.711645362 -105.113205906  1733.8971   5  14   2.5028   2.5175   6.7412  -0.7457  -2.7658  -1.5730   0.00    0.0
2019/06/11 23:21:26.000   39.711574588 -105.113406356  1734.5456   5  14   2.5028   2.5173   6.7406  -0.7459  -2.7653  -1.5734   0.00    0.0
2019/06/11 23:21:27.000   39.711507331 -105.113611919  1733.9669   5  14   2.5029   2.5172   6.7401  -0.7462  -2.7649  -1.5739   0.00    0.0
2019/06/11 23:21:28.000   39.711444728 -105.113822341  1734.0209   5  14   2.5029   2.5170   6.7395  -0.7464  -2.7644  -1.5743   0.00    0.0
2019/06/11 23:21:29.000   39.711390298 -105.114037703  1733.9114   5  14   2.5029   2.5168   6.7390  -0.7467  -2.7640  -1.5747   0.00    0.0
2019/06/11 23:21:30.000   39.711328822 -105.114247055  1732.8375   5  14   2.5029   2.5167   6.7384  -0.7469  -2.7635  -1.5751   0.00    0.0
2019/06/11 23:21:31.000   39.711273191 -105.114460480  1732.8465   5  14   2.5030   2.5165   6.7378  -0.7472  -2.7631  -1.5755   0.00    0.0
2019/06/11 23:21:32.000   39.711233443 -105.114679454  1733.4383   5  14   2.5030   2.5163   6.7373  -0.7474  -2.7626  -1.5759   0.00    0.0
2019/06/11 23:21:33.000   39.711229010 -105.114901201  1733.3980   5  14   2.5030   2.5161   6.7367  -0.7476  -2.7622  -1.5764   0.00    0.0
2019/06/11 23:21:34.000   39.711258261 -105.115121217  1733.7920   5  14   2.5031   2.5160   6.7361  -0.7479  -2.7617  -1.5768   0.00    0.0
2019/06/11 23:21:35.000   39.711303557 -105.115333987  1733.3579   5  14   2.5031   2.5158   6.7356  -0.7481  -2.7612  -1.5772   0.00    0.0
2019/06/11 23:21:36.000   39.711369100 -105.115551031  1734.1024   5  13   2.8504   2.5878   6.7974  -1.1779  -2.8600  -1.1120   0.00    0.0
2019/06/11 23:21:37.000   39.711410025 -105.115731346  1733.5421   5  14   2.5032   2.5155   6.7345  -0.7486  -2.7603  -1.5781   0.00    0.0
2019/06/11 23:21:38.000   39.711458413 -105.115867110  1733.6452   5  13   2.5886   2.5427   6.7600  -0.5616  -2.7196  -1.4492   0.00    0.0
2019/06/11 23:21:39.000   39.711484795 -105.115953555  1732.3611   5  14   2.5032   2.5151   6.7333  -0.7491  -2.7594  -1.5790   0.00    0.0
2019/06/11 23:21:40.000   39.711496938 -105.115998870  1731.5977   5  14   2.5033   2.5150   6.7328  -0.7493  -2.7590  -1.5794   0.00    0.0
2019/06/11 23:21:41.000   39.711504193 -105.116011260  1731.6000   5  14   2.5033   2.5148   6.7322  -0.7495  -2.7586  -1.5798   0.00    0.0
2019/06/11 23:21:42.000   39.711502447 -105.116011569  1731.8442   5  14   2.5033   2.5146   6.7316  -0.7498  -2.7581  -1.5802   0.00    0.0
2019/06/11 23:21:43.000   39.711502801 -105.116010618  1732.6997   5  14   2.5034   2.5145   6.7311  -0.7500  -2.7577  -1.5807   0.00    0.0
2019/06/11 23:21:44.000   39.711504099 -105.116011852  1732.8908   5  14   2.5034   2.5143   6.7305  -0.7502  -2.7573  -1.5811   0.00    0.0
2019/06/11 23:21:45.000   39.711501014 -105.116012769  1731.8775   5  14   2.5034   2.5141   6.7299  -0.7505  -2.7568  -1.5815   0.00    0.0
2019/06/11 23:21:46.000   39.711501612 -105.116011879  1732.2067   5  14   2.5034   2.5140   6.7294  -0.7507  -2.7564  -1.5819   0.00    0.0
2019/06/11 23:21:47.000   39.711501364 -105.116009082  1731.6075   5  14   2.5035   2.5138   6.7288  -0.7510  -2.7560  -1.5823   0.00    0.0
2019/06/11 23:21:48.000   39.711498945 -105.116011442  1731.8932   5  14   2.5035   2.5137   6.7282  -0.7512  -2.7555  -1.5827   0.00    0.0
2019/06/11 23:21:49.000   39.711498852 -105.116021811  1734.0286   5  15   2.5003   2.2209   6.1580  -0.6443  -2.0981  -1.6884   0.00    0.0
2019/06/11 23:21:50.000   39.711499112 -105.116022255  1733.9466   5  15   2.5003   2.2208   6.1575  -0.6445  -2.0976  -1.6888   0.00    0.0
2019/06/11 23:21:51.000   39.711500921 -105.116020757  1733.4837   5  15   2.5004   2.2207   6.1569  -0.6447  -2.0972  -1.6893   0.00    0.0
2019/06/11 23:21:52.000   39.711501274 -105.116020381  1733.4071   5  15   2.5004   2.2206   6.1564  -0.6450  -2.0967  -1.6897   0.00    0.0
2019/06/11 23:21:53.000   39.711500692 -105.116013429  1731.4937   5  14   2.5037   2.5128   6.7254  -0.7524  -2.7533  -1.5848   0.00    0.0
2019/06/11 23:21:54.000   39.711499855 -105.116016758  1731.5317   5  14   2.5037   2.5127   6.7248  -0.7526  -2.7529  -1.5852   0.00    0.0
2019/06/11 23:21:55.000   39.711496754 -105.116018802  1731.9770   5  14   2.5037   2.5125   6.7242  -0.7529  -2.7525  -1.5857   0.00    0.0
2019/06/11 23:21:56.000   39.711497353 -105.116020501  1732.0580   5  14   2.5038   2.5124   6.7237  -0.7531  -2.7520  -1.5861   0.00    0.0
2019/06/11 23:21:57.000   39.711499282 -105.116017621  1732.2946   5  14   2.5038   2.5122   6.7231  -0.7533  -2.7516  -1.5865   0.00    0.0
2019/06/11 23:21:58.000   39.711500511 -105.116017507  1731.8672   5  14   2.5038   2.5120   6.7225  -0.7536  -2.7511  -1.5869   0.00    0.0
2019/06/11 23:21:59.000   39.711499189 -105.116029672  1734.8537   5  15   2.5006   2.2197   6.1527  -0.6465  -2.0936  -1.6928   0.00    0.0
2019/06/11 23:22:00.000   39.711498539 -105.116021547  1732.8032   5  15   2.5006   2.2196   6.1521  -0.6467  -2.0932  -1.6933   0.00    0.0
2019/06/11 23:22:01.000   39.711499883 -105.116019470  1731.7879   5  14   2.5039   2.5115   6.7208  -0.7543  -2.7498  -1.5881   0.00    0.0
2019/06/11 23:22:02.000   39.711506271 -105.116032537  1731.0753   5  14   2.5040   2.5114   6.7202  -0.7545  -2.7494  -1.5885   0.00    0.0
2019/06/11 23:22:03.000   39.711516958 -105.116076070  1731.1368   5  14   2.5040   2.5112   6.7197  -0.7547  -2.7489  -1.5890   0.00    0.0
2019/06/11 23:22:04.000   39.711537783 -105.116159543  1730.4488   5  14   2.5040   2.5110   6.7191  -0.7550  -2.7485  -1.5894   0.00    0.0
2019/06/11 23:22:05.000   39.711563796 -105.116279813  1731.6643   5  14   2.5041   2.5109   6.7185  -0.7552  -2.7480  -1.5898   0.00    0.0
2019/06/11 23:22:06.000   39.711599939 -105.116424883  1731.3469   5  14   2.5041   2.5107   6.7179  -0.7554  -2.7476  -1.5902   0.00    0.0
2019/06/11 23:22:07.000   39.711638363 -105.116595792  1731.2330   5  14   2.5041   2.5105   6.7174  -0.7557  -2.7471  -1.5907   0.00    0.0
2019/06/11 23:22:08.000   39.711680947 -105.116787192  1731.1980   5  13   2.5891   2.5367   6.7450  -0.5761  -2.7055  -1.4582   0.00    0.0
2019/06/11 23:22:09.000   39.711744091 -105.116968457  1731.1382   5  13   2.5891   2.5364   6.7445  -0.5766  -2.7050  -1.4586   0.00    0.0
2019/06/11 23:22:10.000   39.711831157 -105.117114060  1730.2325   5  14   2.5042   2.5100   6.7156  -0.7564  -2.7457  -1.5919   0.00    0.0
2019/06/11 23:22:11.000   39.711936497 -105.117212831  1730.5224   5  14   2.5043   2.5099   6.7151  -0.7566  -2.7453  -1.5924   0.00    0.0
2019/06/11 23:22:12.000   39.712048549 -105.117266167  1730.6943   5  14   2.5043   2.5097   6.7145  -0.7568  -2.7448  -1.5928   0.00    0.0
2019/06/11 23:22:13.000   39.712155114 -105.117273972  1732.2286   5  14   2.5043   2.5095   6.7139  -0.7570  -2.7444  -1.5932   0.00    0.0
2019/06/11 23:22:14.000   39.712265861 -105.117244652  1731.8857   5  13   2.5892   2.5354   6.7419  -0.5789  -2.7026  -1.4602   0.00    0.0
2019/06/11 23:22:15.000   39.712360907 -105.117188636  1732.6052   5  14   2.5044   2.5092   6.7127  -0.7575  -2.7435  -1.5941   0.00    0.0
2019/06/11 23:22:16.000   39.712460958 -105.117118677  1732.3175   5  13   2.5892   2.5350   6.7409  -0.5798  -2.7017  -1.4608   0.00    0.0
2019/06/11 23:22:17.000   39.712558642 -105.117038673  1731.7386   5  13   2.5892   2.5348   6.7404  -0.5803  -2.7013  -1.4611   0.00    0.0
2019/06/11 23:22:18.000   39.712655425 -105.116949840  1732.1825   5  13   2.5892   2.5347   6.7399  -0.5807  -2.7008  -1.4614   0.00    0.0
2019/06/11 23:22:19.000   39.712750368 -105.116856638  1731.8676   5  13   2.5893   2.5345   6.7394  -0.5812  -2.7003  -1.4618   0.00    0.0
2019/06/11 23:22:20.000   39.712857685 -105.116772033  1731.4729   5  13   2.5893   2.5343   6.7389  -0.5816  -2.6999  -1.4621   0.00    0.0
2019/06/11 23:22:21.000   39.712975256 -105.116731870  1732.5579   5  13   2.5893   2.5341   6.7383  -0.5821  -2.6994  -1.4624   0.00    0.0
2019/06/11 23:22:22.000   39.713118102 -105.116749145  1733.3390   5  12   3.0654   2.5851   6.8231  -1.0863  -2.7992  -0.6122   0.00    0.0
2019/06/11 23:22:23.000   39.713249638 -105.116793008  1733.9486   5  12   3.0654   2.5849   6.8224  -1.0864  -2.7985  -0.6151   0.00    0.0
2019/06/11 23:22:24.000   39.713385792 -105.116854327  1732.9812   5  12   3.0655   2.5847   6.8216  -1.0866  -2.7979  -0.6179   0.00    0.0
2019/06/11 23:22:25.000   39.713522521 -105.116920602  1732.2287   5  12   3.0655   2.5845   6.8209  -1.0867  -2.7973  -0.6208   0.00    0.0
2019/06/11 23:22:26.000   39.713662081 -105.116991213  1732.5138   5  12   3.0656   2.5842   6.8201  -1.0869  -2.7966  -0.6237   0.00    0.0
2019/06/11 23:22:27.000   39.713802204 -105.117064063  1731.5095   5  12   3.0656   2.5840   6.8193  -1.0871  -2.7960  -0.6265   0.00    0.0
2019/06/11 23:22:28.000   39.713935828 -105.117116735  1731.3025   5  13   2.8541   2.5769   6.7560  -1.1804  -2.8263  -1.1948   0.00    0.0
2019/06/11 23:22:29.000   39.714066381 -105.117118519  1732.3847   5  13   2.8542   2.5767   6.7552  -1.1804  -2.8257  -1.1964   0.00    0.0
2019/06/11 23:22:30.000   39.714179078 -105.117063689  1732.3310   5  12   3.0658   2.5833   6.8171  -1.0875  -2.7941  -0.6349   0.00    0.0
2019/06/11 23:22:31.000   39.714247845 -105.116957579  1729.6824   5  12   2.8969   2.7356   7.0548  -0.9687  -3.1390  -1.5646   0.00    0.0
2019/06/11 23:22:32.000   39.714273612 -105.116852902  1732.9564   5  12   3.0659   2.5829   6.8155  -1.0878  -2.7929  -0.6403   0.00    0.0
2019/06/11 23:22:33.000   39.714246722 -105.116733645  1731.5390   5  14   2.8147   2.2326   6.1352  -0.8851  -2.0852  -1.6691   0.00    0.0
2019/06/11 23:22:34.000   39.714178115 -105.116622399  1734.1511   5  15   2.5017   2.2154   6.1338  -0.6538  -2.0779  -1.7086   0.00    0.0
2019/06/11 23:22:35.000   39.714089485 -105.116516815  1735.3331   5  15   2.5017   2.2152   6.1332  -0.6540  -2.0775  -1.7090   0.00    0.0
2019/06/11 23:22:36.000   39.713981304 -105.116410866  1734.9061   5  15   2.5018   2.2151   6.1327  -0.6542  -2.0771  -1.7094   0.00    0.0
2019/06/11 23:22:37.000   39.713858974 -105.116310164  1733.7059   5  15   2.5018   2.2150   6.1322  -0.6544  -2.0766  -1.7098   0.00    0.0
2019/06/11 23:22:38.000   39.713725971 -105.116210750  1733.8713   5  11   3.1083   2.6199   8.9444  -1.3508  -2.2884  -2.8137   0.00    0.0
2019/06/11 23:22:39.000   39.713585464 -105.116101098  1736.5815   5  10   3.2237   2.6389   9.2967  -1.2473  -2.1036  -2.3984   0.00    0.0
2019/06/11 23:22:40.000   39.713452133 -105.115969281  1736.1830   5  10   3.2240   2.6389   9.2947  -1.2480  -2.1019  -2.3999   0.00    0.0
2019/06/11 23:22:41.000   39.713329787 -105.115817235  1734.1278   5  12   2.7861   2.5503   8.9086  -1.0008  -2.1853  -2.9909   0.00    0.0
2019/06/11 23:22:42.000   39.713248225 -105.115656252  1734.3184   5  12   2.7862   2.5503   8.9069  -1.0014  -2.1841  -2.9911   0.00    0.0
2019/06/11 23:22:43.000   39.713174934 -105.115477244  1732.6496   5  13   2.7829   2.3198   8.0381  -1.0732  -0.8396  -2.9008   0.00    0.0
2019/06/11 23:22:44.000   39.713115441 -105.115303313  1730.8925   5  14   2.5361   2.2785   7.3082  -0.8082  -1.4694  -2.1411   0.00    0.0
2019/06/11 23:22:45.000   39.713048635 -105.115107672  1731.3184   5  14   2.5362   2.2785   7.3072  -0.8086  -1.4686  -2.1417   0.00    0.0
2019/06/11 23:22:46.000   39.712984171 -105.114906683  1731.8391   5  14   2.5363   2.2784   7.3061  -0.8089  -1.4677  -2.1422   0.00    0.0
2019/06/11 23:22:47.000   39.712921783 -105.114708382  1730.9920   5  14   2.5364   2.2784   7.3051  -0.8093  -1.4669  -2.1428   0.00    0.0
2019/06/11 23:22:48.000   39.712875049 -105.114506400  1730.6863   5  14   2.5365   2.2784   7.3041  -0.8097  -1.4660  -2.1433   0.00    0.0
2019/06/11 23:22:49.000   39.712860642 -105.114310159  1730.5724   5  13   2.5383   2.5406   7.9271  -0.8723  -2.3692  -2.0758   0.00    0.0
2019/06/11 23:22:50.000   39.712879899 -105.114131870  1731.3778   5  13   2.5384   2.5406   7.9259  -0.8727  -2.3684  -2.0764   0.00    0.0
2019/06/11 23:22:51.000   39.712936359 -105.113976532  1731.0888   5  14   2.5367   2.2782   7.3010  -0.8108  -1.4635  -2.1450   0.00    0.0
2019/06/11 23:22:52.000   39.713009975 -105.113830217  1731.0731   5  12   2.6068   2.5774   8.0481  -0.7106  -2.2334  -1.8655   0.00    0.0
2019/06/11 23:22:53.000   39.713103327 -105.113701214  1730.7844   5  12   2.6069   2.5773   8.0470  -0.7112  -2.2326  -1.8660   0.00    0.0
2019/06/11 23:22:54.000   39.713230517 -105.113597262  1733.8767   5  12   3.0670   2.5782   6.7989  -1.0915  -2.7794  -0.6963   0.00    0.0
2019/06/11 23:22:55.000   39.713353227 -105.113513202  1733.8312   5  12   3.0671   2.5780   6.7981  -1.0917  -2.7788  -0.6988   0.00    0.0
2019/06/11 23:22:56.000   39.713485822 -105.113460588  1733.3741   5  12   3.0671   2.5778   6.7974  -1.0918  -2.7781  -0.7014   0.00    0.0
2019/06/11 23:22:57.000   39.713624017 -105.113427942  1733.3860   5  12   3.0672   2.5775   6.7966  -1.0920  -2.7775  -0.7039   0.00    0.0
2019/06/11 23:22:58.000   39.713765285 -105.113404393  1733.3773   5  12   3.0672   2.5773   6.7959  -1.0921  -2.7769  -0.7064   0.00    0.0
2019/06/11 23:22:59.000   39.713909651 -105.113388942  1732.6580   5  12   3.0673   2.5771   6.7951  -1.0923  -2.7763  -0.7089   0.00    0.0
2019/06/11 23:23:00.000   39.714051635 -105.113396740  1733.1113   5  13   2.8566   2.5704   6.7307  -1.1821  -2.8060  -1.2421   0.00    0.0
2019/06/11 23:23:01.000   39.714200704 -105.113447724  1733.5594   5  13   2.8567   2.5702   6.7299  -1.1822  -2.8053  -1.2436   0.00    0.0
2019/06/11 23:23:02.000   39.714351454 -105.113537921  1733.3440   5  13   2.8568   2.5700   6.7291  -1.1822  -2.8047  -1.2451   0.00    0.0
2019/06/11 23:23:03.000   39.714494020 -105.113662232  1732.9775   5  13   2.8568   2.5698   6.7283  -1.1823  -2.8040  -1.2466   0.00    0.0
2019/06/11 23:23:04.000   39.714614602 -105.113822589  1733.1109   5  13   2.8569   2.5696   6.7275  -1.1823  -2.8033  -1.2480   0.00    0.0
2019/06/11 23:23:05.000   39.714706261 -105.113998175  1732.7801   5  13   2.8570   2.5693   6.7268  -1.1824  -2.8027  -1.2495   0.00    0.0
2019/06/11 23:23:06.000   39.714772739 -105.114156208  1731.1066   5  13   2.8571   2.5691   6.7260  -1.1824  -2.8020  -1.2510   0.00    0.0
2019/06/11 23:23:07.000   39.714815810 -105.114304447  1728.6086   5  13   2.8572   2.5689   6.7252  -1.1825  -2.8013  -1.2524   0.00    0.0
2019/06/11 23:23:08.000   39.714832128 -105.114435094  1725.3017   5  14   2.5064   2.5006   6.6816  -0.7696  -2.7201  -1.6158   0.00    0.0
2019/06/11 23:23:09.000   39.714851379 -105.114567716  1722.3177   5  14   2.5064   2.5004   6.6811  -0.7699  -2.7196  -1.6162   0.00    0.0
2019/06/11 23:23:10.000   39.714854608 -105.114671245  1719.4382   5  14   2.5064   2.5003   6.6805  -0.7701  -2.7192  -1.6166   0.00    0.0
2019/06/11 23:23:11.000   39.714856820 -105.114752606  1715.0937   5  12   2.6080   2.5752   8.0276  -0.7218  -2.2172  -1.8766   0.00    0.0
2019/06/11 23:23:12.000   39.714853768 -105.114825134  1712.5229   5  12   2.6081   2.5751   8.0265  -0.7224  -2.2164  -1.8771   0.00    0.0
2019/06/11 23:23:13.000   39.714849800 -105.114887402  1709.3164   5  12   2.6081   2.5750   8.0254  -0.7229  -2.2155  -1.8777   0.00    0.0
2019/06/11 23:23:14.000   39.714836882 -105.114944776  1707.7180   5  14   2.5066   2.4996   6.6781  -0.7710  -2.7173  -1.6182   0.00    0.0
2019/06/11 23:23:15.000   39.714823714 -105.114995044  1704.2320   5  14   2.5066   2.4994   6.6775  -0.7713  -2.7169  -1.6186   0.00    0.0
2019/06/11 23:23:16.000   39.714812861 -105.115037741  1701.1005   5  14   2.5066   2.4993   6.6769  -0.7715  -2.7164  -1.6190   0.00    0.0
2019/06/11 23:23:17.000   39.714807090 -105.115076010  1700.6358   5  15   2.5031   2.2101   6.1104  -0.6628  -2.0587  -1.7270   0.00    0.0
2019/06/11 23:23:18.000   39.714801245 -105.115113795  1699.4610   5  15   2.5031   2.2100   6.1098  -0.6631  -2.0583  -1.7274   0.00    0.0
2019/06/11 23:23:19.000   39.714796092 -105.115141663  1698.1406   5  15   2.5032   2.2099   6.1093  -0.6633  -2.0578  -1.7278   0.00    0.0
2019/06/11 23:23:20.000   39.714793708 -105.115168193  1697.0337   5  15   2.5032   2.2098   6.1087  -0.6635  -2.0574  -1.7283   0.00    0.0
2019/06/11 23:23:21.000   39.714791611 -105.115190693  1696.8682   5  15   2.5032   2.2097   6.1082  -0.6637  -2.0569  -1.7287   0.00    0.0
2019/06/11 23:23:22.000   39.714792287 -105.115204139  1696.5526   5  15   2.5033   2.2095   6.1077  -0.6639  -2.0565  -1.7291   0.00    0.0
2019/06/11 23:23:23.000   39.714790292 -105.115204169  1696.5921   5  15   2.5033   2.2094   6.1071  -0.6641  -2.0560  -1.7295   0.00    0.0
2019/06/11 23:23:24.000   39.714788251 -105.115198783  1696.6904   5  15   2.5033   2.2093   6.1066  -0.6643  -2.0556  -1.7299   0.00    0.0
2019/06/11 23:23:25.000   39.714787088 -105.115194084  1696.6235   5  14   2.5832   2.2547   6.1204  -0.3927  -2.0085  -1.6512   0.00    0.0
2019/06/11 23:23:26.000   39.714785941 -105.115190339  1696.2383   5  13   2.5905   2.5213   6.7047  -0.6116  -2.6689  -1.4817   0.00    0.0
2019/06/11 23:23:27.000   39.714783454 -105.115188742  1695.9597   5  13   2.5905   2.5211   6.7042  -0.6120  -2.6684  -1.4820   0.00    0.0
2019/06/11 23:23:28.000   39.714783049 -105.115187911  1695.7520   5  14   2.5071   2.4973   6.6698  -0.7743  -2.7110  -1.6236   0.00    0.0
2019/06/11 23:23:29.000   39.714784332 -105.115183998  1695.2904   5  14   2.5071   2.4971   6.6692  -0.7745  -2.7105  -1.6240   0.00    0.0
2019/06/11 23:23:30.000   39.714786249 -105.115182984  1696.0037   5  14   2.5072   2.4970   6.6686  -0.7748  -2.7101  -1.6244   0.00    0.0
2019/06/11 23:23:31.000   39.714788021 -105.115179388  1696.1962   5  14   2.5072   2.4968   6.6680  -0.7750  -2.7096  -1.6248   0.00    0.0
2019/06/11 23:23:32.000   39.714794027 -105.115174044  1695.5176   5  14   2.5073   2.4967   6.6674  -0.7752  -2.7091  -1.6252   0.00    0.0
2019/06/11 23:23:33.000   39.714798565 -105.115169065  1695.8827   5  14   2.5073   2.4965   6.6668  -0.7755  -2.7087  -1.6256   0.00    0.0
2019/06/11 23:23:34.000   39.714800269 -105.115161095  1695.2257   5  14   2.5073   2.4963   6.6662  -0.7757  -2.7082  -1.6260   0.00    0.0
2019/06/11 23:23:35.000   39.714801809 -105.115157824  1694.8765   5  14   2.5074   2.4962   6.6656  -0.7759  -2.7078  -1.6263   0.00    0.0
2019/06/11 23:23:36.000   39.714805577 -105.115160791  1694.6119   5  14   2.5074   2.4960   6.6650  -0.7761  -2.7073  -1.6267   0.00    0.0
2019/06/11 23:23:37.000   39.714813440 -105.115175586  1695.1413   5  14   2.5074   2.4958   6.6644  -0.7764  -2.7069  -1.6271   0.00    0.0
2019/06/11 23:23:38.000   39.714830448 -105.115191312  1695.0202   5  13   2.5907   2.5190   6.6984  -0.6169  -2.6631  -1.4852   0.00    0.0
2019/06/11 23:23:39.000   39.714843966 -105.115208094  1693.8986   5  14   2.5075   2.4955   6.6632  -0.7768  -2.7060  -1.6279   0.00    0.0
2019/06/11 23:23:40.000   39.714855434 -105.115220253  1694.1517   5  14   2.5076   2.4953   6.6626  -0.7771  -2.7055  -1.6283   0.00    0.0
2019/06/11 23:23:41.000   39.714864814 -105.115226624  1693.7338   5  14   2.5076   2.4952   6.6620  -0.7773  -2.7050  -1.6287   0.00    0.0
2019/06/11 23:23:42.000   39.714871988 -105.115227447  1693.8067   5  14   2.5076   2.4950   6.6614  -0.7775  -2.7046  -1.6290   0.00    0.0
2019/06/11 23:23:43.000   39.714877451 -105.115227954  1692.9266   5  14   2.5077   2.4949   6.6608  -0.7778  -2.7041  -1.6294   0.00    0.0
2019/06/11 23:23:44.000   39.714884449 -105.115234701  1692.7402   5  14   2.5077   2.4947   6.6602  -0.7780  -2.7037  -1.6298   0.00    0.0
2019/06/11 23:23:45.000   39.714891075 -105.115236936  1692.0546   5  14   2.5078   2.4945   6.6595  -0.7782  -2.7032  -1.6302   0.00    0.0
2019/06/11 23:23:46.000   39.714895395 -105.115235703  1691.4189   5  14   2.5078   2.4944   6.6589  -0.7784  -2.7027  -1.6306   0.00    0.0
2019/06/11 23:23:47.000   39.714895049 -105.115238266  1691.1780   5  13   2.5909   2.5172   6.6936  -0.6208  -2.6588  -1.4877   0.00    0.0
2019/06/11 23:23:48.000   39.714895165 -105.115242577  1690.5891   5  13   2.5910   2.5170   6.6931  -0.6212  -2.6584  -1.4880   0.00    0.0
2019/06/11 23:23:49.000   39.714898835 -105.115244458  1690.1787   5  15   2.5042   2.2063   6.0928  -0.6696  -2.0442  -1.7403   0.00    0.0
2019/06/11 23:23:50.000   39.714897586 -105.115248037  1690.7256   5  15   2.5042   2.2062   6.0923  -0.6698  -2.0438  -1.7407   0.00    0.0
2019/06/11 23:23:51.000   39.714898950 -105.115247124  1690.7273   5  15   2.5043   2.2060   6.0917  -0.6700  -2.0433  -1.7411   0.00    0.0
2019/06/11 23:23:52.000   39.714889714 -105.115239519  1691.8946   5  13   2.6853   2.4948   7.0700  -0.8303  -2.6623  -2.2260   0.00    0.0
2019/06/11 23:23:53.000   39.714897851 -105.115246278  1689.5194   5  15   2.5043   2.2058   6.0906  -0.6705  -2.0424  -1.7419   0.00    0.0
2019/06/11 23:23:54.000   39.714898421 -105.115246370  1689.2535   5  14   2.5081   2.4931   6.6541  -0.7803  -2.6991  -1.6336   0.00    0.0
2019/06/11 23:23:55.000   39.714898096 -105.115246919  1689.5690   5  15   2.5044   2.2056   6.0895  -0.6709  -2.0415  -1.7427   0.00    0.0
2019/06/11 23:23:56.000   39.714900808 -105.115244166  1690.1846   5  13   2.5911   2.5154   6.6888  -0.6247  -2.6545  -1.4903   0.00    0.0
2019/06/11 23:23:57.000   39.714896745 -105.115243619  1689.4890   5  14   2.5082   2.4926   6.6523  -0.7810  -2.6977  -1.6348   0.00    0.0
2019/06/11 23:23:58.000   39.714898406 -105.115241319  1689.5458   5  14   2.5083   2.4924   6.6517  -0.7812  -2.6972  -1.6352   0.00    0.0
2019/06/11 23:23:59.000   39.714900102 -105.115240790  1689.5769   5  14   2.5083   2.4922   6.6511  -0.7814  -2.6968  -1.6355   0.00    0.0
2019/06/11 23:24:00.000   39.714898647 -105.115244127  1690.4492   5  14   2.5084   2.4921   6.6505  -0.7817  -2.6963  -1.6359   0.00    0.0
2019/06/11 23:24:01.000   39.714900003 -105.115244607  1689.5096   5  14   2.5084   2.4919   6.6499  -0.7819  -2.6959  -1.6363   0.00    0.0
2019/06/11 23:24:02.000   39.714902017 -105.115244514  1688.9459   5  14   2.5084   2.4918   6.6493  -0.7821  -2.6954  -1.6367   0.00    0.0
2019/06/11 23:24:03.000   39.714901874 -105.115243852  1688.4723   5  14   2.5085   2.4916   6.6487  -0.7824  -2.6949  -1.6370   0.00    0.0
2019/06/11 23:24:04.000   39.714915958 -105.115250279  1689.0034   5  13   2.8619   2.5572   6.6807  -1.1859  -2.7642  -1.3311   0.00    0.0
2019/06/11 23:24:05.000   39.714901875 -105.115246746  1688.7371   5  14   2.5086   2.4913   6.6474  -0.7828  -2.6940  -1.6378   0.00    0.0
2019/06/11 23:24:06.000   39.714901366 -105.115247652  1688.7096   5  14   2.5086   2.4911   6.6468  -0.7830  -2.6936  -1.6382   0.00    0.0
2019/06/11 23:24:07.000   39.714900925 -105.115245168  1688.6284   5  14   2.5086   2.4909   6.6462  -0.7833  -2.6931  -1.6386   0.00    0.0
2019/06/11 23:24:08.000   39.714900782 -105.115245240  1688.7000   5  14   2.5087   2.4908   6.6456  -0.7835  -2.6926  -1.6389   0.00    0.0
2019/06/11 23:24:09.000   39.714901233 -105.115247061  1688.6602   5  14   2.5087   2.4906   6.6450  -0.7837  -2.6922  -1.6393   0.00    0.0
2019/06/11 23:24:10.000   39.714901537 -105.115245409  1688.6842   5  14   2.5088   2.4904   6.6444  -0.7840  -2.6917  -1.6397   0.00    0.0
2019/06/11 23:24:11.000   39.714900907 -105.115244805  1688.3706   5  14   2.5088   2.4903   6.6438  -0.7842  -2.6912  -1.6401   0.00    0.0
2019/06/11 23:24:12.000   39.714901940 -105.115247041  1688.2784   5  14   2.5088   2.4901   6.6432  -0.7844  -2.6908  -1.6404   0.00    0.0
2019/06/11 23:24:13.000   39.714902890 -105.115247387  1688.8882   5  13   2.5915   2.5121   6.6797  -0.6320  -2.6464  -1.4951   0.00    0.0
2019/06/11 23:24:14.000   39.714903835 -105.115247964  1688.7793   5  13   2.5915   2.5120   6.6792  -0.6324  -2.6459  -1.4954   0.00    0.0
2019/06/11 23:24:15.000   39.714902370 -105.115247952  1688.9894   5  13   2.5916   2.5118   6.6787  -0.6328  -2.6454  -1.4957   0.00    0.0
2019/06/11 23:24:16.000   39.714901466 -105.115244967  1688.6692   5  13   2.5916   2.5116   6.6781  -0.6332  -2.6449  -1.4959   0.00    0.0
2019/06/11 23:24:17.000   39.714902186 -105.115244738  1688.6882   5  13   2.5916   2.5114   6.6776  -0.6337  -2.6445  -1.4962   0.00    0.0
2019/06/11 23:24:18.000   39.714900962 -105.115243851  1688.7217   5  13   2.5916   2.5112   6.6771  -0.6341  -2.6440  -1.4965   0.00    0.0
2019/06/11 23:24:19.000   39.714902127 -105.115245278  1689.3245   5  13   2.5916   2.5110   6.6765  -0.6345  -2.6435  -1.4968   0.00    0.0
2019/06/11 23:24:20.000   39.714899929 -105.115245236  1689.6766   5  13   2.5917   2.5108   6.6760  -0.6349  -2.6430  -1.4971   0.00    0.0
2019/06/11 23:24:21.000   39.714902513 -105.115245063  1688.7718   5  13   2.5917   2.5106   6.6754  -0.6354  -2.6425  -1.4973   0.00    0.0
2019/06/11 23:24:22.000   39.714901410 -105.115246217  1688.8634   5  13   2.5917   2.5104   6.6749  -0.6358  -2.6421  -1.4976   0.00    0.0
2019/06/11 23:24:23.000   39.714901429 -105.115248281  1689.0243   5  13   2.5917   2.5102   6.6744  -0.6362  -2.6416  -1.4979   0.00    0.0
2019/06/11 23:24:24.000   39.714902034 -105.115247187  1688.7122   5  13   2.5918   2.5100   6.6738  -0.6366  -2.6411  -1.4982   0.00    0.0
2019/06/11 23:24:25.000   39.714901336 -105.115247938  1689.1210   5  13   2.5918   2.5098   6.6733  -0.6371  -2.6406  -1.4985   0.00    0.0
2019/06/11 23:24:26.000   39.714901639 -105.115245771  1688.8458   5  13   2.5918   2.5096   6.6728  -0.6375  -2.6401  -1.4987   0.00    0.0
2019/06/11 23:24:27.000   39.714919834 -105.115251202  1690.0299   5  12   3.0724   2.5579   6.7292  -1.1067  -2.7205  -0.8972   0.00    0.0
2019/06/11 23:24:28.000   39.714919780 -105.115253565  1690.5833   5  12   3.0725   2.5577   6.7285  -1.1068  -2.7198  -0.8991   0.00    0.0
2019/06/11 23:24:29.000   39.714903492 -105.115244764  1688.7540   5  13   2.5919   2.5090   6.6711  -0.6387  -2.6387  -1.4996   0.00    0.0
2019/06/11 23:24:30.000   39.714902483 -105.115245889  1687.7773   5  14   2.5096   2.4872   6.6321  -0.7885  -2.6824  -1.6471   0.00    0.0
2019/06/11 23:24:31.000   39.714902178 -105.115246063  1687.9550   5  14   2.5096   2.4870   6.6315  -0.7888  -2.6820  -1.6475   0.00    0.0
2019/06/11 23:24:32.000   39.714901821 -105.115247896  1688.2027   5  14   2.5097   2.4868   6.6309  -0.7890  -2.6815  -1.6479   0.00    0.0
2019/06/11 23:24:33.000   39.714902641 -105.115250273  1688.9308   5  14   2.5097   2.4867   6.6303  -0.7892  -2.6810  -1.6482   0.00    0.0
2019/06/11 23:24:34.000   39.714901035 -105.115249622  1688.2092   5  14   2.5097   2.4865   6.6297  -0.7895  -2.6806  -1.6486   0.00    0.0
2019/06/11 23:24:35.000   39.714902693 -105.115248295  1688.4497   5  14   2.5098   2.4864   6.6291  -0.7897  -2.6801  -1.6490   0.00    0.0
2019/06/11 23:24:36.000   39.714902765 -105.115247130  1688.2556   5  14   2.5098   2.4862   6.6285  -0.7899  -2.6796  -1.6494   0.00    0.0
2019/06/11 23:24:37.000   39.714901713 -105.115249352  1688.6704   5  14   2.5099   2.4860   6.6278  -0.7901  -2.6792  -1.6497   0.00    0.0
2019/06/11 23:24:38.000   39.714902712 -105.115246328  1688.1308   5  14   2.5099   2.4859   6.6272  -0.7904  -2.6787  -1.6501   0.00    0.0
2019/06/11 23:24:39.000   39.714900489 -105.115246055  1687.9793   5  14   2.5100   2.4857   6.6266  -0.7906  -2.6782  -1.6505   0.00    0.0
2019/06/11 23:24:40.000   39.714900436 -105.115246926  1688.4959   5  14   2.5100   2.4855   6.6260  -0.7908  -2.6778  -1.6508   0.00    0.0
2019/06/11 23:24:41.000   39.714900739 -105.115245025  1688.5314   5  14   2.5100   2.4854   6.6254  -0.7911  -2.6773  -1.6512   0.00    0.0
2019/06/11 23:24:42.000   39.714901316 -105.115245961  1688.4357   5  14   2.5101   2.4852   6.6247  -0.7913  -2.6768  -1.6516   0.00    0.0
2019/06/11 23:24:43.000   39.714902746 -105.115243016  1687.8187   5  14   2.5101   2.4850   6.6241  -0.7915  -2.6764  -1.6519   0.00    0.0
2019/06/11 23:24:44.000   39.714902047 -105.115244077  1688.1460   5  14   2.5102   2.4849   6.6235  -0.7917  -2.6759  -1.6523   0.00    0.0
2019/06/11 23:24:45.000   39.714901230 -105.115245633  1688.3948   5  14   2.5102   2.4847   6.6229  -0.7920  -2.6754  -1.6527   0.00    0.0
2019/06/11 23:24:46.000   39.714901358 -105.115248547  1688.9046   5  14   2.5103   2.4846   6.6223  -0.7922  -2.6750  -1.6530   0.00    0.0
2019/06/11 23:24:47.000   39.714900806 -105.115247973  1688.9594   5  14   2.5103   2.4844   6.6217  -0.7924  -2.6745  -1.6534   0.00    0.0
2019/06/11 23:24:48.000   39.714899350 -105.115247645  1688.8801   5  14   2.5103   2.4842   6.6210  -0.7927  -2.6740  -1.6537   0.00    0.0
2019/06/11 23:24:49.000   39.714900028 -105.115245488  1688.8549   5  14   2.5104   2.4841   6.6204  -0.7929  -2.6736  -1.6541   0.00    0.0
2019/06/11 23:24:50.000   39.714899755 -105.115246776  1689.0708   5  14   2.5104   2.4839   6.6198  -0.7931  -2.6731  -1.6545   0.00    0.0
2019/06/11 23:24:51.000   39.714899227 -105.115246848  1689.3546   5  15   2.5065   2.1989   6.0585  -0.6826  -2.0158  -1.7651   0.00    0.0
2019/06/11 23:24:52.000   39.714897739 -105.115249719  1689.5861   5  15   2.5065   2.1988   6.0579  -0.6829  -2.0154  -1.7655   0.00    0.0
2019/06/11 23:24:53.000   39.714899881 -105.115250800  1689.3192   5  15   2.5066   2.1986   6.0573  -0.6831  -2.0149  -1.7659   0.00    0.0
2019/06/11 23:24:54.000   39.714898363 -105.115252173  1689.8467   5  15   2.5066   2.1985   6.0568  -0.6833  -2.0145  -1.7663   0.00    0.0
2019/06/11 23:24:55.000   39.714897703 -105.115250711  1689.8740   5  15   2.5066   2.1984   6.0562  -0.6835  -2.0140  -1.7667   0.00    0.0
2019/06/11 23:24:56.000   39.714897521 -105.115250107  1689.1235   5  15   2.5067   2.1983   6.0557  -0.6837  -2.0135  -1.7671   0.00    0.0
2019/06/11 23:24:57.000   39.714902595 -105.115245017  1688.7248   5  13   2.5926   2.5037   6.6559  -0.6504  -2.6251  -1.5073   0.00    0.0
2019/06/11 23:24:58.000   39.714901731 -105.115248898  1689.2239   5  13   2.5926   2.5035   6.6554  -0.6508  -2.6247  -1.5076   0.00    0.0
2019/06/11 23:24:59.000   39.714899695 -105.115252522  1690.3282   5  12   2.5980   2.6419   6.6549  -0.7519  -2.6205  -1.5091   0.00    0.0
2019/06/11 23:25:00.000   39.714903424 -105.115250565  1688.8491   5  11   2.6263   2.7431   7.9593  -0.9220  -1.9072  -1.9895   0.00    0.0
