     2.10           OBSERVATION DATA    M (MIXED)           RINEX VERSION / TYPE
RTKCONV demo5 b31                       20190613 050156 UTC PGM / RUN BY / DATE 
log: H:\Data\Colorado\2019-0611\Joe_M600_PPK_Test_20190611  COMMENT             
format: NovAtel OEM6                                        COMMENT             
Josip USGS / Denver                                         COMMENT             
                                                            MARKER NAME         
                                                            MARKER NUMBER       
                                                            OBSERVER / AGENCY   
CWWPPKv2r1                                                  REC # / TYPE / VERS 
                                                            ANT # / TYPE        
 -1281459.4446 -4744282.0486  4054773.2352                  APPROX POSITION XYZ 
        0.0000        0.0000        0.0000                  ANTENNA: DELTA H/E/N
     1     1                                                WAVELENGTH FACT L1/2
     9    C1    L1    D1    S1    P2    L2    D2    S2    C2# / TYPES OF OBSERV 
  2019     6    11    23    18   44.0000000     GPS         TIME OF FIRST OBS   
  2019     6    11    23    25   18.0000000     GPS         TIME OF LAST OBS    
                                                            END OF HEADER       
 19  6 11 23 18 44.0000000  0 14G 2G 5G29G12G25R 6R20R21R11R 4S35S33
                                S38S31
                                                        44.000                  
                                        31.000                  
                                                        49.000                  
                                        36.000                  
                                                        48.000                  
                                        34.000                  
                                                        47.000                  
                                        33.000                  
                                                        44.000                  
                                        30.000                  
  22324109.156   117301011.500        4303.949          38.000                  
                                                                
  20141209.328   109096479.543        -363.188          39.000    20141215.297  
  83934354.426        -280.871          43.000                  
  21513806.359   117385193.941        2394.711          42.000    21513810.211  
  92249372.727        1862.922          40.000                  
  22082743.953   117496771.297        -683.488          42.000    22082748.984  
  92330710.598        -531.602          39.000                  
  21796465.625   117584490.227       -2659.918          40.000    21796467.164  
  92392916.805       -2068.754          40.000                  
                                                        43.000                  
                                                                
                                                        44.000                  
                                                                
                                                        44.000                  
                                                                
                                                        44.000                  
                                                                
 19  6 11 23 18 45.0000000  0 14G 2G 5G29G12G25R 6R20R21R11R 4S35S33
                                S38S31
                                                        44.000                  
                                        31.000                  
                                                        49.000                  
                                        36.000                  
                                                        48.000                  
                                        34.000                  
                                                        47.000                  
                                        33.000                  
                                                        44.000                  
                                        31.000                  
  22323301.203   117296619.668        4308.359          38.000                  
                                                                
  20141275.664   109096753.797        -360.176          39.000    20141281.938  
  83934567.719        -279.715          44.000                  
  21513357.477   117382711.672        2397.145          42.000    21513361.719  
  92247442.074        1864.598          41.000                  
  22082871.094   117497367.941        -682.285          42.000    22082875.773  
  92331174.660        -530.680          39.000                  
  21796961.836   117587064.609       -2660.047          41.000    21796963.125  
  92394919.117       -2068.906          40.000                  
                                                        44.000                  
                                                                
                                                        44.000                  
                                                                
                                                        44.000                  
                                                                
                                                        44.000                  
                                                                
 19  6 11 23 18 46.0000000  0 14G 2G 5G29G12G25R 6R20R21R11R 4S35S33
                                S38S31
                                                        44.000                  
                                        31.000                  
                                                        49.000                  
                                        36.000                  
                                                        48.000                  
                                        35.000                  
                                                        48.000                  
                                        32.000                  
                                                        45.000                  
                                        31.000                  
  22322493.602   117292253.297        4309.051          38.000                  
                                                                
  20141342.461   109097053.660        -358.012          39.000    20141348.664  
  83934800.945        -278.469          43.000                  
  21512908.938   117380254.875        2398.785          42.000    21512913.320  
  92245531.223        1865.363          41.000                  
  22082998.516   117497990.711        -680.777          41.000    22083002.961  
  92331659.035        -529.449          38.000                  
  21797458.172   117589665.121       -2659.574          41.000    21797459.719  
  92396941.719       -2068.582          39.000                  
                                                        43.000                  
                                                                
                                                        44.000                  
                                                                
                                                        45.000                  
                                                                
                                                        44.000                  
                                                                
 19  6 11 23 18 47.0000000  0 14G 2G 5G29G12G25R 6R20R21R11R 4S35S33
                                S38S31
                                                        44.000                  
                                        32.000                  
                                                        49.000                  
                                        36.000                  
                                                        48.000                  
                                        36.000                  
                                                        48.000                  
                                        33.000                  
                                                        45.000                  
                                        32.000                  
  22321686.711   117287912.379        4308.977          38.000                  
                                                                
  20141410.289   109097379.078        -357.262          39.000    20141416.320  
  83935054.031        -277.926          43.000                  
  21512461.469   117377823.469        2399.367          38.000    21512465.766  
  92243640.117        1868.191          38.000                  
  22083126.508   117498639.742        -681.777          38.000    22083131.094  
  92332163.852        -530.219          36.000                  
  21797955.383   117592291.621       -2659.270          41.000    21797957.172  
  92398984.566       -2068.316          41.000                  
                                                        44.000                  
                                                                
                                                        44.000                  
                                                                
                                                        44.000                  
                                                                
                                                        44.000                  
                                                                
 19  6 11 23 18 49.0000000  0 15G 2G 5G29G12G25R 6R20R21R12R11R 4S35
                                S33S38S31
  22296320.094   117552500.3091      -1772.223          40.000    22296325.867  
  92389653.4451      -1380.953          31.000                  
  20344847.625   109102069.8241       -396.613          50.000    20344855.195  
  83940160.4341       -309.098          36.000    20344856.203  
  21096050.273   108986904.2231       2034.887          49.000    21096059.312  
  83917967.6411       1585.648          34.000    21096059.727  
  22353568.906   117619198.2971      -3333.938          47.000    22353578.023  
  92439371.8011      -2597.918          33.000    22353579.500  
  21560175.570   109125997.1951      -1448.406          40.000    21560185.727  
  92375495.0621      -1128.617          32.000    21560186.969  
  22320879.781   117283597.2851       4308.594          37.000                  
                                                                
  20141477.500   109097730.4731       -359.410          36.000    20141483.602  
  83935327.3361       -279.031          42.000                  
  21512014.000   117375417.7931       2398.164          37.000    21512018.109  
  92241769.0661       1865.473          39.000                  
                                                        33.000                  
                                                                
  22083254.219   117499315.0161       -682.715          37.000    22083259.547  
  92332689.0661       -530.828          38.000                  
  21798452.773   117594944.4801      -2661.438          40.000    21798454.062  
  92401047.9101      -2070.102          39.000                  
                              1                         43.000                  
                                                                
                              1                         39.000                  
                                                                
                              1                         38.000                  
                                                                
                              1                         41.000                  
                                                                
 19  6 11 23 18 50.0000000  0 16G 2G 6G 5G29G12G25R 6R20R21R12R11R 4
                                S35S33S38S31
  22296657.289   117554283.180       -1770.270          44.000    22296663.180  
  92391042.672       -1379.430          30.000                  
                                                        42.000                  
                                                                
  20344923.203   109102477.824        -395.656          49.000    20344930.930  
  83940478.348        -308.258          35.000    20344931.711  
  21095663.414   108984881.070        2035.770          48.000    21095672.227  
  83916391.152        1586.332          32.000    21095672.742  
  22354203.750   117622543.766       -3332.922          47.000    22354212.727  
  92441978.648       -2597.098          31.000    22354214.297  
  21560451.594   109127457.289       -1447.441          44.000    21560461.555  
  92376632.773       -1127.809          29.000    21560462.164  
  22320072.805   117279301.180        4307.184          38.000                  
                                                                
  20141544.773   109098100.859        -358.059          39.000    20141550.680  
  83935615.441        -278.195          43.000                  
  21511566.102   117373031.094        2399.660          38.000    21511569.031  
  92239912.734        1865.984          37.000                  
                                                        40.000                  
                                                                
  22083382.352   117500010.129        -683.141          39.000    22083387.539  
  92333229.707        -531.332          37.000                  
  21798949.375   117597616.891       -2661.902          41.000    21798950.992  
  92403126.441       -2070.430          41.000                  
                                                        44.000                  
                                                                
                                                        44.000                  
                                                                
                                                        44.000                  
                                                                
                                                        43.000                  
                                                                
 19  6 11 23 18 51.0000000  0 16G 2G 6G 5G29G12G25R 6R20R21R12R11R 4
                                S35S33S38S31
  22296994.477   117556070.852       -1771.926          44.000    22297000.344  
  92392435.645       -1380.711          31.000                  
                                                        42.000                  
                                                                
  20344999.102   109102891.141        -397.582          49.000    20345006.570  
  83940800.402        -309.805          36.000    20345007.773  
  21095276.781   108982862.883        2034.234          49.000    21095285.156  
  83914818.527        1585.176          35.000    21095286.125  
  22354838.430   117625894.180       -3334.293          47.000    22354847.273  
  92444589.340       -2598.160          32.000    22354847.547  
  21560727.242   109128922.664       -1449.750          44.000    21560737.477  
  92377774.621       -1129.695          31.000    21560738.023  
  22319266.000   117275009.996        4308.355          39.000                  
                                                                
  20141611.969   109098476.336        -359.023          39.000    20141617.945  
  83935907.465        -279.387          43.000                  
  21511117.961   117370649.102        2398.797          40.000    21511121.164  
  92238060.066        1865.734          38.000                  
                                                        39.000                  
                                                                
  22083510.609   117500710.609        -684.336          42.000    22083515.406  
  92333774.496        -532.277          40.000                  
  21799446.445   117600294.672       -2661.852          41.000    21799447.898  
  92405209.152       -2070.352          41.000                  
                                                        43.000                  
                                                                
                                                        44.000                  
                                                                
                                                        44.000                  
                                                                
                                                        43.000                  
                                                                
 19  6 11 23 18 52.0000000  0 16G 2G 6G 5G29G12G25R 6R20R21R12R11R 4
                                S35S33S38S31
  22297331.188   117557859.152       -1771.395          43.000    22297336.930  
  92393829.145       -1380.332          32.000                  
                                                        42.000                  
                                        22.000                  
  20345074.367   109103305.633        -397.816          49.000    20345081.812  
  83941123.379        -309.945          36.000    20345083.336  
  21094889.133   108980845.512        2034.281          48.000    21094897.531  
  83913246.543        1585.160          35.000    21094898.555  
  22355472.625   117629245.441       -3334.336          47.000    22355481.320  
  92447200.711       -2598.199          33.000    22355481.945  
  21561002.539   109130389.176       -1450.016          44.000    21561012.961  
  92378917.348       -1129.883          31.000    21561013.680  
  22318458.523   117270719.543        4308.469          38.000                  
                                                                
  20141678.539   109098852.629        -359.684          39.000    20141684.781  
  83936200.145        -279.465          43.000                  
  21510669.164   117368267.832        2398.352          41.000    21510672.602  
  92236207.973        1865.660          39.000                  
                                                        40.000                  
                                                                
  22083638.461   117501412.504        -685.320          40.000    22083643.062  
  92334320.418        -532.973          39.000                  
  21799943.297   117602973.711       -2663.859          41.000    21799944.688  
  92407292.863       -2072.027          41.000                  
                                                        43.000                  
                                                                
                                                        44.000                  
                                                                
                                                        44.000                  
                                                                
                                                        43.000                  
                                                                
 19  6 11 23 18 53.0000000  0 10G 2G 6G 5G29G12G25S35S33S38S31
  22297668.555   117559640.566       -1771.758          43.000    22297674.102  
  92395217.258       -1380.602          31.000                  
                                                        42.000                  
                                        22.000                  
  20345150.273   109103713.773        -398.707          49.000    20345157.562  
  83941441.406        -310.695          36.000    20345158.508  
  21094501.945   108978821.406        2033.789          48.000    21094510.414  
  83911669.305        1584.793          35.000    21094511.164  
  22356107.305   117632589.992       -3334.875          47.000    22356115.906  
  92449806.848       -2598.641          33.000    22356117.141  
  21561278.609   109131849.289       -1450.660          44.000    21561288.969  
  92380055.078       -1130.355          31.000    21561289.516  
                                                        44.000                  
                                                                
                                                        44.000                  
                                                                
                                                        45.000                  
                                                                
                                                        43.000                  
                                                                
 19  6 11 23 18 54.0000000  0 15G 2G 6G 5G29G12G25R 6R20R21R11R 4S35
                                S33S38S31
  22298005.086   117561411.270       -1772.711          43.000    22298010.352  
  92396597.043       -1381.367          31.000                  
                                                        42.000                  
                                        23.000                  
  20345224.953   109104111.758        -400.246          49.000    20345232.523  
  83941751.543        -311.910          36.000    20345233.898  
  21094114.125   108976786.773        2032.633          48.000    21094122.383  
  83910083.898        1583.824          36.000    21094123.320  
  22356740.938   117635924.039       -3336.098          47.000    22356749.586  
  92452404.832       -2599.527          33.000    22356750.445  
  21561553.703   109133299.199       -1452.047          44.000    21561564.117  
  92381184.902       -1131.508          31.000    21561565.195  
  22316761.445   117262114.9221       4305.602          38.000                  
                                                                
  20141730.797   109099581.3521       -361.180          39.000    20141736.539  
  83936767.3441       -280.414          43.000                  
  21509690.695   117363481.4301       2397.617          41.000    21509694.031  
  92232485.0781       1864.793          38.000                  
  22083812.539   117502793.4961       -687.793          40.000    22083816.938  
  92335394.5351       -534.992          39.000                  
  21800855.461   117608309.2701      -2664.543          41.000    21800856.336  
  92411442.8521      -2072.488          41.000                  
                                                        43.000                  
                                                                
                                                        44.000                  
                                                                
                                                        44.000                  
                                                                
                                                        44.000                  
                                                                
 19  6 11 23 18 55.0000000  0 16G 2G 6G 5G29G12G25R 6R20R21R12R11R 4
                                S35S33S38S31
  22298342.492   117563186.719       -1773.500          44.000    22298348.273  
  92397980.488       -1381.953          32.000                  
                                                        43.000                  
                                        24.000                  
  20345301.672   109104515.039        -401.766          49.000    20345309.312  
  83942065.777        -313.035          36.000    20345310.609  
  21093727.797   108974757.059        2031.215          48.000    21093736.188  
  83908502.301        1582.781          36.000    21093737.219  
  22357376.023   117639263.027       -3337.605          48.000    22357385.016  
  92455006.625       -2600.766          32.000    22357385.703  
  21561830.578   109134754.336       -1453.703          45.000    21561841.055  
  92382318.773       -1132.770          31.000    21561841.938  
  22315954.992   117257811.758        4305.500          38.000                  
                                                                
  20141798.758   109099945.051        -363.332          39.000    20141804.500  
  83937050.266        -281.801          43.000                  
  21509243.297   117361087.035        2395.871          38.000    21509246.289  
  92230622.805        1863.355          37.000                  
                              1                         39.000                  
                                                                
  22083941.875   117503484.645        -689.895          40.000    22083947.148  
  92335932.078        -536.547          38.000                  
  21801353.641   117610976.934       -2666.441          41.000    21801355.367  
  92413517.688       -2073.910          40.000                  
                                                        44.000                  
                                                                
                                                        44.000                  
                                                                
                                                        44.000                  
                                                                
                                                        44.000                  
                                                                
 19  6 11 23 18 56.0000000  0 16G 2G 6G 5G29G12G25R 6R20R21R12R11R 4
                                S35S33S38S31
  22298679.945   117564960.164       -1772.262          43.000    22298685.812  
  92399362.402       -1381.012          32.000                  
                                                        42.000                  
                                        23.000                  
  20345378.203   109104916.871        -400.961          49.000    20345385.750  
  83942378.895        -312.406          36.000    20345386.680  
  21093340.914   108972725.520        2032.531          47.000    21093349.570  
  83906919.293        1583.773          35.000    21093350.117  
  22358011.102   117642600.203       -3336.328          47.000    22358019.961  
  92457607.031       -2599.758          33.000    22358020.125  
  21562107.062   109136208.012       -1452.715          43.000    21562117.711  
  92383451.512       -1131.961          32.000    21562117.820  
  22315147.812   117253506.6991       4305.527          36.000                  
                                                                
  20141865.758   109100306.957        -361.152          37.000    20141872.062  
  83937331.727        -280.633          43.000                  
  21508795.062   117358690.555        2397.598          43.000    21508798.547  
  92228758.855        1864.570          42.000                  
                                                        38.000                  
                                                                
  22084070.672   117504174.121        -689.086          42.000    22084075.641  
  92336468.320        -535.945          39.000                  
  21801850.797   117613643.105       -2665.832          38.000    21801853.047  
  92415591.363       -2073.355          41.000                  
                                                        43.000                  
                                                                
                                                        44.000                  
                                                                
                                                        44.000                  
                                                                
                                                        43.000                  
                                                                
 19  6 11 23 18 57.0000000  0 16G 2G 6G 5G29G12G25R 6R20R21R12R11R 4
                                S35S33S38S31
  22299017.570   117566734.598       -1772.391          43.000    22299023.422  
  92400745.078       -1381.129          31.000                  
                                                        42.000                  
                                        23.000                  
  20345455.031   109105320.223        -401.555          49.000    20345462.484  
  83942693.195        -312.891          36.000    20345464.180  
  21092954.469   108970695.148        2032.355          48.000    21092963.195  
  83905337.180        1583.652          35.000    21092964.430  
  22358646.578   117645938.551       -3336.379          47.000    22358655.289  
  92460208.348       -2599.828          33.000    22358655.898  
  21562384.164   109137663.172       -1453.539          45.000    21562394.680  
  92384585.406       -1132.625          31.000    21562395.117  
  22314341.055   117249202.758        4306.297          39.000                  
                                                                
  20141934.055   109100670.000        -361.199          39.000    20141940.242  
  83937614.098        -280.637          43.000                  
  21508347.164   117356295.055        2397.355          42.000    21508350.672  
  92226895.688        1865.094          40.000                  
                                                        41.000                  
                                                                
  22084200.023   117504865.543        -691.254          40.000    22084204.422  
  92337006.086        -537.695          37.000                  
  21802348.758   117616310.762       -2665.676          41.000    21802351.047  
  92417666.188       -2073.289          41.000                  
                                                        44.000                  
                                                                
                                                        44.000                  
                                                                
                                                        44.000                  
                                                                
                                                        43.000                  
                                                                
 19  6 11 23 18 58.0000000  0 16G 2G 6G 5G29G12G25R 6R20R21R12R11R 4
                                S35S33S38S31
  22299355.086   117568508.012       -1772.879          44.000    22299360.852  
  92402126.957       -1381.512          31.000                  
                                                        43.000                  
                                        22.000                  
  20345531.695   109105723.113        -402.488          49.000    20345539.188  
  83943007.137        -313.680          36.000    20345540.336  
  21092568.164   108968663.945        2031.844          48.000    21092576.656  
  83903754.418        1583.238          36.000    21092577.703  
  22359281.664   117649276.082       -3336.664          47.000    22359290.344  
  92462809.000       -2600.012          33.000    22359291.359  
  21562660.812   109139117.801       -1454.105          44.000    21562671.523  
  92385718.867       -1133.066          31.000    21562672.336  
  22313534.359   117244897.969        4305.566          39.000                  
                                                                
  20142001.875   109101032.234        -361.551          39.000    20142007.820  
  83937895.824        -281.367          43.000                  
  21507899.023   117353898.590        2397.281          39.000    21507902.672  
  92225031.770        1864.695          38.000                  
                                                        41.000                  
                                                                
  22084329.445   117505556.520        -690.590          39.000    22084334.078  
  92337543.543        -537.207          38.000                  
  21802847.203   117618978.020       -2666.895          41.000    21802849.039  
  92419740.727       -2074.227          41.000                  
                                                        44.000                  
                                                                
                                                        44.000                  
                                                                
                                                        44.000                  
                                                                
                                                        43.000                  
                                                                
 19  6 11 23 18 59.0000000  0 16G 2G 6G 5G29G12G25R 6R20R21R12R11R 4
                                S35S33S38S31
  22299692.695   117570281.898       -1772.918          44.000    22299698.391  
  92403509.211       -1381.523          31.000                  
                                                        42.000                  
                                        23.000                  
  20345608.562   109106127.020        -403.059          49.000    20345616.047  
  83943321.871        -314.074          36.000    20345617.281  
  21092181.875   108966633.375        2031.609          47.000    21092190.250  
  83902172.152        1583.055          35.000    21092191.312  
  22359916.867   117652614.270       -3336.879          47.000    22359925.508  
  92465410.184       -2600.164          33.000    22359926.242  
  21562937.891   109140573.418       -1454.734          44.000    21562948.438  
  92386853.133       -1133.520          31.000    21562949.297  
  22312728.250   117240593.695        4307.145          38.000                  
                                                                
  20142069.609   109101395.098        -361.469          39.000    20142075.625  
  83938178.074        -281.258          43.000                  
  21507451.750   117351502.523        2396.426          43.000    21507454.875  
  92223168.164        1864.492          39.000                  
  23558526.812   125784159.488        1887.555          40.000                  
                                                                
  22084459.188   117506248.754        -691.492          42.000    22084464.141  
  92338081.930        -537.859          41.000                  
  21803345.648   117621646.289       -2668.656          41.000    21803347.602  
  92421816.062       -2075.684          41.000                  
                                                        44.000                  
                                                                
                                                        44.000                  
                                                                
                                                        44.000                  
                                                                
                                                        44.000                  
                                                                
 19  6 11 23 19  0.0000000  0 16G 2G 6G 5G29G12G25R 6R20R21R12R11R 4
                                S35S33S38S31
  22300030.250   117572055.855       -1772.945          44.000    22300035.938  
  92404891.512       -1381.566          31.000                  
                                                        42.000                  
                                        22.000                  
  20345685.641   109106531.539        -402.746          49.000    20345693.047  
  83943637.078        -313.828          36.000    20345694.227  
  21091795.516   108964603.047        2032.504          48.000    21091803.836  
  83900590.105        1583.785          35.000    21091804.758  
  22360552.117   117655952.727       -3336.562          47.000    22360560.734  
  92468011.582       -2599.914          33.000    22360561.266  
  21563214.719   109142029.598       -1454.090          44.000    21563225.352  
  92387987.797       -1133.051          30.000    21563226.297  
  22311921.414   117236289.6091       4302.973          38.000                  
                                                                
  20142137.273   109101758.262        -361.090          39.000    20142143.461  
  83938460.527        -281.184          43.000                  
  21507004.352   117349106.504        2398.086          44.000    21507007.203  
  92221304.582        1865.152          41.000                  
  23558173.555   125782273.414        1888.070          40.000                  
                                                                
  22084588.695   117506941.812        -691.164          42.000    22084593.266  
  92338620.977        -537.590          40.000                  
  21803844.172   117624315.254       -2667.320          41.000    21803846.070  
  92423891.910       -2074.543          40.000                  
                                                        44.000                  
                                                                
                                                        43.000                  
                                                                
                                                        44.000                  
                                                                
                                                        43.000                  
                                                                
 19  6 11 23 19  1.0000000  0 16G 2G 6G 5G29G12G25R 6R20R21R12R11R 4
                                S35S33S38S31
  22300368.297   117573830.461       -1772.574          43.000    22300373.625  
  92406274.316       -1381.223          32.000                  
                                                        41.000                  
                                        22.000                  
  20345762.719   109106937.270        -403.832          49.000    20345770.211  
  83943953.238        -314.641          36.000    20345771.172  
  21091409.266   108962573.570        2031.594          48.000    21091417.727  
  83899008.688        1583.070          35.000    21091418.531  
  22361187.758   117659292.043       -3337.387          47.000    22361196.148  
  92470613.645       -2600.594          32.000    22361196.695  
  21563491.930   109143486.945       -1455.633          44.000    21563502.672  
  92389123.402       -1134.328          31.000    21563503.516  
  22311115.219   117231986.3551       4304.336          38.000                  
                                                                
  20142205.320   109102122.250        -361.945          39.000    20142211.406  
  83938743.625        -281.555          43.000                  
  21506556.891   117346711.141        2397.328          44.000    21506559.617  
  92219441.520        1864.605          41.000                  
  23557820.648   125780388.633        1886.207          40.000                  
                                                                
  22084718.469   117507636.223        -692.816          42.000    22084723.523  
  92339161.074        -538.859          41.000                  
  21804342.570   117626985.488       -2668.621          42.000    21804344.594  
  92425968.762       -2075.594          41.000                  
                                                        43.000                  
                                                                
                                                        44.000                  
                                                                
                                                        44.000                  
                                                                
                                                        43.000                  
                                                                
 19  6 11 23 19  2.0000000  0 16G 2G 6G 5G29G12G25R 6R20R21R12R11R 4
                                S35S33S38S31
  22300706.266   117575606.516       -1772.945          44.000    22300711.609  
  92407658.246       -1381.535          32.000                  
                                                        42.000                  
                                        22.000                  
  20345840.250   109107345.000        -405.195          49.000    20345847.898  
  83944270.938        -315.695          36.000    20345848.703  
  21091023.414   108960545.715        2030.543          48.000    21091031.875  
  83897428.512        1582.262          35.000    21091032.594  
  22361823.406   117662632.969       -3338.242          47.000    22361831.852  
  92473216.965       -2601.230          32.000    22361833.375  
  21563769.992   109144946.238       -1456.641          44.000    21563780.328  
  92390260.523       -1135.047          31.000    21563781.641  
  22310309.195   117227684.6051       4305.469          39.000                  
                                                                
  20142273.727   109102487.887        -362.641          39.000    20142279.891  
  83939028.004        -282.406          43.000                  
  21506109.352   117344317.254        2396.543          44.000    21506112.672  
  92217579.598        1864.508          42.000                  
  23557468.398   125778505.961        1884.602          40.000                  
                                                                
  22084848.734   117508332.781        -695.996          43.000    22084853.508  
  92339702.840        -541.465          41.000                  
  21804841.523   117629657.797       -2668.551          41.000    21804843.781  
  92428047.215       -2075.426          41.000                  
                                                        44.000                  
                                                                
                                                        44.000                  
                                                                
                                                        44.000                  
                                                                
                                                        43.000                  
                                                                
 19  6 11 23 19  3.0000000  0 16G 2G 6G 5G29G12G25R 6R20R21R12R11R 4
                                S35S33S38S31
  22301043.297   117577381.859       -1773.316          43.000    22301049.547  
  92409041.641       -1381.867          30.000                  
                                                        41.000                  
                                        37.000                  
  20345917.500   109107752.555        -405.660          49.000    20345925.422  
  83944588.512        -316.082          35.000    20345926.102  
  21090637.148   108958517.293        2030.590          47.000    21090645.812  
  83895847.949        1582.230          33.000    21090646.617  
  22362458.727   117665973.398       -3338.453          47.000    22362467.477  
  92475819.891       -2601.430          31.000    22362469.008  
  21564047.578   109146405.312       -1456.969          44.000    21564058.070  
  92391397.449       -1135.305          30.000    21564059.031  
  22309502.641   117223382.8091       4303.816          38.000                  
                                                                
  20142341.969   109102852.969        -363.086          39.000    20142348.180  
  83939311.969        -282.094          43.000                  
  21505661.406   117341922.684        2396.430          43.000    21505665.117  
  92215717.176        1863.996          42.000                  
  23557115.758   125776623.188        1884.582          40.000                  
                                                                
  22084978.750   117509029.363        -694.562          41.000    22084984.062  
  92340244.633        -540.270          40.000                  
  21805340.758   117632329.875       -2670.172          41.000    21805342.703  
  92430125.508       -2076.832          41.000                  
                                                        43.000                  
                                                                
                                                        44.000                  
                                                                
                                                        44.000                  
                                                                
                                                        43.000                  
                                                                
 19  6 11 23 19  4.0000000  0 17G 2G 6G 5G29G12G21G25R 6R20R21R12R11
                                R 4S35S33S38S31
  22301381.172   117579156.059       -1773.488          43.000    22301387.148  
  92410424.129       -1381.930          31.000                  
                                                        42.000                  
                                        37.000                  
  20345995.234   109108159.527        -406.434          49.000    20346002.820  
  83944905.637        -316.715          36.000    20346003.836  
  21090251.094   108956487.949        2030.008          48.000    21090259.703  
  83894266.652        1581.848          35.000    21090260.805  
  22363094.469   117669312.859       -3338.805          47.000    22363102.969  
  92478422.070       -2601.637          32.000    22363104.164  
                        -0.500                          40.000                  
                                                                
  21564325.164   109147863.734       -1457.727          44.000    21564335.594  
  92392533.883       -1135.902          31.000    21564336.617  
  22308696.484   117219078.8951       4303.227          38.000                  
                                                                
  20142410.359   109103217.078        -363.566          39.000    20142416.406  
  83939595.141        -282.418          43.000                  
  21505213.805   117339526.859        2396.262          44.000    21505217.133  
  92213853.758        1864.094          41.000                  
  23556763.578   125774739.832        1883.918          39.000                  
                                                                
  22085109.430   117509725.480        -695.664          43.000    22085115.031  
  92340786.066        -541.000          40.000                  
  21805839.531   117635001.387       -2671.570          41.000    21805841.727  
  92432203.340       -2077.895          41.000                  
                                                        43.000                  
                                                                
                                                        43.000                  
                                                                
                                                        44.000                  
                                                                
                                                        43.000                  
                                                                
 19  6 11 23 19  5.0000000  0 17G 2G 6G 5G29G12G21G25R 6R20R21R12R11
                                R 4S35S33S38S31
  22301718.922   117580930.879       -1772.984          44.000    22301724.867  
  92411807.102       -1381.559          31.000                  
                                                        42.000                  
                                        37.000                  
  20346072.977   109108567.664        -407.055          49.000    20346080.484  
  83945223.668        -317.184          36.000    20346081.562  
  21089865.023   108954459.391        2029.738          47.000    21089873.672  
  83892685.941        1581.594          35.000    21089875.086  
  22363730.297   117672653.156       -3338.988          47.000    22363738.562  
  92481024.887       -2601.816          33.000    22363740.156  
                        -0.500                          35.000                  
                                                                
  21564602.445   109149323.324       -1458.332          44.000    21564613.430  
  92393671.242       -1136.344          31.000    21564614.672  
  22307889.922   117214776.211        4301.473          39.000                  
                                                                
  20142479.109   109103581.992        -363.418          39.000    20142484.594  
  83939878.977        -282.793          43.000                  
  21504766.250   117337131.656        2396.469          43.000    21504769.461  
  92211990.812        1864.098          42.000                  
  23556411.172   125772857.754        1883.500          41.000                  
                                                                
  22085240.031   117510422.961        -696.426          45.000    22085245.477  
  92341328.504        -541.641          42.000                  
  21806338.836   117637674.070       -2672.430          41.000    21806340.547  
  92434282.102       -2078.590          41.000                  
                                                        43.000                  
                                                                
                                                        44.000                  
                                                                
                                                        44.000                  
                                                                
                                                        43.000                  
                                                                
 19  6 11 23 19  6.0000000  0 17G 2G 6G 5G29G12G21G25R 6R20R21R12R11
                                R 4S35S33S38S31
  22302057.102   117582707.402       -1773.863          43.000    22302062.914  
  92413191.406       -1382.246          32.000                  
                                                        42.000                  
              1                         23.000                  
  20346151.016   109108978.043        -408.043          49.000    20346158.625  
  83945543.438        -317.926          36.000    20346159.766  
  21089479.414   108952432.711        2029.285          48.000    21089488.039  
  83891106.707        1581.262          35.000    21089488.516  
  22364366.188   117675995.352       -3339.758          47.000    22364374.570  
  92483629.184       -2602.441          32.000    22364375.820  
                        -0.500                          36.000                  
                                                                
  21564880.656   109150785.094       -1459.188          43.000    21564891.484  
  92394810.262       -1137.031          31.000    21564892.250  
  22307084.109   117210475.387        4303.660          39.000                  
                                                                
  20142547.516   109103948.836        -365.008          40.000    20142553.250  
  83940164.305        -283.227          43.000                  
  21504318.680   117334738.172        2396.207          43.000    21504322.289  
  92210129.203        1863.590          42.000                  
  23556059.141   125770978.043        1881.609          40.000                  
                                                                
  22085371.117   117511122.875        -697.496          44.000    22085376.102  
  92341872.883        -542.500          41.000                  
  21806838.273   117640349.086       -2672.555          41.000    21806840.219  
  92436362.660       -2078.605          41.000                  
                                                        43.000                  
                                                                
                                                        44.000                  
                                                                
                                                        44.000                  
                                                                
                                                        43.000                  
                                                                
 19  6 11 23 19  7.0000000  0 17G 2G 6G 5G29G12G21G25R 6R20R21R12R11
                                R 4S35S33S38S31
  22302395.383   117584483.062       -1773.586          43.000    22302400.891  
  92414575.039       -1381.984          31.000                  
                                                        42.000                  
                                        23.000                  
  20346229.281   109109388.105        -408.305          49.000    20346236.664  
  83945862.961        -318.164          36.000    20346238.359  
  21089093.820   108950405.352        2029.434          48.000    21089102.234  
  83889526.945        1581.383          35.000    21089103.234  
  22365002.148   117679336.867       -3339.504          47.000    22365010.375  
  92486232.961       -2602.160          33.000    22365011.672  
                        -0.500                          35.000                  
                                                                
  21565158.812   109152246.520       -1459.484          44.000    21565169.547  
  92395949.035       -1137.230          31.000    21565170.477  
  22306277.914   117206173.832        4303.164          39.000                  
                                                                
  20142615.953   109104315.000        -364.281          39.000    20142621.672  
  83940449.082        -283.199          44.000                  
  21503871.242   117332343.809        2396.043          43.000    21503875.102  
  92208266.922        1864.012          42.000                  
  23555706.961   125769098.066        1881.582          39.000                  
                                                                
  22085502.242   117511822.633        -698.176          44.000    22085507.156  
  92342417.145        -543.031          41.000                  
  21807337.812   117643023.805       -2673.988          41.000    21807339.617  
  92438442.996       -2079.840          41.000                  
                                                        43.000                  
                                                                
                                                        44.000                  
                                                                
                                                        44.000                  
                                                                
                                                        44.000                  
                                                                
 19  6 11 23 19  8.0000000  0 17G 2G 6G 5G29G12G21G25R 6R20R21R12R11
                                R 4S35S33S38S31
  22302732.906   117586257.805       -1773.668          43.000    22302738.609  
  92415957.961       -1382.090          31.000                  
                                                        42.000                  
                                        23.000                  
  20346307.156   109109797.793        -409.027          49.000    20346314.594  
  83946182.215        -318.727          36.000    20346315.898  
  21088707.914   108948377.250        2029.102          48.000    21088716.328  
  83887946.609        1581.133          35.000    21088717.234  
  22365637.906   117682677.652       -3339.742          47.000    22365646.125  
  92488836.188       -2602.434          32.000    22365647.664  
                                                        36.000                  
                                                                
  21565437.086   109153707.531       -1458.984          44.000    21565447.445  
  92397087.484       -1136.852          31.000    21565448.555  
  22305471.805   117201871.426        4302.195          38.000                  
                                                                
  20142684.359   109104680.402        -364.598          39.000    20142689.859  
  83940733.285        -283.277          43.000                  
  21503423.453   117329948.523        2396.465          42.000    21503427.273  
  92206403.922        1863.922          42.000                  
  23555354.969   125767217.781        1880.953          40.000                  
                                                                
  22085633.117   117512522.176        -698.887          44.000    22085637.891  
  92342961.223        -543.527          41.000                  
  21807837.133   117645698.211       -2674.168          41.000    21807839.133  
  92440523.090       -2079.969          41.000                  
                                                        43.000                  
                                                                
                                                        44.000                  
                                                                
                                                        44.000                  
                                                                
                                                        44.000                  
                                                                
 19  6 11 23 19  9.0000000  0 17G 2G 6G 5G29G12G21G25R 6R20R21R12R11
                                R 4S35S33S38S31
  22303070.359   117588032.539       -1774.406          43.000    22303076.344  
  92417340.875       -1382.613          31.000                  
                                                        42.000                  
                                        23.000                  
  20346385.203   109110207.996        -409.984          49.000    20346392.672  
  83946501.844        -319.469          36.000    20346393.516  
  21088321.883   108946349.312        2028.277          48.000    21088330.406  
  83886366.398        1580.434          35.000    21088331.102  
  22366273.547   117686018.621       -3340.820          47.000    22366281.836  
  92491439.535       -2603.219          33.000    22366282.641  
                                                        38.000                  
                                                                
  21565715.117   109155169.004       -1461.465          44.000    21565725.508  
  92398226.309       -1138.871          31.000    21565726.586  
  22304665.367   117197569.141        4302.941          38.000                  
                                                                
  20142752.492   109105045.961        -365.438          39.000    20142758.195  
  83941017.613        -284.398          44.000                  
