% program   : RTKPOST ver.demo5 b31
% inp file  : H:\Data\Colorado\2019-0611\Joe_M600_PPK_Test_20190611_Ricoh_JPGs\CWW_PPK\2019\0612\GPS\UAS\GP000639.obs
% inp file  : H:\Data\Colorado\2019-0611\Joe_M600_PPK_Test_20190611_Ricoh_JPGs\CWW_PPK\2019\0612\GPS\UAS\GP000639.gnav
% inp file  : H:\Data\Colorado\2019-0611\Joe_M600_PPK_Test_20190611_Ricoh_JPGs\CWW_PPK\2019\0612\GPS\UAS\GP000639.nav
% obs start : 2019/06/12 00:06:39.5 UTC (week2057 259617.5s)
% obs end   : 2019/06/12 01:03:09.0 UTC (week2057 263007.0s)
% pos mode  : single
% elev mask : 10.0 deg
% ionos opt : broadcast
% tropo opt : saastamoinen
% ephemeris : broadcast
% navi sys  : gps glonass sbas
%
% (lat/lon/height=WGS84/ellipsoidal,Q=1:fix,2:float,3:sbas,4:dgps,5:single,6:ppp,ns=# of satellites)
%  UTC                   latitude(deg) longitude(deg)  height(m)   Q  ns   sdn(m)   sde(m)   sdu(m)  sdne(m)  sdeu(m)  sdun(m) age(s)  ratio
2019/06/12 00:06:39.500   39.714901725 -105.115247820  1693.3053   5   5   5.1074   2.8063  12.8513   2.0886  -3.3434  -7.0002   0.00    0.0
2019/06/12 00:06:40.000   39.714915803 -105.115246858  1691.8554   5   5   5.1070   2.8061  12.8523   2.0883  -3.3430  -7.0000   0.00    0.0
2019/06/12 00:06:54.000   39.714901154 -105.115241799  1693.2935   5  12   2.9883   2.1194   6.5137  -1.0862   1.6210  -3.5244   0.00    0.0
2019/06/12 00:06:55.000   39.714900634 -105.115244841  1693.4812   5  12   2.9880   2.1194   6.5132  -1.0862   1.6211  -3.5239   0.00    0.0
2019/06/12 00:06:56.000   39.714898048 -105.115241491  1693.9385   5  12   2.9878   2.1193   6.5127  -1.0861   1.6212  -3.5234   0.00    0.0
2019/06/12 00:06:57.000   39.714897688 -105.115240633  1694.2898   5  12   2.9875   2.1193   6.5123  -1.0861   1.6212  -3.5229   0.00    0.0
2019/06/12 00:06:58.000   39.714917967 -105.115242393  1691.0216   5   9   3.4897   2.2302   6.9804  -1.3716   1.9139  -4.1143   0.00    0.0
2019/06/12 00:06:59.000   39.714900222 -105.115237285  1693.8310   5  10   3.0106   2.1775   6.5209  -1.0156   1.5697  -3.5400   0.00    0.0
2019/06/12 00:07:00.000   39.714900721 -105.115237331  1693.7196   5  10   3.0104   2.1774   6.5205  -1.0155   1.5697  -3.5396   0.00    0.0
2019/06/12 00:07:01.000   39.714896721 -105.115241913  1694.1759   5  12   2.9865   2.1191   6.5104  -1.0861   1.6215  -3.5210   0.00    0.0
2019/06/12 00:07:02.000   39.714899057 -105.115244655  1693.5442   5  12   2.9863   2.1190   6.5099  -1.0861   1.6216  -3.5205   0.00    0.0
2019/06/12 00:07:03.000   39.714898607 -105.115242931  1693.7590   5  12   2.9861   2.1190   6.5094  -1.0861   1.6217  -3.5200   0.00    0.0
2019/06/12 00:07:04.000   39.714898095 -105.115240794  1693.9722   5  12   2.9858   2.1189   6.5090  -1.0860   1.6217  -3.5195   0.00    0.0
2019/06/12 00:07:05.000   39.714899780 -105.115241870  1693.1257   5  12   2.9856   2.1189   6.5085  -1.0860   1.6218  -3.5190   0.00    0.0
2019/06/12 00:07:06.000   39.714898679 -105.115242893  1693.6369   5  12   2.9853   2.1188   6.5080  -1.0860   1.6219  -3.5186   0.00    0.0
2019/06/12 00:07:07.000   39.714898342 -105.115240750  1693.5914   5  12   2.9851   2.1188   6.5075  -1.0860   1.6219  -3.5181   0.00    0.0
2019/06/12 00:07:08.000   39.714897510 -105.115241976  1694.1762   5  12   2.9848   2.1187   6.5070  -1.0860   1.6220  -3.5176   0.00    0.0
2019/06/12 00:07:09.000   39.714895552 -105.115240367  1694.1644   5  12   2.9846   2.1187   6.5066  -1.0860   1.6221  -3.5171   0.00    0.0
2019/06/12 00:07:10.000   39.714895861 -105.115241432  1694.0884   5  12   2.9843   2.1186   6.5061  -1.0860   1.6222  -3.5166   0.00    0.0
2019/06/12 00:07:11.000   39.714906306 -105.115246684  1691.4626   5  14   2.6348   1.9021   5.2781  -0.1605  -0.8944  -2.6792   0.00    0.0
2019/06/12 00:07:12.000   39.714906713 -105.115246286  1691.3212   5  14   2.6347   1.9020   5.2778  -0.1611  -0.8943  -2.6789   0.00    0.0
2019/06/12 00:07:13.000   39.714906526 -105.115245726  1691.0042   5  14   2.6346   1.9019   5.2775  -0.1616  -0.8941  -2.6786   0.00    0.0
2019/06/12 00:07:14.000   39.714907060 -105.115246540  1691.2274   5  14   2.6345   1.9018   5.2771  -0.1622  -0.8939  -2.6783   0.00    0.0
2019/06/12 00:07:15.000   39.714905415 -105.115246775  1691.3228   5  14   2.6344   1.9018   5.2768  -0.1627  -0.8938  -2.6780   0.00    0.0
2019/06/12 00:07:16.000   39.714906060 -105.115248133  1691.5419   5  14   2.6343   1.9017   5.2765  -0.1633  -0.8936  -2.6777   0.00    0.0
2019/06/12 00:07:17.000   39.714905676 -105.115245985  1691.5539   5  14   2.6342   1.9016   5.2761  -0.1638  -0.8934  -2.6774   0.00    0.0
2019/06/12 00:07:18.000   39.714907484 -105.115246368  1691.3998   5  14   2.6341   1.9016   5.2758  -0.1643  -0.8933  -2.6771   0.00    0.0
2019/06/12 00:07:19.000   39.714905770 -105.115247647  1691.0605   5  14   2.6340   1.9015   5.2755  -0.1649  -0.8931  -2.6768   0.00    0.0
2019/06/12 00:07:20.000   39.714905242 -105.115248871  1691.4836   5  14   2.6339   1.9014   5.2752  -0.1654  -0.8930  -2.6765   0.00    0.0
2019/06/12 00:07:21.000   39.714897980 -105.115242986  1693.2887   5  13   2.8834   1.9547   5.8929  -0.7483   0.6285  -3.2008   0.00    0.0
2019/06/12 00:07:22.000   39.714898040 -105.115244357  1693.1994   5  13   2.8832   1.9547   5.8924  -0.7484   0.6288  -3.2004   0.00    0.0
2019/06/12 00:07:23.000   39.714896001 -105.115242951  1693.2403   5  13   2.8830   1.9546   5.8919  -0.7485   0.6290  -3.2000   0.00    0.0
2019/06/12 00:07:24.000   39.714897424 -105.115240708  1693.4447   5  13   2.8828   1.9546   5.8914  -0.7486   0.6292  -3.1995   0.00    0.0
2019/06/12 00:07:25.000   39.714896687 -105.115241932  1693.4571   5  13   2.8826   1.9545   5.8909  -0.7487   0.6294  -3.1991   0.00    0.0
2019/06/12 00:07:26.000   39.714895854 -105.115242039  1693.9244   5  13   2.8824   1.9545   5.8904  -0.7488   0.6297  -3.1986   0.00    0.0
2019/06/12 00:07:27.000   39.714898069 -105.115243237  1693.2100   5  13   2.8822   1.9544   5.8899  -0.7489   0.6299  -3.1982   0.00    0.0
2019/06/12 00:07:28.000   39.714898761 -105.115243796  1693.4734   5  13   2.8820   1.9544   5.8894  -0.7490   0.6301  -3.1977   0.00    0.0
2019/06/12 00:07:29.000   39.714894241 -105.115242756  1694.4865   5  13   2.8818   1.9543   5.8889  -0.7491   0.6304  -3.1973   0.00    0.0
2019/06/12 00:07:30.000   39.714899406 -105.115243038  1693.2329   5  13   2.8816   1.9543   5.8884  -0.7492   0.6306  -3.1968   0.00    0.0
2019/06/12 00:07:31.000   39.714906967 -105.115246935  1691.0692   5  14   2.6328   1.9006   5.2715  -0.1712  -0.8911  -2.6733   0.00    0.0
2019/06/12 00:07:32.000   39.714907134 -105.115246639  1691.3834   5  14   2.6327   1.9006   5.2712  -0.1718  -0.8910  -2.6730   0.00    0.0
2019/06/12 00:07:33.000   39.714906847 -105.115244582  1691.3912   5  14   2.6326   1.9005   5.2708  -0.1723  -0.8908  -2.6727   0.00    0.0
2019/06/12 00:07:34.000   39.714907262 -105.115242746  1691.4861   5  14   2.6325   1.9004   5.2705  -0.1728  -0.8906  -2.6724   0.00    0.0
2019/06/12 00:07:35.000   39.714906518 -105.115243354  1691.6861   5  14   2.6324   1.9004   5.2702  -0.1733  -0.8905  -2.6721   0.00    0.0
2019/06/12 00:07:36.000   39.714907349 -105.115245300  1691.5231   5  14   2.6323   1.9003   5.2698  -0.1738  -0.8903  -2.6718   0.00    0.0
2019/06/12 00:07:37.000   39.714906658 -105.115246294  1691.8237   5  14   2.6322   1.9002   5.2695  -0.1743  -0.8901  -2.6715   0.00    0.0
2019/06/12 00:07:38.000   39.714906650 -105.115245749  1691.8279   5  14   2.6321   1.9001   5.2692  -0.1748  -0.8900  -2.6712   0.00    0.0
2019/06/12 00:07:39.000   39.714906167 -105.115245972  1691.5265   5  14   2.6320   1.9001   5.2688  -0.1753  -0.8898  -2.6709   0.00    0.0
2019/06/12 00:07:40.000   39.714907852 -105.115247236  1691.2503   5  14   2.6319   1.9000   5.2685  -0.1758  -0.8896  -2.6706   0.00    0.0
2019/06/12 00:07:41.000   39.714905599 -105.115246669  1691.4131   5  14   2.6318   1.8999   5.2681  -0.1763  -0.8895  -2.6703   0.00    0.0
2019/06/12 00:07:42.000   39.714906444 -105.115247369  1691.4237   5  14   2.6317   1.8999   5.2678  -0.1768  -0.8893  -2.6700   0.00    0.0
2019/06/12 00:07:43.000   39.714906050 -105.115246909  1691.2336   5  14   2.6316   1.8998   5.2675  -0.1773  -0.8891  -2.6697   0.00    0.0
2019/06/12 00:07:44.000   39.714908919 -105.115247985  1691.3236   5  14   2.6315   1.8997   5.2671  -0.1778  -0.8890  -2.6693   0.00    0.0
2019/06/12 00:07:45.000   39.714905977 -105.115246979  1691.7775   5  14   2.6314   1.8996   5.2668  -0.1783  -0.8888  -2.6690   0.00    0.0
2019/06/12 00:07:46.000   39.714906540 -105.115245561  1691.6158   5  14   2.6313   1.8996   5.2664  -0.1788  -0.8887  -2.6687   0.00    0.0
2019/06/12 00:07:47.000   39.714907240 -105.115247486  1692.1126   5  14   2.6312   1.8995   5.2661  -0.1793  -0.8885  -2.6684   0.00    0.0
2019/06/12 00:07:48.000   39.714905835 -105.115245550  1691.7089   5  14   2.6311   1.8994   5.2658  -0.1798  -0.8883  -2.6681   0.00    0.0
2019/06/12 00:07:49.000   39.714905450 -105.115248122  1692.0730   5  14   2.6310   1.8994   5.2654  -0.1803  -0.8882  -2.6678   0.00    0.0
2019/06/12 00:07:50.000   39.714905097 -105.115248539  1691.8915   5  14   2.6309   1.8993   5.2651  -0.1808  -0.8880  -2.6675   0.00    0.0
2019/06/12 00:07:51.000   39.714904417 -105.115246661  1691.9064   5  14   2.6308   1.8992   5.2647  -0.1813  -0.8878  -2.6672   0.00    0.0
2019/06/12 00:07:52.000   39.714902880 -105.115246938  1692.2744   5  14   2.6307   1.8992   5.2644  -0.1818  -0.8877  -2.6669   0.00    0.0
2019/06/12 00:07:53.000   39.714903137 -105.115245956  1692.1470   5  14   2.6306   1.8991   5.2641  -0.1822  -0.8875  -2.6666   0.00    0.0
2019/06/12 00:07:54.000   39.714905858 -105.115248133  1691.7113   5  14   2.6305   1.8990   5.2637  -0.1827  -0.8873  -2.6663   0.00    0.0
2019/06/12 00:07:55.000   39.714906305 -105.115246738  1691.6734   5  14   2.6304   1.8989   5.2634  -0.1832  -0.8872  -2.6660   0.00    0.0
2019/06/12 00:07:56.000   39.714908988 -105.115248382  1690.8955   5  14   2.6303   1.8989   5.2630  -0.1837  -0.8870  -2.6657   0.00    0.0
2019/06/12 00:07:57.000   39.714908204 -105.115249054  1691.0754   5  14   2.6302   1.8988   5.2627  -0.1842  -0.8868  -2.6654   0.00    0.0
2019/06/12 00:07:58.000   39.714909936 -105.115249841  1690.5438   5  14   2.6301   1.8987   5.2623  -0.1846  -0.8867  -2.6651   0.00    0.0
2019/06/12 00:07:59.000   39.714910581 -105.115247806  1690.8037   5  14   2.6299   1.8987   5.2620  -0.1851  -0.8865  -2.6648   0.00    0.0
2019/06/12 00:08:00.000   39.714910993 -105.115248700  1690.5718   5  14   2.6298   1.8986   5.2616  -0.1856  -0.8863  -2.6645   0.00    0.0
2019/06/12 00:08:01.000   39.714915011 -105.115249890  1690.1842   5  15   2.2221   1.8502   4.6182   0.7511  -1.3632  -1.8848   0.00    0.0
2019/06/12 00:08:02.000   39.714913769 -105.115250574  1690.3272   5  15   2.2220   1.8501   4.6181   0.7510  -1.3631  -1.8847   0.00    0.0
2019/06/12 00:08:03.000   39.714908510 -105.115246387  1691.7769   5  14   2.2994   1.8707   4.8717   0.6324  -1.1948  -2.1142   0.00    0.0
2019/06/12 00:08:04.000   39.714908684 -105.115248487  1691.7983   5  14   2.2994   1.8706   4.8716   0.6323  -1.1947  -2.1140   0.00    0.0
2019/06/12 00:08:05.000   39.714908944 -105.115247376  1691.7889   5  14   2.2993   1.8705   4.8715   0.6323  -1.1945  -2.1138   0.00    0.0
2019/06/12 00:08:06.000   39.714907976 -105.115247442  1691.4659   5  14   2.2993   1.8704   4.8714   0.6322  -1.1944  -2.1137   0.00    0.0
2019/06/12 00:08:07.000   39.714909127 -105.115245103  1691.1266   5  14   2.2992   1.8703   4.8713   0.6322  -1.1943  -2.1135   0.00    0.0
2019/06/12 00:08:08.000   39.714907282 -105.115245342  1691.6353   5  14   2.2991   1.8702   4.8712   0.6321  -1.1942  -2.1133   0.00    0.0
2019/06/12 00:08:09.000   39.714909517 -105.115246103  1691.5850   5  14   2.2991   1.8701   4.8711   0.6321  -1.1941  -2.1132   0.00    0.0
2019/06/12 00:08:10.000   39.714908168 -105.115247701  1691.2254   5  14   2.2990   1.8700   4.8710   0.6321  -1.1940  -2.1130   0.00    0.0
2019/06/12 00:08:11.000   39.714907644 -105.115247231  1691.4618   5  14   2.2990   1.8699   4.8708   0.6320  -1.1939  -2.1128   0.00    0.0
2019/06/12 00:08:12.000   39.714907604 -105.115244458  1691.3732   5  14   2.2989   1.8698   4.8707   0.6320  -1.1938  -2.1127   0.00    0.0
2019/06/12 00:08:13.000   39.714907614 -105.115246655  1690.9905   5  14   2.2989   1.8697   4.8706   0.6319  -1.1937  -2.1125   0.00    0.0
2019/06/12 00:08:14.000   39.714911271 -105.115247728  1690.8721   5  14   2.2988   1.8696   4.8705   0.6319  -1.1936  -2.1123   0.00    0.0
2019/06/12 00:08:15.000   39.714909698 -105.115249712  1691.6149   5  14   2.2988   1.8695   4.8704   0.6318  -1.1935  -2.1121   0.00    0.0
2019/06/12 00:08:16.000   39.714912264 -105.115249793  1690.9168   5  14   2.2987   1.8695   4.8703   0.6318  -1.1933  -2.1120   0.00    0.0
2019/06/12 00:08:17.000   39.714911196 -105.115248692  1690.9228   5  14   2.2986   1.8694   4.8702   0.6318  -1.1932  -2.1118   0.00    0.0
2019/06/12 00:08:18.000   39.714907055 -105.115247552  1691.6380   5  14   2.2986   1.8693   4.8700   0.6317  -1.1931  -2.1116   0.00    0.0
2019/06/12 00:08:19.000   39.714910759 -105.115249215  1691.2057   5  14   2.2985   1.8692   4.8699   0.6317  -1.1930  -2.1115   0.00    0.0
2019/06/12 00:08:20.000   39.714899565 -105.115246459  1693.6076   5  13   2.8713   1.9518   5.8624  -0.7539   0.6415  -3.1740   0.00    0.0
2019/06/12 00:08:21.000   39.714901131 -105.115247045  1693.1155   5  13   2.8711   1.9517   5.8619  -0.7539   0.6417  -3.1735   0.00    0.0
2019/06/12 00:08:22.000   39.714901428 -105.115244851  1693.1002   5  13   2.8709   1.9517   5.8614  -0.7540   0.6419  -3.1731   0.00    0.0
2019/06/12 00:08:23.000   39.714900283 -105.115246073  1693.5052   5  13   2.8707   1.9516   5.8608  -0.7541   0.6421  -3.1726   0.00    0.0
2019/06/12 00:08:24.000   39.714899166 -105.115248298  1693.6302   5  13   2.8705   1.9516   5.8603  -0.7542   0.6423  -3.1721   0.00    0.0
2019/06/12 00:08:25.000   39.714900215 -105.115247104  1693.3530   5  13   2.8703   1.9515   5.8598  -0.7543   0.6425  -3.1717   0.00    0.0
2019/06/12 00:08:26.000   39.714898478 -105.115247684  1693.6122   5  13   2.8701   1.9515   5.8592  -0.7544   0.6427  -3.1712   0.00    0.0
2019/06/12 00:08:27.000   39.714899616 -105.115244192  1693.1147   5  13   2.8699   1.9514   5.8587  -0.7545   0.6429  -3.1707   0.00    0.0
2019/06/12 00:08:28.000   39.714898348 -105.115243319  1693.1161   5  13   2.8697   1.9514   5.8582  -0.7546   0.6431  -3.1703   0.00    0.0
2019/06/12 00:08:29.000   39.714897996 -105.115245006  1693.3002   5  13   2.8694   1.9513   5.8576  -0.7547   0.6434  -3.1698   0.00    0.0
2019/06/12 00:08:30.000   39.714898720 -105.115243329  1693.3473   5  13   2.8692   1.9513   5.8571  -0.7547   0.6436  -3.1693   0.00    0.0
2019/06/12 00:08:31.000   39.714899458 -105.115244993  1693.0921   5  13   2.8690   1.9512   5.8565  -0.7548   0.6438  -3.1689   0.00    0.0
2019/06/12 00:08:32.000   39.714899807 -105.115244387  1693.5284   5  13   2.8688   1.9512   5.8560  -0.7549   0.6440  -3.1684   0.00    0.0
2019/06/12 00:08:33.000   39.714897957 -105.115243743  1693.6371   5  13   2.8686   1.9511   5.8555  -0.7550   0.6442  -3.1679   0.00    0.0
2019/06/12 00:08:34.000   39.714899386 -105.115243730  1693.5213   5  13   2.8684   1.9511   5.8549  -0.7551   0.6444  -3.1675   0.00    0.0
2019/06/12 00:08:35.000   39.714897998 -105.115244675  1694.1440   5  13   2.8682   1.9510   5.8544  -0.7552   0.6446  -3.1670   0.00    0.0
2019/06/12 00:08:36.000   39.714895737 -105.115243176  1694.2528   5  13   2.8680   1.9510   5.8539  -0.7553   0.6448  -3.1665   0.00    0.0
2019/06/12 00:08:37.000   39.714899118 -105.115244618  1693.8254   5  13   2.8678   1.9509   5.8533  -0.7554   0.6450  -3.1660   0.00    0.0
2019/06/12 00:08:38.000   39.714907929 -105.115249640  1691.9999   5  14   2.2975   1.8674   4.8676   0.6309  -1.1909  -2.1082   0.00    0.0
2019/06/12 00:08:39.000   39.714908846 -105.115247299  1691.5447   5  14   2.2974   1.8673   4.8675   0.6308  -1.1908  -2.1080   0.00    0.0
2019/06/12 00:08:40.000   39.714909298 -105.115248196  1691.7203   5  14   2.2974   1.8672   4.8674   0.6308  -1.1907  -2.1078   0.00    0.0
2019/06/12 00:08:41.000   39.714906259 -105.115249837  1692.1432   5  14   2.2973   1.8671   4.8673   0.6307  -1.1906  -2.1076   0.00    0.0
2019/06/12 00:08:42.000   39.714905428 -105.115248774  1691.9892   5  14   2.2973   1.8671   4.8672   0.6307  -1.1905  -2.1075   0.00    0.0
2019/06/12 00:08:43.000   39.714907402 -105.115249225  1692.1899   5  14   2.2972   1.8670   4.8670   0.6307  -1.1904  -2.1073   0.00    0.0
2019/06/12 00:08:44.000   39.714907417 -105.115246693  1691.9470   5  14   2.2972   1.8669   4.8669   0.6306  -1.1902  -2.1071   0.00    0.0
2019/06/12 00:08:45.000   39.714906550 -105.115249066  1691.8368   5  14   2.2971   1.8668   4.8668   0.6306  -1.1901  -2.1069   0.00    0.0
2019/06/12 00:08:46.000   39.714907839 -105.115246714  1691.6418   5  14   2.2970   1.8667   4.8667   0.6305  -1.1900  -2.1068   0.00    0.0
2019/06/12 00:08:47.000   39.714906334 -105.115247541  1691.7767   5  14   2.2970   1.8666   4.8665   0.6305  -1.1899  -2.1066   0.00    0.0
2019/06/12 00:08:48.000   39.714907152 -105.115249723  1691.9901   5  14   2.2969   1.8665   4.8664   0.6304  -1.1898  -2.1064   0.00    0.0
2019/06/12 00:08:49.000   39.714908266 -105.115247498  1692.1275   5  14   2.2969   1.8664   4.8663   0.6304  -1.1897  -2.1062   0.00    0.0
2019/06/12 00:08:50.000   39.714906477 -105.115247555  1692.3205   5  14   2.2968   1.8663   4.8661   0.6304  -1.1896  -2.1060   0.00    0.0
2019/06/12 00:08:51.000   39.714909156 -105.115246528  1691.7795   5  14   2.2968   1.8662   4.8660   0.6303  -1.1895  -2.1059   0.00    0.0
2019/06/12 00:08:52.000   39.714908994 -105.115247909  1691.8687   5  14   2.2967   1.8661   4.8659   0.6303  -1.1893  -2.1057   0.00    0.0
2019/06/12 00:08:53.000   39.714906066 -105.115247636  1691.9948   5  14   2.2967   1.8660   4.8658   0.6302  -1.1892  -2.1055   0.00    0.0
2019/06/12 00:08:54.000   39.714912040 -105.115250189  1690.6480   5  15   2.2208   1.8448   4.6133   0.7490  -1.3591  -1.8781   0.00    0.0
2019/06/12 00:08:55.000   39.714912608 -105.115250544  1690.5678   5  15   2.2208   1.8447   4.6132   0.7490  -1.3590  -1.8780   0.00    0.0
2019/06/12 00:08:56.000   39.714912032 -105.115249938  1690.1672   5  15   2.2207   1.8446   4.6131   0.7489  -1.3589  -1.8779   0.00    0.0
2019/06/12 00:08:57.000   39.714911763 -105.115250307  1690.4889   5  15   2.2207   1.8445   4.6130   0.7489  -1.3588  -1.8777   0.00    0.0
2019/06/12 00:08:58.000   39.714912031 -105.115249861  1690.7123   5  15   2.2207   1.8444   4.6129   0.7489  -1.3588  -1.8776   0.00    0.0
2019/06/12 00:08:59.000   39.714910940 -105.115249877  1690.7841   5  15   2.2207   1.8443   4.6128   0.7488  -1.3587  -1.8775   0.00    0.0
2019/06/12 00:09:00.000   39.714912992 -105.115250738  1690.6544   5  15   2.2206   1.8442   4.6127   0.7488  -1.3586  -1.8773   0.00    0.0
2019/06/12 00:09:01.000   39.714912325 -105.115251115  1691.0365   5  15   2.2206   1.8441   4.6126   0.7487  -1.3585  -1.8772   0.00    0.0
2019/06/12 00:09:02.000   39.714911594 -105.115250075  1690.8301   5  15   2.2206   1.8440   4.6125   0.7487  -1.3584  -1.8771   0.00    0.0
2019/06/12 00:09:03.000   39.714910650 -105.115249506  1691.2893   5  15   2.2206   1.8439   4.6124   0.7487  -1.3583  -1.8769   0.00    0.0
2019/06/12 00:09:04.000   39.714909657 -105.115248478  1691.0874   5  15   2.2205   1.8438   4.6123   0.7486  -1.3583  -1.8768   0.00    0.0
2019/06/12 00:09:05.000   39.714909213 -105.115251899  1691.0357   5  15   2.2205   1.8437   4.6122   0.7486  -1.3582  -1.8767   0.00    0.0
2019/06/12 00:09:06.000   39.714909499 -105.115250871  1691.1169   5  15   2.2205   1.8436   4.6121   0.7485  -1.3581  -1.8765   0.00    0.0
2019/06/12 00:09:07.000   39.714909778 -105.115251231  1691.0220   5  15   2.2205   1.8435   4.6120   0.7485  -1.3580  -1.8764   0.00    0.0
2019/06/12 00:09:08.000   39.714910727 -105.115252725  1690.6588   5  15   2.2205   1.8434   4.6119   0.7485  -1.3579  -1.8763   0.00    0.0
2019/06/12 00:09:09.000   39.714910512 -105.115252440  1690.8414   5  15   2.2204   1.8433   4.6118   0.7484  -1.3579  -1.8761   0.00    0.0
2019/06/12 00:09:10.000   39.714912079 -105.115251412  1690.6304   5  15   2.2204   1.8432   4.6117   0.7484  -1.3578  -1.8760   0.00    0.0
2019/06/12 00:09:11.000   39.714910138 -105.115250689  1690.8225   5  15   2.2204   1.8431   4.6116   0.7483  -1.3577  -1.8759   0.00    0.0
2019/06/12 00:09:12.000   39.714910047 -105.115252393  1691.0086   5  15   2.2204   1.8430   4.6115   0.7483  -1.3576  -1.8757   0.00    0.0
2019/06/12 00:09:13.000   39.714910070 -105.115254073  1691.2737   5  15   2.2203   1.8429   4.6114   0.7483  -1.3575  -1.8756   0.00    0.0
2019/06/12 00:09:14.000   39.714910333 -105.115254506  1691.1020   5  15   2.2203   1.8428   4.6113   0.7482  -1.3574  -1.8755   0.00    0.0
2019/06/12 00:09:15.000   39.714911640 -105.115252746  1690.6006   5  15   2.2203   1.8427   4.6112   0.7482  -1.3574  -1.8753   0.00    0.0
2019/06/12 00:09:16.000   39.714906326 -105.115249908  1692.5038   5  14   2.2954   1.8639   4.8628   0.6292  -1.1866  -2.1013   0.00    0.0
2019/06/12 00:09:17.000   39.714909186 -105.115254316  1691.3798   5  15   2.2202   1.8425   4.6110   0.7481  -1.3572  -1.8751   0.00    0.0
2019/06/12 00:09:18.000   39.714910811 -105.115253986  1691.0187   5  15   2.2202   1.8424   4.6109   0.7481  -1.3571  -1.8749   0.00    0.0
2019/06/12 00:09:19.000   39.714912276 -105.115251779  1690.6102   5  15   2.2202   1.8423   4.6108   0.7480  -1.3570  -1.8748   0.00    0.0
2019/06/12 00:09:20.000   39.714911789 -105.115252085  1690.5600   5  15   2.2202   1.8422   4.6107   0.7480  -1.3569  -1.8746   0.00    0.0
2019/06/12 00:09:21.000   39.714912965 -105.115250328  1690.4968   5  15   2.2201   1.8421   4.6106   0.7479  -1.3569  -1.8745   0.00    0.0
2019/06/12 00:09:22.000   39.714914090 -105.115249047  1690.4931   5  15   2.2201   1.8420   4.6105   0.7479  -1.3568  -1.8744   0.00    0.0
2019/06/12 00:09:23.000   39.714912861 -105.115251410  1690.8533   5  15   2.2201   1.8419   4.6104   0.7479  -1.3567  -1.8742   0.00    0.0
2019/06/12 00:09:24.000   39.714911076 -105.115249951  1690.8654   5  15   2.2201   1.8418   4.6103   0.7478  -1.3566  -1.8741   0.00    0.0
2019/06/12 00:09:25.000   39.714911324 -105.115251071  1690.7296   5  15   2.2200   1.8417   4.6102   0.7478  -1.3565  -1.8740   0.00    0.0
2019/06/12 00:09:26.000   39.714911059 -105.115249814  1690.4863   5  15   2.2200   1.8416   4.6100   0.7477  -1.3564  -1.8738   0.00    0.0
2019/06/12 00:09:27.000   39.714909747 -105.115251685  1690.8717   5  15   2.2200   1.8415   4.6099   0.7477  -1.3564  -1.8737   0.00    0.0
2019/06/12 00:09:28.000   39.714910205 -105.115251366  1690.6815   5  15   2.2200   1.8414   4.6098   0.7477  -1.3563  -1.8735   0.00    0.0
2019/06/12 00:09:29.000   39.714910185 -105.115250588  1690.5707   5  15   2.2199   1.8413   4.6097   0.7476  -1.3562  -1.8734   0.00    0.0
2019/06/12 00:09:30.000   39.714910465 -105.115249799  1690.5563   5  15   2.2199   1.8412   4.6096   0.7476  -1.3561  -1.8733   0.00    0.0
2019/06/12 00:09:31.000   39.714909979 -105.115251552  1690.8971   5  15   2.2199   1.8411   4.6095   0.7475  -1.3560  -1.8731   0.00    0.0
2019/06/12 00:09:32.000   39.714911034 -105.115250731  1691.2915   5  15   2.2199   1.8410   4.6094   0.7475  -1.3559  -1.8730   0.00    0.0
2019/06/12 00:09:33.000   39.714910250 -105.115251103  1691.1846   5  15   2.2198   1.8409   4.6093   0.7475  -1.3558  -1.8728   0.00    0.0
2019/06/12 00:09:34.000   39.714909378 -105.115250182  1690.8530   5  15   2.2198   1.8408   4.6092   0.7474  -1.3558  -1.8727   0.00    0.0
2019/06/12 00:09:35.000   39.714910065 -105.115250837  1691.2063   5  15   2.2198   1.8407   4.6091   0.7474  -1.3557  -1.8726   0.00    0.0
2019/06/12 00:09:36.000   39.714911043 -105.115249007  1690.8020   5  15   2.2198   1.8406   4.6090   0.7473  -1.3556  -1.8724   0.00    0.0
2019/06/12 00:09:37.000   39.714911173 -105.115250936  1691.2087   5  15   2.2197   1.8405   4.6089   0.7473  -1.3555  -1.8723   0.00    0.0
2019/06/12 00:09:38.000   39.714912460 -105.115253551  1690.9181   5  15   2.2197   1.8404   4.6087   0.7473  -1.3554  -1.8721   0.00    0.0
2019/06/12 00:09:39.000   39.714912992 -105.115253713  1690.6774   5  15   2.2197   1.8403   4.6086   0.7472  -1.3553  -1.8720   0.00    0.0
2019/06/12 00:09:40.000   39.714912024 -105.115253965  1690.8289   5  15   2.2197   1.8402   4.6085   0.7472  -1.3552  -1.8719   0.00    0.0
2019/06/12 00:09:41.000   39.714911637 -105.115253184  1690.8881   5  15   2.2196   1.8401   4.6084   0.7471  -1.3552  -1.8717   0.00    0.0
2019/06/12 00:09:42.000   39.714912045 -105.115253976  1690.7525   5  15   2.2196   1.8400   4.6083   0.7471  -1.3551  -1.8716   0.00    0.0
2019/06/12 00:09:43.000   39.714912770 -105.115253639  1690.3896   5  15   2.2196   1.8399   4.6082   0.7471  -1.3550  -1.8714   0.00    0.0
2019/06/12 00:09:44.000   39.714913395 -105.115252485  1690.5312   5  15   2.2196   1.8398   4.6081   0.7470  -1.3549  -1.8713   0.00    0.0
2019/06/12 00:09:45.000   39.714911816 -105.115254627  1690.4699   5  15   2.2196   1.8397   4.6080   0.7470  -1.3548  -1.8711   0.00    0.0
2019/06/12 00:09:46.000   39.714910713 -105.115253025  1691.0152   5  15   2.2195   1.8396   4.6078   0.7469  -1.3547  -1.8710   0.00    0.0
2019/06/12 00:09:47.000   39.714911196 -105.115252503  1690.7348   5  15   2.2195   1.8395   4.6077   0.7469  -1.3546  -1.8709   0.00    0.0
2019/06/12 00:09:48.000   39.714912121 -105.115251243  1690.5210   5  15   2.2195   1.8394   4.6076   0.7469  -1.3546  -1.8707   0.00    0.0
2019/06/12 00:09:49.000   39.714911753 -105.115252400  1690.9701   5  15   2.2195   1.8393   4.6075   0.7468  -1.3545  -1.8706   0.00    0.0
2019/06/12 00:09:50.000   39.714910758 -105.115251385  1690.8807   5  15   2.2194   1.8392   4.6074   0.7468  -1.3544  -1.8704   0.00    0.0
2019/06/12 00:09:51.000   39.714913325 -105.115250751  1690.2457   5  15   2.2194   1.8391   4.6073   0.7467  -1.3543  -1.8703   0.00    0.0
2019/06/12 00:09:52.000   39.714912776 -105.115251570  1690.6178   5  15   2.2194   1.8390   4.6072   0.7467  -1.3542  -1.8701   0.00    0.0
2019/06/12 00:09:53.000   39.714913676 -105.115251961  1690.5012   5  15   2.2194   1.8389   4.6071   0.7466  -1.3541  -1.8700   0.00    0.0
2019/06/12 00:09:54.000   39.714913429 -105.115251323  1690.6173   5  15   2.2193   1.8388   4.6069   0.7466  -1.3540  -1.8698   0.00    0.0
2019/06/12 00:09:55.000   39.714911146 -105.115251580  1690.8770   5  15   2.2193   1.8387   4.6068   0.7466  -1.3540  -1.8697   0.00    0.0
2019/06/12 00:09:56.000   39.714913011 -105.115249441  1690.6558   5  15   2.2193   1.8386   4.6067   0.7465  -1.3539  -1.8696   0.00    0.0
2019/06/12 00:09:57.000   39.714912879 -105.115249150  1690.8586   5  15   2.2193   1.8385   4.6066   0.7465  -1.3538  -1.8694   0.00    0.0
2019/06/12 00:09:58.000   39.714913483 -105.115248367  1690.4194   5  15   2.2192   1.8384   4.6065   0.7464  -1.3537  -1.8693   0.00    0.0
2019/06/12 00:09:59.000   39.714913989 -105.115250461  1690.2979   5  15   2.2192   1.8383   4.6064   0.7464  -1.3536  -1.8691   0.00    0.0
2019/06/12 00:10:00.000   39.714912172 -105.115248334  1690.2137   5  15   2.2192   1.8382   4.6062   0.7464  -1.3535  -1.8690   0.00    0.0
2019/06/12 00:10:01.000   39.714911202 -105.115250394  1690.9824   5  15   2.2192   1.8381   4.6061   0.7463  -1.3534  -1.8688   0.00    0.0
2019/06/12 00:10:02.000   39.714910770 -105.115251063  1690.8948   5  15   2.2191   1.8380   4.6060   0.7463  -1.3533  -1.8687   0.00    0.0
2019/06/12 00:10:03.000   39.714910882 -105.115251781  1690.6438   5  15   2.2191   1.8379   4.6059   0.7462  -1.3533  -1.8685   0.00    0.0
2019/06/12 00:10:04.000   39.714909984 -105.115251990  1690.8290   5  15   2.2191   1.8378   4.6058   0.7462  -1.3532  -1.8684   0.00    0.0
2019/06/12 00:10:05.000   39.714909274 -105.115251494  1690.8683   5  15   2.2191   1.8377   4.6057   0.7462  -1.3531  -1.8682   0.00    0.0
2019/06/12 00:10:06.000   39.714911361 -105.115252899  1690.4579   5  15   2.2190   1.8376   4.6055   0.7461  -1.3530  -1.8681   0.00    0.0
2019/06/12 00:10:07.000   39.714912936 -105.115250658  1690.4206   5  15   2.2190   1.8375   4.6054   0.7461  -1.3529  -1.8680   0.00    0.0
2019/06/12 00:10:08.000   39.714912424 -105.115250959  1690.4612   5  15   2.2190   1.8374   4.6053   0.7460  -1.3528  -1.8678   0.00    0.0
2019/06/12 00:10:09.000   39.714910552 -105.115251973  1691.0887   5  15   2.2190   1.8373   4.6052   0.7460  -1.3527  -1.8677   0.00    0.0
2019/06/12 00:10:10.000   39.714912334 -105.115253301  1690.6448   5  15   2.2189   1.8372   4.6051   0.7460  -1.3526  -1.8675   0.00    0.0
2019/06/12 00:10:11.000   39.714910565 -105.115252729  1690.7525   5  15   2.2189   1.8371   4.6049   0.7459  -1.3525  -1.8674   0.00    0.0
2019/06/12 00:10:12.000   39.714910171 -105.115252722  1690.4773   5  15   2.2189   1.8370   4.6048   0.7459  -1.3525  -1.8672   0.00    0.0
2019/06/12 00:10:13.000   39.714913095 -105.115250988  1689.7674   5  15   2.2189   1.8369   4.6047   0.7458  -1.3524  -1.8671   0.00    0.0
2019/06/12 00:10:14.000   39.714911888 -105.115251728  1690.2349   5  15   2.2188   1.8368   4.6046   0.7458  -1.3523  -1.8669   0.00    0.0
2019/06/12 00:10:15.000   39.714910932 -105.115252833  1690.6096   5  15   2.2188   1.8367   4.6045   0.7457  -1.3522  -1.8668   0.00    0.0
2019/06/12 00:10:16.000   39.714911875 -105.115252056  1690.2966   5  15   2.2188   1.8366   4.6043   0.7457  -1.3521  -1.8666   0.00    0.0
2019/06/12 00:10:17.000   39.714911894 -105.115250652  1690.1169   5  15   2.2188   1.8365   4.6042   0.7457  -1.3520  -1.8665   0.00    0.0
2019/06/12 00:10:18.000   39.714912218 -105.115252270  1690.4802   5  15   2.2187   1.8364   4.6041   0.7456  -1.3519  -1.8663   0.00    0.0
2019/06/12 00:10:19.000   39.714911271 -105.115250843  1690.1959   5  15   2.2187   1.8363   4.6040   0.7456  -1.3518  -1.8662   0.00    0.0
2019/06/12 00:10:20.000   39.714912272 -105.115253066  1690.2098   5  15   2.2187   1.8362   4.6039   0.7455  -1.3517  -1.8660   0.00    0.0
2019/06/12 00:10:21.000   39.714911742 -105.115252754  1690.2804   5  15   2.2187   1.8361   4.6037   0.7455  -1.3516  -1.8659   0.00    0.0
2019/06/12 00:10:22.000   39.714910765 -105.115251140  1690.5695   5  15   2.2186   1.8360   4.6036   0.7455  -1.3516  -1.8657   0.00    0.0
2019/06/12 00:10:23.000   39.714909902 -105.115252950  1690.7767   5  15   2.2186   1.8359   4.6035   0.7454  -1.3515  -1.8656   0.00    0.0
2019/06/12 00:10:24.000   39.714910467 -105.115252156  1690.5077   5  15   2.2186   1.8358   4.6034   0.7454  -1.3514  -1.8654   0.00    0.0
2019/06/12 00:10:25.000   39.714910568 -105.115251957  1690.2055   5  15   2.2186   1.8357   4.6032   0.7453  -1.3513  -1.8653   0.00    0.0
2019/06/12 00:10:26.000   39.714910522 -105.115252008  1690.1056   5  15   2.2185   1.8356   4.6031   0.7453  -1.3512  -1.8651   0.00    0.0
2019/06/12 00:10:27.000   39.714909273 -105.115255501  1690.7226   5  15   2.2185   1.8355   4.6030   0.7453  -1.3511  -1.8650   0.00    0.0
2019/06/12 00:10:28.000   39.714909520 -105.115255227  1691.1922   5  15   2.2185   1.8354   4.6029   0.7452  -1.3510  -1.8648   0.00    0.0
2019/06/12 00:10:29.000   39.714911248 -105.115252588  1690.4226   5  15   2.2185   1.8353   4.6028   0.7452  -1.3509  -1.8647   0.00    0.0
2019/06/12 00:10:30.000   39.714909219 -105.115252796  1690.5389   5  15   2.2184   1.8353   4.6026   0.7451  -1.3508  -1.8645   0.00    0.0
2019/06/12 00:10:31.000   39.714909465 -105.115253203  1690.8176   5  15   2.2184   1.8352   4.6025   0.7451  -1.3507  -1.8644   0.00    0.0
2019/06/12 00:10:32.000   39.714912028 -105.115252749  1690.6957   5  15   2.2184   1.8351   4.6024   0.7450  -1.3507  -1.8642   0.00    0.0
2019/06/12 00:10:33.000   39.714909825 -105.115252890  1690.9838   5  15   2.2184   1.8350   4.6023   0.7450  -1.3506  -1.8641   0.00    0.0
2019/06/12 00:10:34.000   39.714909830 -105.115251321  1690.8455   5  15   2.2183   1.8349   4.6021   0.7450  -1.3505  -1.8639   0.00    0.0
2019/06/12 00:10:35.000   39.714911220 -105.115252350  1690.4679   5  15   2.2183   1.8348   4.6020   0.7449  -1.3504  -1.8637   0.00    0.0
2019/06/12 00:10:36.000   39.714911502 -105.115252688  1690.7154   5  15   2.2183   1.8347   4.6019   0.7449  -1.3503  -1.8636   0.00    0.0
2019/06/12 00:10:37.000   39.714913922 -105.115251925  1690.3528   5  15   2.2183   1.8346   4.6017   0.7448  -1.3502  -1.8634   0.00    0.0
2019/06/12 00:10:38.000   39.714911719 -105.115250900  1690.3408   5  15   2.2182   1.8345   4.6016   0.7448  -1.3501  -1.8633   0.00    0.0
2019/06/12 00:10:39.000   39.714912719 -105.115250762  1690.6161   5  15   2.2182   1.8344   4.6015   0.7448  -1.3500  -1.8631   0.00    0.0
2019/06/12 00:10:40.000   39.714912324 -105.115254986  1690.4789   5  15   2.2182   1.8343   4.6014   0.7447  -1.3499  -1.8630   0.00    0.0
2019/06/12 00:10:41.000   39.714913848 -105.115249982  1690.6450   5  15   2.2182   1.8342   4.6012   0.7447  -1.3498  -1.8628   0.00    0.0
2019/06/12 00:10:42.000   39.714912707 -105.115249140  1690.8786   5  15   2.2181   1.8341   4.6011   0.7446  -1.3497  -1.8627   0.00    0.0
2019/06/12 00:10:43.000   39.714910233 -105.115253241  1691.4166   5  15   2.2181   1.8340   4.6010   0.7446  -1.3496  -1.8625   0.00    0.0
2019/06/12 00:10:44.000   39.714910960 -105.115251047  1691.2661   5  15   2.2181   1.8339   4.6009   0.7445  -1.3496  -1.8624   0.00    0.0
2019/06/12 00:10:45.000   39.714909742 -105.115251974  1691.5631   5  15   2.2181   1.8338   4.6007   0.7445  -1.3495  -1.8622   0.00    0.0
2019/06/12 00:10:46.000   39.714912738 -105.115251394  1690.9571   5  15   2.2181   1.8337   4.6006   0.7445  -1.3494  -1.8621   0.00    0.0
2019/06/12 00:10:47.000   39.714912079 -105.115250804  1691.0991   5  15   2.2180   1.8336   4.6005   0.7444  -1.3493  -1.8619   0.00    0.0
2019/06/12 00:10:48.000   39.714913753 -105.115251616  1691.0880   5  15   2.2180   1.8335   4.6003   0.7444  -1.3492  -1.8617   0.00    0.0
2019/06/12 00:10:49.000   39.714912106 -105.115252839  1691.2121   5  15   2.2180   1.8334   4.6002   0.7443  -1.3491  -1.8616   0.00    0.0
2019/06/12 00:10:50.000   39.714910757 -105.115252297  1690.9223   5  15   2.2180   1.8333   4.6001   0.7443  -1.3490  -1.8614   0.00    0.0
2019/06/12 00:10:51.000   39.714912314 -105.115252300  1691.1049   5  15   2.2179   1.8332   4.6000   0.7443  -1.3489  -1.8613   0.00    0.0
2019/06/12 00:10:52.000   39.714912273 -105.115251543  1690.6886   5  15   2.2179   1.8331   4.5998   0.7442  -1.3488  -1.8611   0.00    0.0
2019/06/12 00:10:53.000   39.714910610 -105.115253193  1690.9723   5  15   2.2179   1.8330   4.5997   0.7442  -1.3487  -1.8610   0.00    0.0
2019/06/12 00:10:54.000   39.714911037 -105.115251843  1691.0386   5  15   2.2179   1.8329   4.5996   0.7441  -1.3486  -1.8608   0.00    0.0
2019/06/12 00:10:55.000   39.714913850 -105.115250493  1690.7116   5  15   2.2178   1.8328   4.5994   0.7441  -1.3485  -1.8606   0.00    0.0
2019/06/12 00:10:56.000   39.714911834 -105.115250946  1690.8197   5  15   2.2178   1.8327   4.5993   0.7440  -1.3484  -1.8605   0.00    0.0
2019/06/12 00:10:57.000   39.714910950 -105.115250220  1690.7264   5  15   2.2178   1.8326   4.5992   0.7440  -1.3483  -1.8603   0.00    0.0
2019/06/12 00:10:58.000   39.714911124 -105.115251558  1691.0975   5  15   2.2178   1.8325   4.5990   0.7440  -1.3482  -1.8602   0.00    0.0
2019/06/12 00:10:59.000   39.714911150 -105.115250747  1691.0274   5  15   2.2177   1.8324   4.5989   0.7439  -1.3482  -1.8600   0.00    0.0
2019/06/12 00:11:00.000   39.714911501 -105.115248988  1690.8808   5  15   2.2177   1.8323   4.5988   0.7439  -1.3481  -1.8599   0.00    0.0
2019/06/12 00:11:01.000   39.714910843 -105.115249737  1690.7585   5  15   2.2177   1.8322   4.5986   0.7438  -1.3480  -1.8597   0.00    0.0
2019/06/12 00:11:02.000   39.714910557 -105.115250541  1691.0071   5  15   2.2177   1.8321   4.5985   0.7438  -1.3479  -1.8595   0.00    0.0
2019/06/12 00:11:03.000   39.714912069 -105.115251014  1690.8545   5  15   2.2176   1.8320   4.5984   0.7438  -1.3478  -1.8594   0.00    0.0
2019/06/12 00:11:04.000   39.714913123 -105.115251581  1690.7131   5  15   2.2176   1.8319   4.5982   0.7437  -1.3477  -1.8592   0.00    0.0
2019/06/12 00:11:05.000   39.714911072 -105.115250916  1690.9496   5  15   2.2176   1.8318   4.5981   0.7437  -1.3476  -1.8591   0.00    0.0
2019/06/12 00:11:06.000   39.714909096 -105.115250259  1690.9862   5  15   2.2176   1.8317   4.5980   0.7436  -1.3475  -1.8589   0.00    0.0
2019/06/12 00:11:07.000   39.714910139 -105.115251584  1691.3513   5  15   2.2175   1.8316   4.5978   0.7436  -1.3474  -1.8587   0.00    0.0
2019/06/12 00:11:08.000   39.714911534 -105.115251202  1690.9829   5  15   2.2175   1.8315   4.5977   0.7435  -1.3473  -1.8586   0.00    0.0
2019/06/12 00:11:09.000   39.714910075 -105.115251052  1691.2169   5  15   2.2175   1.8314   4.5976   0.7435  -1.3472  -1.8584   0.00    0.0
2019/06/12 00:11:10.000   39.714910394 -105.115252071  1691.2621   5  15   2.2175   1.8313   4.5974   0.7435  -1.3471  -1.8583   0.00    0.0
2019/06/12 00:11:11.000   39.714912700 -105.115252102  1691.0580   5  15   2.2174   1.8312   4.5973   0.7434  -1.3470  -1.8581   0.00    0.0
2019/06/12 00:11:12.000   39.714913032 -105.115250076  1690.5840   5  15   2.2174   1.8311   4.5972   0.7434  -1.3469  -1.8579   0.00    0.0
2019/06/12 00:11:13.000   39.714911533 -105.115250318  1690.7155   5  15   2.2174   1.8310   4.5970   0.7433  -1.3468  -1.8578   0.00    0.0
2019/06/12 00:11:14.000   39.714911117 -105.115250808  1690.7021   5  15   2.2174   1.8309   4.5969   0.7433  -1.3467  -1.8576   0.00    0.0
2019/06/12 00:11:15.000   39.714912919 -105.115251324  1690.2400   5  15   2.2173   1.8308   4.5967   0.7432  -1.3466  -1.8575   0.00    0.0
2019/06/12 00:11:16.000   39.714912150 -105.115254321  1690.2554   5  15   2.2173   1.8307   4.5966   0.7432  -1.3465  -1.8573   0.00    0.0
2019/06/12 00:11:17.000   39.714911797 -105.115254465  1690.6802   5  15   2.2173   1.8306   4.5965   0.7432  -1.3464  -1.8571   0.00    0.0
2019/06/12 00:11:18.000   39.714909687 -105.115252094  1691.2475   5  14   2.6081   1.8854   5.1863  -0.2608  -0.8530  -2.5976   0.00    0.0
2019/06/12 00:11:19.000   39.714907663 -105.115250200  1691.6455   5  14   2.6080   1.8854   5.1859  -0.2611  -0.8528  -2.5972   0.00    0.0
2019/06/12 00:11:20.000   39.714908270 -105.115254854  1692.2392   5  14   2.6079   1.8853   5.1855  -0.2614  -0.8527  -2.5969   0.00    0.0
2019/06/12 00:11:21.000   39.714902287 -105.115255271  1695.0031   5  13   2.8321   1.9434   5.7590  -0.7679   0.6748  -3.0839   0.00    0.0
2019/06/12 00:11:22.000   39.714904381 -105.115264580  1695.2974   5  12   2.9169   2.1065   6.3644  -1.0761   1.6307  -3.3767   0.00    0.0
2019/06/12 00:11:23.000   39.714910918 -105.115272989  1694.7396   5  12   2.9166   2.1065   6.3638  -1.0760   1.6307  -3.3761   0.00    0.0
2019/06/12 00:11:24.000   39.714924300 -105.115278558  1691.2315   5  14   2.2179   1.8876   4.7058   0.7610  -1.1585  -1.8399   0.00    0.0
2019/06/12 00:11:25.000   39.714917142 -105.115273322  1693.3946   5  13   2.2911   1.9406   5.0859   0.5657  -0.6872  -2.1198   0.00    0.0
2019/06/12 00:11:26.000   39.714908240 -105.115267227  1695.5554   5  12   2.9157   2.1063   6.3618  -1.0758   1.6307  -3.3742   0.00    0.0
2019/06/12 00:11:27.000   39.714908169 -105.115267460  1695.5923   5  12   2.9154   2.1063   6.3612  -1.0758   1.6307  -3.3736   0.00    0.0
2019/06/12 00:11:28.000   39.714919392 -105.115275250  1693.0643   5  14   2.2879   1.8521   4.8424   0.6236  -1.1704  -2.0750   0.00    0.0
2019/06/12 00:11:29.000   39.714921520 -105.115272778  1692.5970   5  14   2.2878   1.8520   4.8422   0.6235  -1.1703  -2.0748   0.00    0.0
2019/06/12 00:11:30.000   39.714924628 -105.115276625  1691.5574   5  15   2.2170   1.8294   4.5947   0.7426  -1.3452  -1.8550   0.00    0.0
2019/06/12 00:11:31.000   39.714923412 -105.115275099  1691.3942   5  15   2.2169   1.8293   4.5945   0.7426  -1.3451  -1.8549   0.00    0.0
2019/06/12 00:11:32.000   39.714924356 -105.115276183  1691.2236   5  15   2.2169   1.8292   4.5944   0.7425  -1.3450  -1.8547   0.00    0.0
2019/06/12 00:11:33.000   39.714923942 -105.115278562  1691.4366   5  15   2.2169   1.8291   4.5942   0.7425  -1.3449  -1.8545   0.00    0.0
2019/06/12 00:11:34.000   39.714921953 -105.115277022  1691.4103   5  15   2.2169   1.8290   4.5941   0.7424  -1.3448  -1.8544   0.00    0.0
2019/06/12 00:11:35.000   39.714921797 -105.115275744  1691.1740   5  15   2.2168   1.8289   4.5940   0.7424  -1.3447  -1.8542   0.00    0.0
2019/06/12 00:11:36.000   39.714921465 -105.115276769  1691.1521   5  14   2.3689   1.8320   4.7092   0.8012  -1.3020  -1.6038   0.00    0.0
2019/06/12 00:11:37.000   39.714920546 -105.115279117  1691.3306   5  14   2.3689   1.8319   4.7091   0.8012  -1.3019  -1.6035   0.00    0.0
2019/06/12 00:11:38.000   39.714922663 -105.115278801  1691.1305   5  14   2.3688   1.8318   4.7091   0.8011  -1.3018  -1.6032   0.00    0.0
2019/06/12 00:11:39.000   39.714921095 -105.115279125  1691.1142   5  14   2.3688   1.8317   4.7091   0.8010  -1.3017  -1.6029   0.00    0.0
2019/06/12 00:11:40.000   39.714923599 -105.115277433  1691.0005   5  14   2.3687   1.8316   4.7090   0.8009  -1.3016  -1.6027   0.00    0.0
2019/06/12 00:11:41.000   39.714922353 -105.115280662  1691.0166   5  13   2.3744   1.8933   4.8487   0.8491  -1.0677  -1.5414   0.00    0.0
2019/06/12 00:11:42.000   39.714919627 -105.115276570  1692.0050   5  12   2.4305   1.9489   5.2478   0.6932  -0.4585  -1.8485   0.00    0.0
2019/06/12 00:11:43.000   39.714920631 -105.115277206  1692.6361   5  14   2.2870   1.8508   4.8397   0.6229  -1.1685  -2.0718   0.00    0.0
2019/06/12 00:11:44.000   39.714911245 -105.115270532  1694.5667   5  13   2.8269   1.9424   5.7449  -0.7693   0.6785  -3.0717   0.00    0.0
2019/06/12 00:11:45.000   39.714913213 -105.115270590  1694.5697   5  13   2.8267   1.9423   5.7443  -0.7694   0.6787  -3.0712   0.00    0.0
2019/06/12 00:11:46.000   39.714911405 -105.115271047  1694.5707   5  13   2.8265   1.9423   5.7437  -0.7695   0.6788  -3.0707   0.00    0.0
2019/06/12 00:11:47.000   39.714911522 -105.115270244  1694.9943   5  13   2.8263   1.9422   5.7431  -0.7695   0.6790  -3.0701   0.00    0.0
2019/06/12 00:11:48.000   39.714926660 -105.115276132  1691.8982   5  15   2.2165   1.8276   4.5921   0.7418  -1.3434  -1.8520   0.00    0.0
2019/06/12 00:11:49.000   39.714926065 -105.115280260  1691.3564   5  15   2.2165   1.8275   4.5919   0.7418  -1.3433  -1.8519   0.00    0.0
2019/06/12 00:11:50.000   39.714924909 -105.115275762  1690.8996   5  14   2.2166   1.8856   4.5943   0.7339  -1.3166  -1.8527   0.00    0.0
2019/06/12 00:11:51.000   39.714922637 -105.115278214  1691.0034   5  13   2.3871   2.2636   4.9853   1.2839  -2.0390  -2.2687   0.00    0.0
2019/06/12 00:11:52.000   39.714925073 -105.115277277  1690.9589   5  13   2.3871   2.2634   4.9853   1.2837  -2.0390  -2.2686   0.00    0.0
2019/06/12 00:11:53.000   39.714924079 -105.115277542  1691.1568   5  13   2.3870   2.2633   4.9852   1.2836  -2.0390  -2.2685   0.00    0.0
2019/06/12 00:11:54.000   39.714926348 -105.115278888  1690.7695   5  14   2.2165   1.8853   4.5937   0.7336  -1.3164  -1.8520   0.00    0.0
2019/06/12 00:11:55.000   39.714926186 -105.115277535  1690.4911   5  14   2.2165   1.8852   4.5936   0.7335  -1.3163  -1.8519   0.00    0.0
2019/06/12 00:11:56.000   39.714927678 -105.115281283  1690.5940   5  15   2.2163   1.8269   4.5909   0.7415  -1.3426  -1.8507   0.00    0.0
2019/06/12 00:11:57.000   39.714924026 -105.115281546  1691.4675   5  15   2.2163   1.8268   4.5908   0.7414  -1.3425  -1.8505   0.00    0.0
2019/06/12 00:11:58.000   39.714926884 -105.115282249  1690.7814   5  15   2.2163   1.8267   4.5906   0.7414  -1.3424  -1.8503   0.00    0.0
2019/06/12 00:11:59.000   39.714918860 -105.115277914  1692.7765   5  14   2.2861   1.8494   4.8368   0.6222  -1.1664  -2.0682   0.00    0.0
2019/06/12 00:12:00.000   39.714922467 -105.115279742  1691.6143   5  13   2.2889   1.9373   5.0819   0.5662  -0.6781  -2.1111   0.00    0.0
2019/06/12 00:12:01.000   39.714920074 -105.115283904  1692.0081   5  13   2.2889   1.9372   5.0818   0.5662  -0.6778  -2.1108   0.00    0.0
2019/06/12 00:12:02.000   39.714905679 -105.115274707  1694.8810   5  11   3.1075   2.2938   6.3829  -0.3836   1.4047  -3.4732   0.00    0.0
2019/06/12 00:12:03.000   39.714906790 -105.115280517  1695.4245   5  11   3.1071   2.2938   6.3820  -0.3838   1.4052  -3.4723   0.00    0.0
2019/06/12 00:12:04.000   39.714906617 -105.115278382  1694.2551   5  12   3.0568   2.1043   5.8292   0.5990  -0.6273  -3.2574   0.00    0.0
2019/06/12 00:12:05.000   39.714896151 -105.115281718  1696.1540   5  10   3.6000   2.5830   6.8369   1.7346  -2.2982  -4.1710   0.00    0.0
2019/06/12 00:12:06.000   39.714891706 -105.115307891  1698.9623   5   9   3.6416   3.1649   7.4336   2.0047  -3.2590  -4.3594   0.00    0.0
2019/06/12 00:12:07.000   39.714927728 -105.115275979  1693.2088   5   6   4.6985   3.5560   8.9935   2.4062  -3.4766  -5.7691   0.00    0.0
2019/06/12 00:12:19.000   39.714922456 -105.115265708  1691.4528   5   5   8.0236   5.7664  14.7002  -6.2410   8.5238 -10.1555   0.00    0.0
2019/06/12 00:12:20.000   39.714911859 -105.115276076  1692.7163   5   5   6.1150   2.5274   6.9453   1.6561   1.6332  -4.2294   0.00    0.0
2019/06/12 00:12:21.000   39.714902044 -105.115258964  1695.6905   5   4  11.2894   7.3768  20.6894  -7.9949  11.1050 -14.9024   0.00    0.0
2019/06/12 00:12:22.000   39.714918543 -105.115279029  1692.7240   5   5   9.1977   6.8054  18.5443  -6.7293   9.8595 -12.7299   0.00    0.0
2019/06/12 00:12:23.000   39.714920907 -105.115294969  1693.1186   5   5   9.1881   6.8025  18.5252  -6.7230   9.8508 -12.7160   0.00    0.0
2019/06/12 00:12:24.000   39.714992414 -105.115307732  1681.7943   5   5  19.1894   7.4684  31.5323  -9.8575  13.2563 -24.3224   0.00    0.0
2019/06/12 00:12:25.000   39.715005460 -105.115301213  1680.1326   5   5  19.1751   7.4643  31.5027  -9.8484  13.2439 -24.3016   0.00    0.0
2019/06/12 00:12:26.000   39.714963587 -105.115330890  1687.8229   5   5  19.1576   6.1963  31.2731  -9.7639  12.6628 -24.2547   0.00    0.0
2019/06/12 00:12:27.000   39.714936628 -105.115279172  1694.4295   5   6   8.8627   5.0574  17.2780  -5.8780   8.1881 -12.0654   0.00    0.0
2019/06/12 00:12:28.000   39.714958461 -105.115294112  1689.2293   5   7   7.1240   3.4899  11.8927  -3.8376   4.5711  -8.6914   0.00    0.0
2019/06/12 00:12:29.000   39.714848298 -105.115243644  1690.5674   5   5  30.0460   9.4447  13.8936 -16.0571 -10.3707  16.8475   0.00    0.0
2019/06/12 00:12:30.000   39.714844330 -105.115235769  1689.6342   5   5  30.0087   9.4385  13.8931 -16.0411 -10.3674  16.8378   0.00    0.0
2019/06/12 00:12:38.000   39.714906094 -105.115241058  1692.7462   5   8   4.3658   2.3390   6.8934  -0.6367   1.4456  -4.3729   0.00    0.0
2019/06/12 00:12:39.000   39.714908788 -105.115243674  1692.6091   5   8   4.3655   2.3389   6.8924  -0.6370   1.4461  -4.3720   0.00    0.0
2019/06/12 00:12:40.000   39.714905097 -105.115245611  1692.0992   5  10   4.2651   2.1040   6.4807   0.3969  -0.5377  -4.2424   0.00    0.0
2019/06/12 00:12:41.000   39.714909445 -105.115240814  1692.0657   5   9   4.2683   2.2969   6.8448  -0.0653   1.3211  -4.2867   0.00    0.0
2019/06/12 00:12:42.000   39.714881948 -105.115240750  1695.2509   5  10   3.5173   2.2938   6.3537  -0.5406   1.4316  -3.4957   0.00    0.0
2019/06/12 00:12:43.000   39.714890831 -105.115240159  1694.6281   5  11   3.1509   2.1347   6.3109  -1.2665   1.6317  -3.3282   0.00    0.0
2019/06/12 00:12:44.000   39.714895551 -105.115241107  1694.7593   5  12   2.8933   2.1028   6.3102  -1.0705   1.6302  -3.3250   0.00    0.0
2019/06/12 00:12:45.000   39.714894602 -105.115242615  1694.8625   5  12   2.8931   2.1028   6.3096  -1.0704   1.6302  -3.3244   0.00    0.0
2019/06/12 00:12:46.000   39.714905546 -105.115252347  1691.2998   5  13   2.6046   1.9599   5.3593  -0.4325   0.3495  -2.6187   0.00    0.0
2019/06/12 00:12:47.000   39.714904993 -105.115249007  1691.7525   5  14   2.5976   1.8800   5.1482  -0.2870  -0.8376  -2.5640   0.00    0.0
2019/06/12 00:12:48.000   39.714905936 -105.115249728  1691.9687   5  14   2.5975   1.8799   5.1478  -0.2872  -0.8375  -2.5636   0.00    0.0
2019/06/12 00:12:49.000   39.714903573 -105.115249211  1692.2658   5  14   2.5973   1.8799   5.1474  -0.2875  -0.8373  -2.5632   0.00    0.0
2019/06/12 00:12:50.000   39.714904441 -105.115248689  1692.4000   5  14   2.5972   1.8798   5.1469  -0.2878  -0.8371  -2.5628   0.00    0.0
2019/06/12 00:12:51.000   39.714905717 -105.115247944  1692.4387   5  14   2.5971   1.8797   5.1465  -0.2881  -0.8369  -2.5624   0.00    0.0
2019/06/12 00:12:52.000   39.714906667 -105.115248559  1692.4027   5  14   2.5970   1.8797   5.1460  -0.2883  -0.8368  -2.5621   0.00    0.0
2019/06/12 00:12:53.000   39.714907667 -105.115246564  1692.4179   5  14   2.5969   1.8796   5.1456  -0.2886  -0.8366  -2.5617   0.00    0.0
2019/06/12 00:12:54.000   39.714905482 -105.115247159  1692.6923   5  14   2.5967   1.8796   5.1451  -0.2889  -0.8364  -2.5613   0.00    0.0
2019/06/12 00:12:55.000   39.714906551 -105.115245627  1692.3920   5  14   2.5966   1.8795   5.1447  -0.2892  -0.8362  -2.5609   0.00    0.0
2019/06/12 00:12:56.000   39.714906293 -105.115247999  1692.4507   5  14   2.5965   1.8794   5.1443  -0.2894  -0.8361  -2.5605   0.00    0.0
2019/06/12 00:12:57.000   39.714904505 -105.115246802  1692.3645   5  14   2.5964   1.8794   5.1438  -0.2897  -0.8359  -2.5601   0.00    0.0
2019/06/12 00:12:58.000   39.714905433 -105.115245172  1692.2440   5  14   2.5963   1.8793   5.1434  -0.2900  -0.8357  -2.5597   0.00    0.0
2019/06/12 00:12:59.000   39.714906317 -105.115248536  1692.4172   5  14   2.5961   1.8793   5.1429  -0.2902  -0.8355  -2.5593   0.00    0.0
2019/06/12 00:13:00.000   39.714907370 -105.115248347  1691.8712   5  14   2.5960   1.8792   5.1425  -0.2905  -0.8354  -2.5589   0.00    0.0
2019/06/12 00:13:01.000   39.714908358 -105.115248738  1691.7906   5  14   2.5959   1.8791   5.1420  -0.2908  -0.8352  -2.5585   0.00    0.0
2019/06/12 00:13:02.000   39.714906568 -105.115247553  1691.9811   5  14   2.5958   1.8791   5.1416  -0.2911  -0.8350  -2.5581   0.00    0.0
2019/06/12 00:13:03.000   39.714906440 -105.115248467  1691.6685   5  14   2.5957   1.8790   5.1411  -0.2913  -0.8348  -2.5577   0.00    0.0
2019/06/12 00:13:04.000   39.714907257 -105.115247547  1691.4182   5  14   2.5955   1.8790   5.1407  -0.2916  -0.8347  -2.5574   0.00    0.0
2019/06/12 00:13:05.000   39.714907465 -105.115248515  1691.6288   5  14   2.5954   1.8789   5.1403  -0.2919  -0.8345  -2.5570   0.00    0.0
2019/06/12 00:13:06.000   39.714906526 -105.115249296  1691.7412   5  14   2.5953   1.8788   5.1398  -0.2921  -0.8343  -2.5566   0.00    0.0
2019/06/12 00:13:07.000   39.714905903 -105.115248873  1691.8432   5  14   2.5952   1.8788   5.1394  -0.2924  -0.8341  -2.5562   0.00    0.0
2019/06/12 00:13:08.000   39.714907696 -105.115248187  1691.5981   5  14   2.5950   1.8787   5.1389  -0.2927  -0.8340  -2.5558   0.00    0.0
2019/06/12 00:13:09.000   39.714907780 -105.115248330  1691.8074   5  14   2.5949   1.8787   5.1385  -0.2930  -0.8338  -2.5554   0.00    0.0
2019/06/12 00:13:10.000   39.714908217 -105.115249229  1691.8275   5  14   2.5948   1.8786   5.1380  -0.2932  -0.8336  -2.5550   0.00    0.0
2019/06/12 00:13:11.000   39.714907966 -105.115248043  1691.8236   5  14   2.5947   1.8785   5.1376  -0.2935  -0.8334  -2.5546   0.00    0.0
2019/06/12 00:13:12.000   39.714905601 -105.115250355  1692.2193   5  14   2.5946   1.8785   5.1371  -0.2938  -0.8333  -2.5542   0.00    0.0
2019/06/12 00:13:13.000   39.714905312 -105.115250040  1691.9475   5  14   2.5944   1.8784   5.1367  -0.2940  -0.8331  -2.5538   0.00    0.0
2019/06/12 00:13:14.000   39.714903967 -105.115248076  1691.8424   5  14   2.5943   1.8784   5.1362  -0.2943  -0.8329  -2.5534   0.00    0.0
2019/06/12 00:13:15.000   39.714902588 -105.115249306  1692.0841   5  14   2.5942   1.8783   5.1358  -0.2946  -0.8327  -2.5530   0.00    0.0
2019/06/12 00:13:16.000   39.714904015 -105.115245538  1691.9165   5  14   2.5941   1.8783   5.1353  -0.2948  -0.8326  -2.5526   0.00    0.0
2019/06/12 00:13:17.000   39.714911263 -105.115253493  1690.6324   5  13   2.6006   1.9579   5.3465  -0.4355   0.3612  -2.6058   0.00    0.0
2019/06/12 00:13:18.000   39.714910574 -105.115253427  1690.3703   5  12   2.9269   2.5173   5.8788  -1.5215   2.0000  -3.1737   0.00    0.0
2019/06/12 00:13:19.000   39.714910863 -105.115254228  1690.2801   5  12   2.9267   2.5173   5.8780  -1.5216   1.9997  -3.1732   0.00    0.0
2019/06/12 00:13:20.000   39.714908352 -105.115253993  1690.7973   5  12   2.9266   2.5173   5.8772  -1.5216   1.9995  -3.1726   0.00    0.0
2019/06/12 00:13:21.000   39.714909716 -105.115253213  1691.0231   5  12   2.9265   2.5173   5.8764  -1.5216   1.9992  -3.1720   0.00    0.0
2019/06/12 00:13:22.000   39.714908702 -105.115253247  1691.3180   5  12   2.9263   2.5173   5.8756  -1.5217   1.9989  -3.1714   0.00    0.0
2019/06/12 00:13:23.000   39.714907269 -105.115250049  1691.7658   5  13   2.5998   1.9575   5.3439  -0.4360   0.3634  -2.6032   0.00    0.0
2019/06/12 00:13:24.000   39.714907595 -105.115249468  1691.5446   5  13   2.5997   1.9574   5.3435  -0.4361   0.3637  -2.6028   0.00    0.0
2019/06/12 00:13:25.000   39.714907002 -105.115249270  1691.7764   5  13   2.5995   1.9573   5.3431  -0.4362   0.3641  -2.6024   0.00    0.0
2019/06/12 00:13:26.000   39.714908222 -105.115252135  1691.2284   5  14   2.5929   1.8777   5.1308  -0.2975  -0.8308  -2.5486   0.00    0.0
2019/06/12 00:13:27.000   39.714906899 -105.115249688  1691.5326   5  14   2.5927   1.8776   5.1304  -0.2977  -0.8306  -2.5483   0.00    0.0
2019/06/12 00:13:28.000   39.714908967 -105.115250090  1690.9485   5  14   2.5926   1.8775   5.1299  -0.2980  -0.8304  -2.5479   0.00    0.0
2019/06/12 00:13:29.000   39.714908356 -105.115250485  1691.6491   5  14   2.5925   1.8775   5.1295  -0.2983  -0.8303  -2.5475   0.00    0.0
2019/06/12 00:13:30.000   39.714908550 -105.115249228  1691.5068   5  14   2.5924   1.8774   5.1290  -0.2985  -0.8301  -2.5471   0.00    0.0
2019/06/12 00:13:31.000   39.714907326 -105.115248316  1691.6493   5  14   2.5923   1.8774   5.1285  -0.2988  -0.8299  -2.5467   0.00    0.0
2019/06/12 00:13:32.000   39.714904740 -105.115244217  1692.2707   5  14   2.5921   1.8773   5.1281  -0.2990  -0.8297  -2.5463   0.00    0.0
2019/06/12 00:13:33.000   39.714908276 -105.115248158  1692.0923   5  13   2.8648   2.3039   5.4518  -1.3112   1.3361  -2.9565   0.00    0.0
2019/06/12 00:13:34.000   39.714909433 -105.115248834  1691.7429   5  13   2.8647   2.3039   5.4511  -1.3113   1.3359  -2.9560   0.00    0.0
2019/06/12 00:13:35.000   39.714909426 -105.115247994  1691.7140   5  13   2.8646   2.3040   5.4503  -1.3114   1.3357  -2.9554   0.00    0.0
2019/06/12 00:13:36.000   39.714909249 -105.115246323  1691.9556   5  13   2.8645   2.3040   5.4496  -1.3116   1.3354  -2.9549   0.00    0.0
2019/06/12 00:13:37.000   39.714906221 -105.115243218  1692.0927   5  13   2.8644   2.3040   5.4489  -1.3117   1.3352  -2.9544   0.00    0.0
2019/06/12 00:13:38.000   39.714912315 -105.115250039  1690.9717   5  15   2.2138   1.8171   4.5744   0.7370  -1.3318  -1.8323   0.00    0.0
2019/06/12 00:13:39.000   39.714913043 -105.115251124  1690.8423   5  15   2.2137   1.8170   4.5743   0.7369  -1.3317  -1.8321   0.00    0.0
2019/06/12 00:13:40.000   39.714913563 -105.115253509  1690.8086   5  15   2.2137   1.8169   4.5741   0.7369  -1.3316  -1.8319   0.00    0.0
2019/06/12 00:13:41.000   39.714908842 -105.115249311  1692.3750   5  14   2.2802   1.8406   4.8165   0.6178  -1.1522  -2.0445   0.00    0.0
2019/06/12 00:13:42.000   39.714885753 -105.115229664  1696.6371   5  12   3.3732   2.5950   6.5342  -1.9621   2.4680  -3.8923   0.00    0.0
2019/06/12 00:13:43.000   39.714877998 -105.115221599  1698.5056   5  11   4.0163   3.4385   8.6479  -2.9611   4.3441  -5.2439   0.00    0.0
2019/06/12 00:13:44.000   39.714880458 -105.115225716  1698.0252   5  11   4.0155   3.4383   8.6455  -2.9606   4.3431  -5.2423   0.00    0.0
2019/06/12 00:13:45.000   39.714878745 -105.115220583  1698.5961   5  11   4.0147   3.4382   8.6432  -2.9602   4.3422  -5.2407   0.00    0.0
2019/06/12 00:13:46.000   39.714879110 -105.115219209  1699.0352   5  11   4.0140   3.4380   8.6408  -2.9597   4.3412  -5.2391   0.00    0.0
2019/06/12 00:13:47.000   39.714894539 -105.115241211  1695.3400   5  12   2.8749   2.1000   6.2664  -1.0656   1.6289  -3.2836   0.00    0.0
2019/06/12 00:13:48.000   39.714894319 -105.115243460  1694.8202   5  13   2.7985   1.9373   5.6658  -0.7764   0.6965  -3.0033   0.00    0.0
2019/06/12 00:13:49.000   39.714896241 -105.115242609  1694.1845   5  13   2.7983   1.9373   5.6652  -0.7764   0.6967  -3.0027   0.00    0.0
2019/06/12 00:13:50.000   39.714905391 -105.115247933  1691.9112   5  14   2.5899   1.8763   5.1199  -0.3037  -0.8265  -2.5390   0.00    0.0
2019/06/12 00:13:51.000   39.714907763 -105.115248283  1691.4764   5  14   2.5898   1.8762   5.1194  -0.3040  -0.8264  -2.5386   0.00    0.0
2019/06/12 00:13:52.000   39.714906437 -105.115249474  1691.8375   5  14   2.5897   1.8762   5.1190  -0.3042  -0.8262  -2.5382   0.00    0.0
2019/06/12 00:13:53.000   39.714906093 -105.115248743  1691.7896   5  14   2.5896   1.8761   5.1185  -0.3045  -0.8260  -2.5378   0.00    0.0
2019/06/12 00:13:54.000   39.714906082 -105.115249228  1691.7330   5  14   2.5895   1.8760   5.1180  -0.3047  -0.8258  -2.5374   0.00    0.0
2019/06/12 00:13:55.000   39.714905180 -105.115248339  1691.6558   5  14   2.5893   1.8760   5.1176  -0.3050  -0.8257  -2.5370   0.00    0.0
2019/06/12 00:13:56.000   39.714907410 -105.115248427  1691.7037   5  14   2.5892   1.8759   5.1171  -0.3052  -0.8255  -2.5366   0.00    0.0
2019/06/12 00:13:57.000   39.714906473 -105.115249819  1691.8904   5  14   2.5891   1.8759   5.1167  -0.3055  -0.8253  -2.5362   0.00    0.0
2019/06/12 00:13:58.000   39.714904661 -105.115247768  1692.0748   5  14   2.5890   1.8758   5.1162  -0.3057  -0.8251  -2.5358   0.00    0.0
2019/06/12 00:13:59.000   39.714903962 -105.115247239  1691.9508   5  13   2.5951   1.9551   5.3285  -0.4393   0.3762  -2.5878   0.00    0.0
2019/06/12 00:14:00.000   39.714899753 -105.115251242  1692.3801   5  13   2.5950   1.9551   5.3280  -0.4394   0.3765  -2.5873   0.00    0.0
2019/06/12 00:14:01.000   39.714902682 -105.115246524  1692.7577   5  12   2.9208   2.5176   5.8446  -1.5232   1.9886  -3.1488   0.00    0.0
2019/06/12 00:14:02.000   39.714878057 -105.115219705  1699.4225   5  11   4.0017   3.4356   8.6027  -2.9522   4.3257  -5.2136   0.00    0.0
2019/06/12 00:14:03.000   39.714878312 -105.115219735  1699.2870   5  11   4.0010   3.4354   8.6003  -2.9517   4.3247  -5.2120   0.00    0.0
2019/06/12 00:14:04.000   39.714877724 -105.115221441  1699.2398   5  11   4.0002   3.4353   8.5979  -2.9512   4.3237  -5.2104   0.00    0.0
2019/06/12 00:14:05.000   39.714876148 -105.115218757  1699.6445   5  11   3.9995   3.4351   8.5955  -2.9508   4.3228  -5.2088   0.00    0.0
2019/06/12 00:14:06.000   39.714878606 -105.115217558  1699.1133   5  11   3.9987   3.4350   8.5932  -2.9503   4.3218  -5.2072   0.00    0.0
2019/06/12 00:14:07.000   39.714878541 -105.115220230  1699.0626   5  11   3.9979   3.4348   8.5908  -2.9498   4.3208  -5.2056   0.00    0.0
2019/06/12 00:14:08.000   39.714875340 -105.115219640  1699.6680   5  11   3.9972   3.4347   8.5884  -2.9493   4.3198  -5.2040   0.00    0.0
