% program   : RTKPOST ver.demo5 b31
% inp file  : H:\Data\Colorado\2019-0611\Joe_M600_PPK_Test_20190611_Ricoh_JPGs\CWW_PPK\2019\0612\GPS\UAS\GP000639.obs
% inp file  : H:\Data\Colorado\2019-0611\Joe_M600_PPK_Test_20190611_Ricoh_JPGs\CWW_PPK\2019\CTMC\ctmc1620.19o
% inp file  : H:\Data\Colorado\2019-0611\Joe_M600_PPK_Test_20190611_Ricoh_JPGs\CWW_PPK\2019\0612\GPS\UAS\GP000639.gnav
% inp file  : H:\Data\Colorado\2019-0611\Joe_M600_PPK_Test_20190611_Ricoh_JPGs\CWW_PPK\2019\0612\GPS\UAS\GP000639.nav
% obs start : 2019/06/12 00:06:39.5 UTC (week2057 259617.5s)
% obs end   : 2019/06/12 01:03:09.0 UTC (week2057 263007.0s)
% pos mode  : kinematic
% freqs     : L1+L2
% solution  : combined
% elev mask : 10.0 deg
% dynamics  : on
% tidecorr  : off
% ionos opt : broadcast
% tropo opt : saastamoinen
% ephemeris : broadcast
% navi sys  : gps glonass sbas
% amb res   : fix and hold
% amb glo   : auto calib
% val thres : 3.0
% antenna1  :                       ( 0.0000  0.0000  0.0000)
% antenna2  : TRM55971.00     NONE  ( 0.0000  0.0000  0.0000)
% ref pos   : 39.721525874 -105.192871000  1819.8362
%
% (lat/lon/height=WGS84/ellipsoidal,Q=1:fix,2:float,3:sbas,4:dgps,5:single,6:ppp,ns=# of satellites)
%  UTC                   latitude(deg) longitude(deg)  height(m)   Q  ns   sdn(m)   sde(m)   sdu(m)  sdne(m)  sdeu(m)  sdun(m) age(s)  ratio
2019/06/12 00:06:39.500   39.714896633 -105.115235229  1692.7798   2   5   0.0452   0.0578   0.1152   0.0270  -0.0365  -0.0580  -2.50    0.0
2019/06/12 00:06:40.000   39.714900481 -105.115233200  1693.0853   2   5   0.0132   0.0545   0.0893   0.0223  -0.0273  -0.0427  -2.00    0.0
2019/06/12 00:06:54.000   39.714909166 -105.115229106  1694.0099   1  12   0.0070   0.0046   0.0139  -0.0025   0.0034  -0.0078   2.00    4.8
2019/06/12 00:06:55.000   39.714909129 -105.115229103  1694.0185   1  12   0.0070   0.0046   0.0139  -0.0026   0.0035  -0.0079   3.00    4.8
2019/06/12 00:06:56.000   39.714909126 -105.115229125  1694.0195   1  12   0.0076   0.0049   0.0152  -0.0027   0.0037  -0.0085   4.00    4.7
2019/06/12 00:06:57.000   39.714909167 -105.115229111  1694.0115   1  12   0.0072   0.0045   0.0129  -0.0032   0.0040  -0.0079   0.00    4.7
2019/06/12 00:06:58.000   39.714909174 -105.115229147  1694.0097   1   8   0.0083   0.0052   0.0158  -0.0033   0.0042  -0.0093   1.00    4.7
2019/06/12 00:06:59.000   39.714907992 -105.115229018  1693.2778   2  10   0.0230   0.0538   0.0424   0.0204  -0.0226  -0.0171  -3.00    0.0
2019/06/12 00:07:00.000   39.714908005 -105.115229004  1693.2723   2  10   0.0231   0.0538   0.0425   0.0204  -0.0226  -0.0171  -2.00    0.0
2019/06/12 00:07:01.000   39.714908009 -105.115228974  1693.2641   2  12   0.0232   0.0538   0.0429   0.0204  -0.0226  -0.0173  -1.00    0.0
2019/06/12 00:07:02.000   39.714908012 -105.115229000  1693.2587   2  12   0.0230   0.0537   0.0421   0.0204  -0.0227  -0.0169   0.00    0.0
2019/06/12 00:07:03.000   39.714908024 -105.115229023  1693.2495   2  12   0.0234   0.0539   0.0431   0.0204  -0.0226  -0.0174  -4.00    0.0
2019/06/12 00:07:04.000   39.714908004 -105.115229012  1693.2530   2  12   0.0233   0.0539   0.0428   0.0204  -0.0227  -0.0172  -3.00    0.0
2019/06/12 00:07:05.000   39.714908010 -105.115229033  1693.2462   2  12   0.0234   0.0539   0.0429   0.0204  -0.0226  -0.0173  -2.00    0.0
2019/06/12 00:07:06.000   39.714907983 -105.115229018  1693.2474   2  12   0.0236   0.0540   0.0433   0.0204  -0.0226  -0.0175  -1.00    0.0
2019/06/12 00:07:07.000   39.714907974 -105.115229025  1693.2470   2  12   0.0234   0.0540   0.0426   0.0204  -0.0227  -0.0171   0.00    0.0
2019/06/12 00:07:08.000   39.714907967 -105.115229026  1693.2468   2  12   0.0238   0.0541   0.0435   0.0204  -0.0226  -0.0176  -4.00    0.0
2019/06/12 00:07:09.000   39.714907920 -105.115229026  1693.2471   2  12   0.0237   0.0541   0.0433   0.0204  -0.0226  -0.0174  -3.00    0.0
2019/06/12 00:07:10.000   39.714907921 -105.115229007  1693.2362   2  12   0.0238   0.0542   0.0434   0.0204  -0.0226  -0.0175  -2.00    0.0
2019/06/12 00:07:11.000   39.714907962 -105.115229064  1693.2233   2  14   0.0238   0.0543   0.0434   0.0204  -0.0227  -0.0173  -1.00    0.0
2019/06/12 00:07:12.000   39.714907945 -105.115229081  1693.2183   2  14   0.0237   0.0543   0.0429   0.0204  -0.0227  -0.0170   0.00    0.0
2019/06/12 00:07:13.000   39.714907942 -105.115229078  1693.2125   2  14   0.0240   0.0544   0.0436   0.0204  -0.0227  -0.0173  -4.00    0.0
2019/06/12 00:07:14.000   39.714907919 -105.115229067  1693.2086   2  14   0.0240   0.0544   0.0435   0.0204  -0.0226  -0.0172  -3.00    0.0
2019/06/12 00:07:15.000   39.714907906 -105.115229087  1693.2072   2  14   0.0241   0.0545   0.0436   0.0204  -0.0226  -0.0173  -2.00    0.0
2019/06/12 00:07:16.000   39.714907880 -105.115229094  1693.2046   2  14   0.0243   0.0545   0.0440   0.0204  -0.0226  -0.0175  -1.00    0.0
2019/06/12 00:07:17.000   39.714907827 -105.115229062  1693.2084   2  14   0.0242   0.0545   0.0435   0.0204  -0.0225  -0.0172   0.00    0.0
2019/06/12 00:07:18.000   39.714907805 -105.115229070  1693.2022   2  14   0.0245   0.0546   0.0442   0.0204  -0.0225  -0.0176  -4.00    0.0
2019/06/12 00:07:19.000   39.714907800 -105.115229042  1693.2034   2  14   0.0245   0.0547   0.0441   0.0204  -0.0225  -0.0175  -3.00    0.0
2019/06/12 00:07:20.000   39.714907796 -105.115229072  1693.1923   2  14   0.0246   0.0547   0.0443   0.0204  -0.0224  -0.0176  -2.00    0.0
2019/06/12 00:07:21.000   39.714907745 -105.115229089  1693.1935   2  13   0.0248   0.0548   0.0447   0.0204  -0.0223  -0.0178  -1.00    0.0
2019/06/12 00:07:22.000   39.714907740 -105.115229081  1693.1885   2  13   0.0247   0.0548   0.0441   0.0204  -0.0223  -0.0175   0.00    0.0
2019/06/12 00:07:23.000   39.714907745 -105.115229102  1693.1834   2  13   0.0250   0.0549   0.0448   0.0204  -0.0224  -0.0178  -4.00    0.0
2019/06/12 00:07:24.000   39.714907742 -105.115229126  1693.1794   2  13   0.0250   0.0549   0.0446   0.0204  -0.0223  -0.0177  -3.00    0.0
2019/06/12 00:07:25.000   39.714907786 -105.115229182  1693.1719   2  13   0.0251   0.0550   0.0447   0.0204  -0.0223  -0.0177  -2.00    0.0
2019/06/12 00:07:26.000   39.714907760 -105.115229204  1693.1725   2  13   0.0253   0.0551   0.0451   0.0204  -0.0223  -0.0179  -1.00    0.0
2019/06/12 00:07:27.000   39.714907728 -105.115229193  1693.1755   2  13   0.0252   0.0551   0.0445   0.0204  -0.0223  -0.0176   0.00    2.1
2019/06/12 00:07:28.000   39.714907739 -105.115229214  1693.1666   2  13   0.0255   0.0552   0.0453   0.0204  -0.0222  -0.0180  -4.00    2.1
2019/06/12 00:07:29.000   39.714907722 -105.115229226  1693.1587   2  13   0.0255   0.0552   0.0451   0.0204  -0.0222  -0.0178  -3.00    2.1
2019/06/12 00:07:30.000   39.714907717 -105.115229242  1693.1551   2  13   0.0256   0.0552   0.0452   0.0203  -0.0222  -0.0178  -2.00    2.2
2019/06/12 00:07:31.000   39.714907718 -105.115229276  1693.1472   2  14   0.0257   0.0553   0.0453   0.0204  -0.0222  -0.0177  -1.00    2.2
2019/06/12 00:07:32.000   39.714907730 -105.115229283  1693.1425   2  14   0.0256   0.0553   0.0449   0.0203  -0.0221  -0.0175   0.00    2.2
2019/06/12 00:07:33.000   39.714907726 -105.115229286  1693.1379   2  14   0.0259   0.0554   0.0455   0.0203  -0.0221  -0.0178  -4.00    2.3
2019/06/12 00:07:34.000   39.714907728 -105.115229307  1693.1330   2  14   0.0259   0.0554   0.0454   0.0203  -0.0221  -0.0177  -3.00    2.3
2019/06/12 00:07:35.000   39.714907697 -105.115229323  1693.1319   2  14   0.0260   0.0555   0.0455   0.0203  -0.0221  -0.0177  -2.00    2.3
2019/06/12 00:07:36.000   39.714907698 -105.115229364  1693.1302   2  14   0.0262   0.0556   0.0458   0.0203  -0.0220  -0.0179  -1.00    2.4
2019/06/12 00:07:37.000   39.714907670 -105.115229342  1693.1299   2  14   0.0261   0.0556   0.0453   0.0203  -0.0220  -0.0176   0.00    2.4
2019/06/12 00:07:38.000   39.714907650 -105.115229368  1693.1254   2  14   0.0265   0.0557   0.0460   0.0203  -0.0220  -0.0179  -4.00    2.4
2019/06/12 00:07:39.000   39.714907638 -105.115229401  1693.1279   2  14   0.0265   0.0557   0.0458   0.0203  -0.0219  -0.0178  -3.00    2.4
2019/06/12 00:07:40.000   39.714907663 -105.115229437  1693.1226   2  14   0.0266   0.0557   0.0459   0.0203  -0.0219  -0.0179  -2.00    2.5
2019/06/12 00:07:41.000   39.714907654 -105.115229472  1693.1203   2  14   0.0268   0.0558   0.0462   0.0202  -0.0219  -0.0180  -1.00    2.5
2019/06/12 00:07:42.000   39.714907650 -105.115229484  1693.1223   2  14   0.0267   0.0558   0.0457   0.0202  -0.0218  -0.0178   0.00    2.4
2019/06/12 00:07:43.000   39.714907623 -105.115229511  1693.1209   2  14   0.0270   0.0559   0.0464   0.0202  -0.0218  -0.0181  -4.00    2.4
2019/06/12 00:07:44.000   39.714907623 -105.115229524  1693.1187   2  14   0.0270   0.0559   0.0462   0.0202  -0.0218  -0.0180  -3.00    2.4
2019/06/12 00:07:45.000   39.714907611 -105.115229468  1693.1156   2  14   0.0271   0.0560   0.0463   0.0202  -0.0217  -0.0180  -2.00    2.4
2019/06/12 00:07:46.000   39.714907611 -105.115229494  1693.1140   2  14   0.0273   0.0560   0.0466   0.0202  -0.0217  -0.0181  -1.00    2.4
2019/06/12 00:07:47.000   39.714907589 -105.115229501  1693.1104   2  14   0.0273   0.0561   0.0461   0.0201  -0.0217  -0.0179   0.00    2.4
2019/06/12 00:07:48.000   39.714907602 -105.115229499  1693.1062   2  14   0.0276   0.0561   0.0467   0.0201  -0.0216  -0.0182  -4.00    2.4
2019/06/12 00:07:49.000   39.714907562 -105.115229528  1693.1089   2  14   0.0276   0.0562   0.0466   0.0201  -0.0216  -0.0181  -3.00    2.4
2019/06/12 00:07:50.000   39.714907554 -105.115229538  1693.1074   2  14   0.0277   0.0562   0.0467   0.0201  -0.0216  -0.0181  -2.00    2.3
2019/06/12 00:07:51.000   39.714907521 -105.115229585  1693.1068   2  14   0.0279   0.0563   0.0470   0.0201  -0.0215  -0.0182  -1.00    2.3
2019/06/12 00:07:52.000   39.714907528 -105.115229578  1693.1026   2  14   0.0278   0.0563   0.0466   0.0200  -0.0215  -0.0180   0.00    2.3
2019/06/12 00:07:53.000   39.714907542 -105.115229592  1693.1009   2  14   0.0281   0.0564   0.0474   0.0200  -0.0215  -0.0184  -4.00    2.3
2019/06/12 00:07:54.000   39.714907518 -105.115229589  1693.1043   2  14   0.0282   0.0564   0.0473   0.0200  -0.0215  -0.0183  -3.00    2.3
2019/06/12 00:07:55.000   39.714907523 -105.115229596  1693.1064   2  14   0.0283   0.0564   0.0474   0.0200  -0.0215  -0.0184  -2.00    2.3
2019/06/12 00:07:56.000   39.714907526 -105.115229631  1693.0999   2  14   0.0285   0.0565   0.0478   0.0200  -0.0214  -0.0186  -1.00    2.3
2019/06/12 00:07:57.000   39.714907536 -105.115229627  1693.0960   2  14   0.0284   0.0565   0.0474   0.0199  -0.0214  -0.0184   0.00    2.3
2019/06/12 00:07:58.000   39.714907506 -105.115229628  1693.0924   2  14   0.0287   0.0566   0.0481   0.0199  -0.0214  -0.0187  -4.00    2.3
2019/06/12 00:07:59.000   39.714907485 -105.115229654  1693.0885   2  14   0.0288   0.0566   0.0481   0.0199  -0.0213  -0.0187  -3.00    2.3
2019/06/12 00:08:00.000   39.714907488 -105.115229681  1693.0834   2  14   0.0289   0.0567   0.0482   0.0199  -0.0213  -0.0188  -2.00    2.3
2019/06/12 00:08:01.000   39.714907495 -105.115229740  1693.0763   2  15   0.0291   0.0567   0.0485   0.0199  -0.0213  -0.0188  -1.00    2.3
2019/06/12 00:08:02.000   39.714907477 -105.115229740  1693.0774   2  15   0.0292   0.0567   0.0484   0.0198  -0.0211  -0.0191   0.00    2.2
2019/06/12 00:08:03.000   39.714907439 -105.115229747  1693.0768   2  14   0.0293   0.0568   0.0487   0.0198  -0.0212  -0.0189  -4.00    2.3
2019/06/12 00:08:04.000   39.714907444 -105.115229763  1693.0737   2  14   0.0294   0.0568   0.0488   0.0198  -0.0212  -0.0191  -3.00    2.3
2019/06/12 00:08:05.000   39.714907452 -105.115229775  1693.0686   2  14   0.0296   0.0569   0.0492   0.0197  -0.0210  -0.0195  -2.00    2.3
2019/06/12 00:08:06.000   39.714907424 -105.115229816  1693.0640   2  14   0.0296   0.0569   0.0489   0.0198  -0.0214  -0.0189  -1.00    2.2
2019/06/12 00:08:07.000   39.714907431 -105.115229819  1693.0557   2  14   0.0296   0.0569   0.0485   0.0198  -0.0213  -0.0188   0.00    2.2
2019/06/12 00:08:08.000   39.714907449 -105.115229849  1693.0487   2  14   0.0299   0.0570   0.0492   0.0198  -0.0213  -0.0191  -4.00    2.2
2019/06/12 00:08:09.000   39.714907441 -105.115229885  1693.0441   2  14   0.0300   0.0570   0.0493   0.0197  -0.0212  -0.0193  -3.00    2.2
2019/06/12 00:08:10.000   39.714907435 -105.115229913  1693.0379   2  14   0.0300   0.0571   0.0492   0.0197  -0.0213  -0.0190  -2.00    2.2
2019/06/12 00:08:11.000   39.714907455 -105.115229963  1693.0360   2  14   0.0302   0.0571   0.0495   0.0197  -0.0213  -0.0192  -1.00    2.2
2019/06/12 00:08:12.000   39.714907463 -105.115229980  1693.0278   2  14   0.0302   0.0571   0.0492   0.0197  -0.0212  -0.0191   0.00    2.2
2019/06/12 00:08:13.000   39.714907452 -105.115230030  1693.0269   2  14   0.0305   0.0572   0.0498   0.0196  -0.0212  -0.0194  -4.00    2.2
2019/06/12 00:08:14.000   39.714907414 -105.115230032  1693.0297   2  14   0.0307   0.0572   0.0499   0.0196  -0.0211  -0.0196  -3.00    2.2
2019/06/12 00:08:15.000   39.714907378 -105.115230041  1693.0323   2  14   0.0306   0.0572   0.0498   0.0196  -0.0212  -0.0193  -2.00    2.2
2019/06/12 00:08:16.000   39.714907348 -105.115230044  1693.0325   2  14   0.0308   0.0573   0.0501   0.0196  -0.0212  -0.0195  -1.00    2.2
2019/06/12 00:08:17.000   39.714907341 -105.115230073  1693.0309   2  14   0.0308   0.0573   0.0498   0.0195  -0.0211  -0.0194   0.00    2.2
2019/06/12 00:08:18.000   39.714907312 -105.115230095  1693.0287   2  14   0.0311   0.0574   0.0504   0.0195  -0.0211  -0.0197  -4.00    2.1
2019/06/12 00:08:19.000   39.714907283 -105.115230104  1693.0339   2  14   0.0313   0.0574   0.0505   0.0195  -0.0210  -0.0199  -3.00    2.1
2019/06/12 00:08:20.000   39.714907253 -105.115230127  1693.0354   2  13   0.0313   0.0574   0.0504   0.0195  -0.0210  -0.0197  -2.00    2.7
2019/06/12 00:08:21.000   39.714907248 -105.115230113  1693.0310   2  13   0.0315   0.0575   0.0507   0.0194  -0.0210  -0.0198  -1.00    2.7
2019/06/12 00:08:22.000   39.714907223 -105.115230110  1693.0315   2  13   0.0315   0.0575   0.0503   0.0194  -0.0210  -0.0198   0.00    2.7
2019/06/12 00:08:23.000   39.714907204 -105.115230126  1693.0274   2  13   0.0317   0.0575   0.0509   0.0194  -0.0210  -0.0200  -4.00    2.7
2019/06/12 00:08:24.000   39.714907204 -105.115230170  1693.0278   2  13   0.0318   0.0576   0.0508   0.0194  -0.0209  -0.0200  -3.00    2.7
2019/06/12 00:08:25.000   39.714907214 -105.115230178  1693.0244   2  13   0.0319   0.0576   0.0509   0.0193  -0.0209  -0.0201  -2.00    2.7
2019/06/12 00:08:26.000   39.714907190 -105.115230212  1693.0224   2  13   0.0321   0.0576   0.0511   0.0193  -0.0209  -0.0202  -1.00    2.6
2019/06/12 00:08:27.000   39.714907166 -105.115230214  1693.0223   2  13   0.0321   0.0576   0.0508   0.0193  -0.0209  -0.0201   0.00    2.6
2019/06/12 00:08:28.000   39.714907131 -105.115230223  1693.0185   2  13   0.0323   0.0577   0.0513   0.0193  -0.0209  -0.0203  -4.00    2.6
2019/06/12 00:08:29.000   39.714907103 -105.115230246  1693.0205   2  13   0.0324   0.0577   0.0512   0.0192  -0.0209  -0.0203  -3.00    2.6
2019/06/12 00:08:30.000   39.714907087 -105.115230254  1693.0207   2  13   0.0325   0.0577   0.0513   0.0192  -0.0209  -0.0204  -2.00    2.6
2019/06/12 00:08:31.000   39.714907074 -105.115230249  1693.0260   2  13   0.0327   0.0578   0.0516   0.0192  -0.0209  -0.0205  -1.00    2.6
2019/06/12 00:08:32.000   39.714907072 -105.115230261  1693.0229   2  13   0.0327   0.0578   0.0512   0.0192  -0.0208  -0.0204   0.00    2.6
2019/06/12 00:08:33.000   39.714907055 -105.115230245  1693.0198   2  13   0.0329   0.0578   0.0517   0.0192  -0.0208  -0.0207  -4.00    2.5
2019/06/12 00:08:34.000   39.714907044 -105.115230295  1693.0198   2  13   0.0331   0.0579   0.0516   0.0192  -0.0208  -0.0208  -3.00    2.5
2019/06/12 00:08:35.000   39.714907031 -105.115230314  1693.0085   2  13   0.0331   0.0579   0.0517   0.0191  -0.0207  -0.0208  -2.00    2.6
2019/06/12 00:08:36.000   39.714907004 -105.115230299  1693.0072   2  13   0.0334   0.0579   0.0521   0.0191  -0.0207  -0.0211  -1.00    2.6
2019/06/12 00:08:37.000   39.714906962 -105.115230310  1693.0037   2  13   0.0332   0.0579   0.0517   0.0190  -0.0206  -0.0207   0.00    2.5
2019/06/12 00:08:38.000   39.714906927 -105.115230316  1693.0013   2  14   0.0334   0.0580   0.0522   0.0190  -0.0206  -0.0208  -4.00    2.5
2019/06/12 00:08:39.000   39.714906906 -105.115230326  1692.9940   2  14   0.0335   0.0580   0.0522   0.0189  -0.0205  -0.0209  -3.00    2.5
2019/06/12 00:08:40.000   39.714906819 -105.115230433  1693.0028   2  14   0.0334   0.0580   0.0519   0.0188  -0.0204  -0.0204  -2.00    2.5
2019/06/12 00:08:41.000   39.714906807 -105.115230382  1692.9966   2  14   0.0335   0.0581   0.0522   0.0189  -0.0204  -0.0205  -1.00    2.5
2019/06/12 00:08:42.000   39.714906800 -105.115230341  1692.9884   2  14   0.0335   0.0581   0.0520   0.0189  -0.0205  -0.0205   0.00    2.5
2019/06/12 00:08:43.000   39.714906785 -105.115230331  1692.9838   2  14   0.0338   0.0582   0.0525   0.0189  -0.0205  -0.0207  -4.00    2.5
2019/06/12 00:08:44.000   39.714906773 -105.115230271  1692.9784   2  14   0.0338   0.0582   0.0525   0.0190  -0.0205  -0.0208  -3.00    2.5
2019/06/12 00:08:45.000   39.714906791 -105.115230251  1692.9697   2  14   0.0340   0.0583   0.0526   0.0190  -0.0206  -0.0209  -2.00    2.5
2019/06/12 00:08:46.000   39.714906818 -105.115230213  1692.9661   2  14   0.0341   0.0584   0.0529   0.0191  -0.0206  -0.0211  -1.00    2.5
2019/06/12 00:08:47.000   39.714906862 -105.115230160  1692.9562   2  14   0.0342   0.0584   0.0527   0.0191  -0.0207  -0.0211   0.00    2.4
2019/06/12 00:08:48.000   39.714906903 -105.115230171  1692.9472   2  14   0.0343   0.0584   0.0531   0.0192  -0.0206  -0.0213  -4.00    2.6
2019/06/12 00:08:49.000   39.714906936 -105.115230128  1692.9359   2  14   0.0344   0.0585   0.0531   0.0192  -0.0207  -0.0214  -3.00    2.6
2019/06/12 00:08:50.000   39.714906955 -105.115230042  1692.9273   2  14   0.0346   0.0585   0.0533   0.0193  -0.0208  -0.0215  -2.00    2.6
2019/06/12 00:08:51.000   39.714907040 -105.115230001  1692.9042   2  14   0.0346   0.0586   0.0536   0.0192  -0.0208  -0.0215  -1.00    2.6
2019/06/12 00:08:52.000   39.714907068 -105.115229975  1692.8910   2  14   0.0346   0.0586   0.0535   0.0192  -0.0209  -0.0215   0.00    2.6
2019/06/12 00:08:53.000   39.714907076 -105.115229956  1692.8817   2  14   0.0348   0.0587   0.0540   0.0193  -0.0210  -0.0216  -4.00    2.5
2019/06/12 00:08:54.000   39.714907084 -105.115229940  1692.8675   2  15   0.0349   0.0587   0.0540   0.0193  -0.0211  -0.0216  -3.00    2.5
2019/06/12 00:08:55.000   39.714907103 -105.115229919  1692.8549   2  15   0.0350   0.0587   0.0542   0.0193  -0.0212  -0.0217  -2.00    2.5
2019/06/12 00:08:56.000   39.714907130 -105.115229903  1692.8420   2  15   0.0351   0.0588   0.0544   0.0193  -0.0213  -0.0218  -1.00    2.5
2019/06/12 00:08:57.000   39.714907167 -105.115229869  1692.8296   2  15   0.0351   0.0588   0.0543   0.0194  -0.0213  -0.0218   0.00    2.5
2019/06/12 00:08:58.000   39.714907193 -105.115229828  1692.8228   2  15   0.0353   0.0589   0.0548   0.0194  -0.0214  -0.0219  -4.00    2.4
2019/06/12 00:08:59.000   39.714907220 -105.115229846  1692.8151   2  15   0.0353   0.0589   0.0548   0.0194  -0.0215  -0.0220  -3.00    2.4
2019/06/12 00:09:00.000   39.714907250 -105.115229838  1692.8098   2  15   0.0354   0.0590   0.0550   0.0195  -0.0216  -0.0220  -2.00    2.4
2019/06/12 00:09:01.000   39.714907287 -105.115229812  1692.7969   2  15   0.0355   0.0590   0.0553   0.0195  -0.0217  -0.0221  -1.00    2.4
2019/06/12 00:09:02.000   39.714907315 -105.115229833  1692.7841   2  15   0.0355   0.0590   0.0552   0.0195  -0.0218  -0.0221   0.00    2.4
2019/06/12 00:09:03.000   39.714907324 -105.115229748  1692.7767   2  15   0.0357   0.0591   0.0556   0.0196  -0.0219  -0.0222  -4.00    2.4
2019/06/12 00:09:04.000   39.714907375 -105.115229725  1692.7636   2  15   0.0357   0.0591   0.0556   0.0196  -0.0220  -0.0222  -3.00    2.4
2019/06/12 00:09:05.000   39.714907421 -105.115229697  1692.7463   2  15   0.0358   0.0592   0.0558   0.0196  -0.0221  -0.0223  -2.00    2.4
2019/06/12 00:09:06.000   39.714907428 -105.115229688  1692.7341   2  15   0.0358   0.0592   0.0559   0.0196  -0.0220  -0.0223  -1.00    2.4
2019/06/12 00:09:07.000   39.714907403 -105.115229656  1692.7215   2  15   0.0358   0.0592   0.0559   0.0196  -0.0221  -0.0222   0.00    2.4
2019/06/12 00:09:08.000   39.714907447 -105.115229644  1692.7074   2  15   0.0359   0.0593   0.0563   0.0197  -0.0222  -0.0224  -4.00    2.9
2019/06/12 00:09:09.000   39.714907428 -105.115229630  1692.7033   2  15   0.0359   0.0593   0.0564   0.0197  -0.0223  -0.0224  -3.00    2.9
2019/06/12 00:09:10.000   39.714907453 -105.115229605  1692.6902   2  15   0.0360   0.0593   0.0566   0.0197  -0.0224  -0.0224  -2.00    2.9
2019/06/12 00:09:11.000   39.714907476 -105.115229611  1692.6802   2  15   0.0361   0.0594   0.0568   0.0197  -0.0225  -0.0225  -1.00    2.9
2019/06/12 00:09:12.000   39.714907476 -105.115229580  1692.6742   2  15   0.0360   0.0594   0.0568   0.0198  -0.0225  -0.0224   0.00    2.9
2019/06/12 00:09:13.000   39.714907499 -105.115229548  1692.6630   2  15   0.0361   0.0595   0.0572   0.0198  -0.0226  -0.0225  -4.00    2.9
2019/06/12 00:09:14.000   39.714907482 -105.115229533  1692.6608   2  15   0.0361   0.0595   0.0572   0.0198  -0.0227  -0.0225  -3.00    2.9
2019/06/12 00:09:15.000   39.714907491 -105.115229483  1692.6556   2  15   0.0361   0.0595   0.0574   0.0198  -0.0228  -0.0226  -2.00    2.9
2019/06/12 00:09:16.000   39.714907499 -105.115229467  1692.6518   2  14   0.0362   0.0595   0.0576   0.0199  -0.0229  -0.0226  -1.00    2.8
2019/06/12 00:09:17.000   39.714907527 -105.115229472  1692.6401   2  15   0.0361   0.0595   0.0575   0.0199  -0.0229  -0.0225   0.00    2.8
2019/06/12 00:09:18.000   39.714907557 -105.115229464  1692.6386   2  15   0.0362   0.0596   0.0579   0.0199  -0.0230  -0.0226  -4.00    2.8
2019/06/12 00:09:19.000   39.714907592 -105.115229474  1692.6306   2  15   0.0362   0.0596   0.0579   0.0199  -0.0231  -0.0226  -3.00    2.7
2019/06/12 00:09:20.000   39.714907619 -105.115229468  1692.6230   2  15   0.0362   0.0596   0.0581   0.0200  -0.0232  -0.0226  -2.00    2.7
2019/06/12 00:09:21.000   39.714907629 -105.115229453  1692.6163   2  15   0.0363   0.0597   0.0583   0.0200  -0.0233  -0.0226  -1.00    2.7
2019/06/12 00:09:22.000   39.714907604 -105.115229439  1692.6111   2  15   0.0362   0.0597   0.0582   0.0200  -0.0233  -0.0226   0.00    2.7
2019/06/12 00:09:23.000   39.714907587 -105.115229437  1692.6134   2  15   0.0363   0.0597   0.0585   0.0201  -0.0235  -0.0227  -4.00    2.7
2019/06/12 00:09:24.000   39.714907580 -105.115229432  1692.6074   2  15   0.0362   0.0597   0.0585   0.0201  -0.0235  -0.0226  -3.00    2.7
2019/06/12 00:09:25.000   39.714907582 -105.115229416  1692.6024   2  15   0.0362   0.0598   0.0586   0.0201  -0.0236  -0.0226  -2.00    2.7
2019/06/12 00:09:26.000   39.714907579 -105.115229383  1692.5993   2  15   0.0363   0.0598   0.0588   0.0202  -0.0237  -0.0227  -1.00    2.7
2019/06/12 00:09:27.000   39.714907576 -105.115229396  1692.5997   2  15   0.0361   0.0598   0.0587   0.0202  -0.0237  -0.0226   0.00    2.7
2019/06/12 00:09:28.000   39.714907599 -105.115229376  1692.5978   2  15   0.0362   0.0598   0.0590   0.0203  -0.0238  -0.0227  -4.00    2.7
2019/06/12 00:09:29.000   39.714907606 -105.115229367  1692.5926   2  15   0.0362   0.0598   0.0590   0.0203  -0.0239  -0.0226  -3.00    2.6
2019/06/12 00:09:30.000   39.714907630 -105.115229354  1692.5891   2  15   0.0361   0.0599   0.0591   0.0203  -0.0240  -0.0226  -2.00    2.6
2019/06/12 00:09:31.000   39.714907646 -105.115229356  1692.5854   2  15   0.0361   0.0599   0.0592   0.0203  -0.0241  -0.0226  -1.00    2.6
2019/06/12 00:09:32.000   39.714907652 -105.115229326  1692.5828   2  15   0.0360   0.0599   0.0591   0.0204  -0.0241  -0.0225   0.00    2.6
2019/06/12 00:09:33.000   39.714907672 -105.115229301  1692.5794   2  15   0.0361   0.0599   0.0593   0.0204  -0.0242  -0.0226  -4.00    2.6
2019/06/12 00:09:34.000   39.714907615 -105.115229253  1692.5880   2  15   0.0360   0.0599   0.0593   0.0204  -0.0243  -0.0225  -3.00    2.6
2019/06/12 00:09:35.000   39.714907585 -105.115229197  1692.5856   2  15   0.0359   0.0599   0.0593   0.0205  -0.0243  -0.0225  -2.00    2.6
2019/06/12 00:09:36.000   39.714907571 -105.115229123  1692.5874   2  15   0.0359   0.0599   0.0595   0.0205  -0.0244  -0.0225  -1.00    2.6
2019/06/12 00:09:37.000   39.714907496 -105.115229102  1692.5916   2  15   0.0357   0.0599   0.0593   0.0205  -0.0244  -0.0224   0.00    2.6
2019/06/12 00:09:38.000   39.714907496 -105.115229088  1692.5900   2  15   0.0358   0.0600   0.0595   0.0206  -0.0245  -0.0225  -4.00    2.6
2019/06/12 00:09:39.000   39.714907483 -105.115229089  1692.5856   2  15   0.0357   0.0600   0.0595   0.0206  -0.0246  -0.0224  -3.00    2.6
2019/06/12 00:09:40.000   39.714907455 -105.115229069  1692.5887   2  15   0.0356   0.0600   0.0595   0.0206  -0.0246  -0.0224  -2.00    2.5
2019/06/12 00:09:41.000   39.714907436 -105.115229048  1692.5879   2  15   0.0356   0.0600   0.0596   0.0206  -0.0247  -0.0224  -1.00    2.5
2019/06/12 00:09:42.000   39.714907412 -105.115229043  1692.5935   2  15   0.0354   0.0600   0.0593   0.0206  -0.0247  -0.0222   0.00    2.5
2019/06/12 00:09:43.000   39.714907419 -105.115229038  1692.5939   2  15   0.0355   0.0600   0.0596   0.0207  -0.0248  -0.0223  -4.00    2.5
2019/06/12 00:09:44.000   39.714907440 -105.115229042  1692.5898   2  15   0.0353   0.0600   0.0595   0.0207  -0.0249  -0.0222  -3.00    2.5
2019/06/12 00:09:45.000   39.714907401 -105.115229068  1692.5932   2  15   0.0353   0.0600   0.0594   0.0207  -0.0249  -0.0222  -2.00    2.5
2019/06/12 00:09:46.000   39.714907388 -105.115229071  1692.5957   2  15   0.0352   0.0600   0.0595   0.0207  -0.0250  -0.0222  -1.00    2.5
2019/06/12 00:09:47.000   39.714907370 -105.115229108  1692.5986   2  15   0.0350   0.0599   0.0592   0.0207  -0.0250  -0.0220   0.00    2.5
2019/06/12 00:09:48.000   39.714907389 -105.115229123  1692.5993   2  15   0.0350   0.0600   0.0594   0.0208  -0.0251  -0.0221  -4.00    2.5
2019/06/12 00:09:49.000   39.714907411 -105.115229170  1692.6004   2  15   0.0349   0.0600   0.0593   0.0208  -0.0251  -0.0220  -3.00    2.5
2019/06/12 00:09:50.000   39.714907441 -105.115229183  1692.6059   2  15   0.0348   0.0599   0.0592   0.0208  -0.0251  -0.0220  -2.00    2.5
2019/06/12 00:09:51.000   39.714907468 -105.115229205  1692.6041   2  15   0.0348   0.0600   0.0593   0.0208  -0.0252  -0.0220  -1.00    2.5
2019/06/12 00:09:52.000   39.714907468 -105.115229232  1692.6113   2  15   0.0345   0.0599   0.0590   0.0208  -0.0252  -0.0217   0.00    2.5
2019/06/12 00:09:53.000   39.714907470 -105.115229178  1692.6124   2  15   0.0345   0.0599   0.0591   0.0209  -0.0253  -0.0219  -4.00    2.5
2019/06/12 00:09:54.000   39.714907513 -105.115229200  1692.6148   2  15   0.0344   0.0599   0.0590   0.0209  -0.0253  -0.0217  -3.00    2.4
2019/06/12 00:09:55.000   39.714907517 -105.115229197  1692.6209   2  15   0.0343   0.0599   0.0589   0.0209  -0.0253  -0.0217  -2.00    2.4
2019/06/12 00:09:56.000   39.714907555 -105.115229187  1692.6210   2  15   0.0342   0.0599   0.0589   0.0209  -0.0254  -0.0217  -1.00    2.4
2019/06/12 00:09:57.000   39.714907542 -105.115229233  1692.6286   2  15   0.0340   0.0598   0.0586   0.0209  -0.0253  -0.0215   0.00    2.4
2019/06/12 00:09:58.000   39.714907554 -105.115229210  1692.6268   2  15   0.0340   0.0599   0.0587   0.0210  -0.0254  -0.0216  -4.00    2.4
2019/06/12 00:09:59.000   39.714907519 -105.115229216  1692.6376   2  15   0.0338   0.0598   0.0585   0.0210  -0.0254  -0.0214  -3.00    2.4
2019/06/12 00:10:00.000   39.714907518 -105.115229230  1692.6357   2  15   0.0337   0.0598   0.0584   0.0210  -0.0254  -0.0214  -2.00    2.4
2019/06/12 00:10:01.000   39.714907516 -105.115229252  1692.6378   2  15   0.0337   0.0598   0.0584   0.0210  -0.0255  -0.0214  -1.00    2.4
2019/06/12 00:10:02.000   39.714907466 -105.115229309  1692.6493   2  15   0.0334   0.0598   0.0580   0.0210  -0.0254  -0.0211   0.00    2.4
2019/06/12 00:10:03.000   39.714907459 -105.115229303  1692.6542   2  15   0.0334   0.0598   0.0582   0.0210  -0.0255  -0.0213  -4.00    2.4
2019/06/12 00:10:04.000   39.714907394 -105.115229316  1692.6661   2  15   0.0333   0.0597   0.0579   0.0211  -0.0255  -0.0211  -3.00    2.6
2019/06/12 00:10:05.000   39.714907404 -105.115229324  1692.6709   2  15   0.0332   0.0597   0.0578   0.0211  -0.0255  -0.0210  -2.00    2.6
2019/06/12 00:10:06.000   39.714907414 -105.115229391  1692.6760   2  15   0.0331   0.0597   0.0578   0.0211  -0.0255  -0.0210  -1.00    2.6
2019/06/12 00:10:07.000   39.714907346 -105.115229467  1692.6942   2  15   0.0328   0.0597   0.0574   0.0211  -0.0254  -0.0206   0.00    2.6
2019/06/12 00:10:08.000   39.714907338 -105.115229491  1692.6826   2  15   0.0328   0.0597   0.0577   0.0211  -0.0255  -0.0208  -4.00    2.6
2019/06/12 00:10:09.000   39.714907297 -105.115229523  1692.6967   2  15   0.0326   0.0596   0.0575   0.0211  -0.0254  -0.0206  -3.00    2.6
2019/06/12 00:10:10.000   39.714907270 -105.115229542  1692.7003   2  15   0.0325   0.0596   0.0575   0.0211  -0.0254  -0.0206  -2.00    2.5
2019/06/12 00:10:11.000   39.714907236 -105.115229544  1692.7060   2  15   0.0324   0.0596   0.0576   0.0211  -0.0254  -0.0206  -1.00    2.5
2019/06/12 00:10:12.000   39.714907180 -105.115229582  1692.7230   2  15   0.0321   0.0595   0.0573   0.0210  -0.0253  -0.0203   0.00    2.5
2019/06/12 00:10:13.000   39.714907205 -105.115229578  1692.7124   2  15   0.0321   0.0595   0.0575   0.0211  -0.0253  -0.0204  -4.00    2.5
2019/06/12 00:10:14.000   39.714907159 -105.115229596  1692.7205   2  15   0.0319   0.0595   0.0573   0.0211  -0.0253  -0.0203  -3.00    2.5
2019/06/12 00:10:15.000   39.714907120 -105.115229595  1692.7267   2  15   0.0318   0.0594   0.0573   0.0211  -0.0252  -0.0202  -2.00    2.5
2019/06/12 00:10:16.000   39.714907185 -105.115229613  1692.7211   2  15   0.0317   0.0594   0.0573   0.0211  -0.0253  -0.0202  -1.00    2.5
2019/06/12 00:10:17.000   39.714907168 -105.115229620  1692.7335   2  15   0.0314   0.0593   0.0569   0.0210  -0.0251  -0.0199   0.00    2.5
2019/06/12 00:10:18.000   39.714907177 -105.115229656  1692.7298   2  15   0.0314   0.0593   0.0572   0.0211  -0.0252  -0.0201  -4.00    2.5
2019/06/12 00:10:19.000   39.714907196 -105.115229649  1692.7343   2  15   0.0312   0.0593   0.0569   0.0210  -0.0251  -0.0199  -3.00    2.5
2019/06/12 00:10:20.000   39.714907223 -105.115229697  1692.7391   2  15   0.0311   0.0592   0.0569   0.0210  -0.0251  -0.0199  -2.00    2.5
2019/06/12 00:10:21.000   39.714907214 -105.115229722  1692.7416   2  15   0.0310   0.0592   0.0569   0.0211  -0.0251  -0.0199  -1.00    2.5
2019/06/12 00:10:22.000   39.714907201 -105.115229723  1692.7559   2  15   0.0307   0.0591   0.0565   0.0210  -0.0249  -0.0195   0.00    2.5
2019/06/12 00:10:23.000   39.714907180 -105.115229722  1692.7555   2  15   0.0307   0.0591   0.0567   0.0210  -0.0250  -0.0197  -4.00    2.4
2019/06/12 00:10:24.000   39.714907160 -105.115229726  1692.7626   2  15   0.0305   0.0591   0.0564   0.0210  -0.0249  -0.0196  -3.00    2.4
2019/06/12 00:10:25.000   39.714907136 -105.115229754  1692.7669   2  15   0.0304   0.0590   0.0563   0.0210  -0.0249  -0.0195  -2.00    2.4
2019/06/12 00:10:26.000   39.714907119 -105.115229736  1692.7756   2  15   0.0303   0.0590   0.0563   0.0210  -0.0249  -0.0195  -1.00    2.4
2019/06/12 00:10:27.000   39.714907095 -105.115229765  1692.7966   2  15   0.0300   0.0589   0.0558   0.0209  -0.0247  -0.0192   0.00    2.4
2019/06/12 00:10:28.000   39.714907098 -105.115229753  1692.7966   2  15   0.0300   0.0589   0.0560   0.0210  -0.0248  -0.0194  -4.00    2.4
2019/06/12 00:10:29.000   39.714907080 -105.115229760  1692.8089   2  15   0.0298   0.0588   0.0558   0.0210  -0.0247  -0.0192  -3.00    2.4
2019/06/12 00:10:30.000   39.714907075 -105.115229759  1692.8175   2  15   0.0297   0.0588   0.0556   0.0209  -0.0247  -0.0191  -2.00    2.4
2019/06/12 00:10:31.000   39.714907081 -105.115229739  1692.8167   2  15   0.0296   0.0587   0.0556   0.0210  -0.0247  -0.0191  -1.00    2.4
2019/06/12 00:10:32.000   39.714907013 -105.115229783  1692.8405   2  15   0.0293   0.0586   0.0551   0.0209  -0.0245  -0.0188   0.00    2.4
2019/06/12 00:10:33.000   39.714907057 -105.115229787  1692.8369   2  15   0.0293   0.0586   0.0553   0.0209  -0.0246  -0.0190  -4.00    2.4
2019/06/12 00:10:34.000   39.714906990 -105.115229757  1692.8638   2  15   0.0291   0.0586   0.0550   0.0209  -0.0245  -0.0188  -3.00    2.4
2019/06/12 00:10:35.000   39.714907002 -105.115229764  1692.8623   2  15   0.0290   0.0585   0.0548   0.0209  -0.0244  -0.0187  -2.00    2.4
2019/06/12 00:10:36.000   39.714906960 -105.115229753  1692.8674   2  15   0.0289   0.0585   0.0548   0.0209  -0.0244  -0.0188  -1.00    2.4
2019/06/12 00:10:37.000   39.714906941 -105.115229753  1692.8878   2  15   0.0286   0.0584   0.0542   0.0208  -0.0242  -0.0184   0.00    2.3
2019/06/12 00:10:38.000   39.714906974 -105.115229752  1692.8858   2  15   0.0286   0.0583   0.0544   0.0208  -0.0243  -0.0186  -4.00    2.3
2019/06/12 00:10:39.000   39.714906967 -105.115229758  1692.8942   2  15   0.0284   0.0583   0.0541   0.0208  -0.0242  -0.0184  -3.00    2.3
2019/06/12 00:10:40.000   39.714906953 -105.115229796  1692.9056   2  15   0.0283   0.0582   0.0539   0.0208  -0.0242  -0.0183  -2.00    2.3
2019/06/12 00:10:41.000   39.714906923 -105.115229838  1692.9099   2  15   0.0282   0.0582   0.0539   0.0208  -0.0242  -0.0184  -1.00    2.3
2019/06/12 00:10:42.000   39.714906915 -105.115229900  1692.9295   2  15   0.0279   0.0581   0.0533   0.0207  -0.0240  -0.0180   0.00    2.3
2019/06/12 00:10:43.000   39.714906946 -105.115229859  1692.9319   2  15   0.0279   0.0580   0.0535   0.0208  -0.0241  -0.0182  -4.00    2.3
2019/06/12 00:10:44.000   39.714906940 -105.115229919  1692.9459   2  15   0.0277   0.0580   0.0531   0.0207  -0.0239  -0.0180  -3.00    2.3
2019/06/12 00:10:45.000   39.714906951 -105.115229929  1692.9562   2  15   0.0276   0.0579   0.0529   0.0207  -0.0239  -0.0179  -2.00    2.3
2019/06/12 00:10:46.000   39.714906971 -105.115229930  1692.9546   2  15   0.0275   0.0578   0.0529   0.0207  -0.0239  -0.0180  -1.00    2.3
2019/06/12 00:10:47.000   39.714906946 -105.115229951  1692.9846   2  15   0.0272   0.0577   0.0523   0.0206  -0.0237  -0.0176   0.00    2.3
2019/06/12 00:10:48.000   39.714906939 -105.115229933  1692.9788   2  15   0.0272   0.0577   0.0525   0.0206  -0.0238  -0.0178  -4.00    2.3
2019/06/12 00:10:49.000   39.714906914 -105.115229962  1693.0043   2  15   0.0270   0.0576   0.0521   0.0206  -0.0237  -0.0176  -3.00    2.3
2019/06/12 00:10:50.000   39.714906931 -105.115229958  1693.0010   2  15   0.0269   0.0576   0.0519   0.0206  -0.0236  -0.0176  -2.00    2.3
2019/06/12 00:10:51.000   39.714906918 -105.115229963  1693.0020   2  15   0.0269   0.0575   0.0518   0.0206  -0.0236  -0.0176  -1.00    2.3
2019/06/12 00:10:52.000   39.714906914 -105.115229970  1693.0259   2  15   0.0265   0.0574   0.0512   0.0205  -0.0234  -0.0172   0.00    2.3
2019/06/12 00:10:53.000   39.714906908 -105.115229954  1693.0203   2  15   0.0266   0.0574   0.0514   0.0205  -0.0235  -0.0174  -4.00    2.2
2019/06/12 00:10:54.000   39.714906911 -105.115229947  1693.0373   2  15   0.0264   0.0573   0.0510   0.0205  -0.0234  -0.0173  -3.00    2.2
2019/06/12 00:10:55.000   39.714906893 -105.115229926  1693.0468   2  15   0.0263   0.0572   0.0508   0.0205  -0.0233  -0.0172  -2.00    2.2
2019/06/12 00:10:56.000   39.714906917 -105.115229892  1693.0485   2  15   0.0262   0.0571   0.0507   0.0205  -0.0233  -0.0172  -1.00    2.2
2019/06/12 00:10:57.000   39.714906906 -105.115229883  1693.0744   2  15   0.0259   0.0570   0.0501   0.0204  -0.0231  -0.0168   0.00    2.2
2019/06/12 00:10:58.000   39.714906919 -105.115229871  1693.0628   2  15   0.0260   0.0570   0.0503   0.0204  -0.0232  -0.0171  -4.00    2.2
2019/06/12 00:10:59.000   39.714906923 -105.115229873  1693.0764   2  15   0.0258   0.0569   0.0499   0.0204  -0.0231  -0.0169  -3.00    2.2
2019/06/12 00:11:00.000   39.714906898 -105.115229847  1693.0840   2  15   0.0256   0.0568   0.0496   0.0203  -0.0230  -0.0168  -2.00    2.2
2019/06/12 00:11:01.000   39.714906920 -105.115229825  1693.0847   2  15   0.0256   0.0568   0.0496   0.0203  -0.0230  -0.0169  -1.00    2.2
2019/06/12 00:11:02.000   39.714906914 -105.115229856  1693.1050   2  15   0.0253   0.0566   0.0489   0.0202  -0.0228  -0.0165   0.00    2.2
2019/06/12 00:11:03.000   39.714906993 -105.115229827  1693.0878   2  15   0.0255   0.0567   0.0495   0.0201  -0.0228  -0.0172  -4.00    2.3
2019/06/12 00:11:04.000   39.714906987 -105.115229864  1693.1065   2  15   0.0252   0.0566   0.0489   0.0201  -0.0228  -0.0166  -3.00    2.3
2019/06/12 00:11:05.000   39.714906980 -105.115229843  1693.1153   2  15   0.0251   0.0566   0.0486   0.0201  -0.0228  -0.0165  -2.00    2.3
2019/06/12 00:11:06.000   39.714907046 -105.115229803  1693.1032   2  15   0.0252   0.0565   0.0489   0.0201  -0.0228  -0.0171  -1.00    2.3
2019/06/12 00:11:07.000   39.714906978 -105.115229817  1693.1398   2  15   0.0247   0.0564   0.0479   0.0200  -0.0226  -0.0162   0.00    2.3
2019/06/12 00:11:08.000   39.714906997 -105.115229784  1693.1337   2  15   0.0248   0.0564   0.0481   0.0201  -0.0227  -0.0164  -4.00    2.3
2019/06/12 00:11:09.000   39.714906995 -105.115229784  1693.1532   2  15   0.0246   0.0563   0.0477   0.0201  -0.0226  -0.0162  -3.00    2.3
2019/06/12 00:11:10.000   39.714906985 -105.115229758  1693.1626   2  15   0.0245   0.0563   0.0475   0.0201  -0.0226  -0.0162  -2.00    2.3
2019/06/12 00:11:11.000   39.714906993 -105.115229764  1693.1650   2  15   0.0245   0.0562   0.0474   0.0201  -0.0227  -0.0162  -1.00    2.3
2019/06/12 00:11:12.000   39.714906995 -105.115229763  1693.1902   2  15   0.0242   0.0561   0.0467   0.0200  -0.0225  -0.0159   0.00    2.3
2019/06/12 00:11:13.000   39.714907013 -105.115229749  1693.1913   2  15   0.0243   0.0561   0.0470   0.0201  -0.0226  -0.0161  -4.00    2.3
2019/06/12 00:11:14.000   39.714907024 -105.115229719  1693.2090   2  15   0.0241   0.0560   0.0466   0.0200  -0.0226  -0.0160  -3.00    2.2
2019/06/12 00:11:15.000   39.714907026 -105.115229702  1693.2166   2  15   0.0240   0.0560   0.0464   0.0200  -0.0226  -0.0159  -2.00    2.2
2019/06/12 00:11:16.000   39.714907092 -105.115229722  1693.2104   2  15   0.0240   0.0559   0.0464   0.0201  -0.0226  -0.0160  -1.00    2.2
2019/06/12 00:11:17.000   39.714907146 -105.115229737  1693.2321   2  15   0.0239   0.0558   0.0459   0.0199  -0.0224  -0.0160   0.00    2.2
2019/06/12 00:11:18.000   39.714907178 -105.115229654  1693.2117   2  14   0.0240   0.0559   0.0463   0.0199  -0.0224  -0.0164  -4.00    2.2
2019/06/12 00:11:19.000   39.714907480 -105.115230118  1693.4177   2  14   0.0238   0.0558   0.0458   0.0199  -0.0224  -0.0162  -3.00    2.2
2019/06/12 00:11:20.000   39.714911047 -105.115236129  1693.8372   2  14   0.0237   0.0557   0.0456   0.0199  -0.0224  -0.0161  -2.00    2.2
2019/06/12 00:11:21.000   39.714915783 -105.115244820  1693.8550   2  13   0.0238   0.0557   0.0458   0.0199  -0.0223  -0.0164  -1.00    2.2
2019/06/12 00:11:22.000   39.714919713 -105.115253609  1693.8402   2  12   0.0234   0.0556   0.0452   0.0198  -0.0220  -0.0159   0.00    2.2
2019/06/12 00:11:23.000   39.714922014 -105.115256735  1693.8231   2  12   0.0236   0.0556   0.0458   0.0198  -0.0220  -0.0163  -4.00    2.2
2019/06/12 00:11:24.000   39.714921384 -105.115257691  1693.8534   2  14   0.0236   0.0556   0.0459   0.0197  -0.0216  -0.0167  -3.00    2.2
2019/06/12 00:11:25.000   39.714921257 -105.115257471  1693.8604   2  13   0.0234   0.0555   0.0454   0.0197  -0.0217  -0.0163  -2.00    2.2
2019/06/12 00:11:26.000   39.714921627 -105.115257015  1693.8500   2  12   0.0236   0.0555   0.0459   0.0197  -0.0215  -0.0170  -1.00    2.2
2019/06/12 00:11:27.000   39.714921705 -105.115256741  1693.8751   2  12   0.0232   0.0554   0.0448   0.0197  -0.0216  -0.0161   0.00    2.2
2019/06/12 00:11:28.000   39.714921818 -105.115255681  1693.8744   2  14   0.0235   0.0554   0.0456   0.0197  -0.0215  -0.0169  -4.00    2.2
2019/06/12 00:11:29.000   39.714921558 -105.115254953  1693.8903   2  14   0.0232   0.0553   0.0447   0.0198  -0.0217  -0.0162  -3.00    2.2
2019/06/12 00:11:30.000   39.714921076 -105.115254077  1693.9198   2  15   0.0230   0.0553   0.0444   0.0199  -0.0220  -0.0159  -2.00    2.2
2019/06/12 00:11:31.000   39.714921039 -105.115253467  1693.9266   2  15   0.0230   0.0552   0.0443   0.0200  -0.0221  -0.0158  -1.00    2.2
2019/06/12 00:11:32.000   39.714920575 -105.115253893  1693.9233   2  15   0.0226   0.0551   0.0433   0.0199  -0.0220  -0.0151   0.00    2.3
2019/06/12 00:11:33.000   39.714920104 -105.115253669  1693.9130   2  15   0.0230   0.0551   0.0440   0.0199  -0.0222  -0.0156  -4.00    2.6
2019/06/12 00:11:34.000   39.714920255 -105.115254054  1693.9157   2  15   0.0227   0.0551   0.0433   0.0200  -0.0220  -0.0153  -3.00    2.6
2019/06/12 00:11:35.000   39.714920152 -105.115254315  1693.8901   2  15   0.0226   0.0550   0.0433   0.0200  -0.0220  -0.0149  -2.00    2.6
2019/06/12 00:11:36.000   39.714920770 -105.115253974  1693.8673   2  14   0.0226   0.0550   0.0435   0.0200  -0.0221  -0.0149  -1.00    2.6
2019/06/12 00:11:37.000   39.714920975 -105.115253601  1693.9009   2  14   0.0222   0.0548   0.0427   0.0200  -0.0219  -0.0146   0.00    2.6
2019/06/12 00:11:38.000   39.714921800 -105.115253005  1693.8576   2  14   0.0224   0.0548   0.0432   0.0200  -0.0221  -0.0148  -4.00    2.6
2019/06/12 00:11:39.000   39.714922029 -105.115251982  1693.8663   2  14   0.0224   0.0548   0.0429   0.0200  -0.0220  -0.0144  -3.00    2.6
2019/06/12 00:11:40.000   39.714798528 -105.115286152  1667.7896   2  14   0.0222   0.0547   0.0429   0.0200  -0.0219  -0.0145  -2.00    2.6
2019/06/12 00:11:41.000   39.714640508 -105.115361894  1630.9042   2  13   0.0222   0.0547   0.0431   0.0200  -0.0219  -0.0146  -1.00    1.6
2019/06/12 00:11:42.000   39.714908620 -105.115244872  1695.0727   2  12   0.0223   0.0547   0.0431   0.0197  -0.0214  -0.0153   0.00    1.6
2019/06/12 00:11:43.000   39.714912217 -105.115246296  1694.7964   2  14   0.0224   0.0547   0.0438   0.0198  -0.0214  -0.0156  -4.00    1.5
2019/06/12 00:11:44.000   39.714915831 -105.115246739  1694.0919   2  13   0.0223   0.0546   0.0433   0.0198  -0.0215  -0.0154  -3.00    1.2
2019/06/12 00:11:45.000   39.714917755 -105.115246944  1694.2901   2  13   0.0222   0.0545   0.0432   0.0198  -0.0216  -0.0153  -2.00    1.3
2019/06/12 00:11:46.000   39.714919199 -105.115247687  1693.8306   2  13   0.0222   0.0545   0.0433   0.0199  -0.0217  -0.0154  -1.00    1.2
2019/06/12 00:11:47.000   39.714919806 -105.115247132  1694.0278   2  13   0.0218   0.0543   0.0422   0.0199  -0.0217  -0.0147   0.00    1.1
2019/06/12 00:11:48.000   39.714920489 -105.115247231  1693.7495   2  15   0.0221   0.0543   0.0430   0.0199  -0.0217  -0.0151  -4.00    1.0
2019/06/12 00:11:49.000   39.714920081 -105.115248651  1693.6103   2  15   0.0219   0.0543   0.0424   0.0199  -0.0218  -0.0146  -3.00    1.0
2019/06/12 00:11:50.000   39.714919925 -105.115249295  1693.2586   2  14   0.0218   0.0543   0.0423   0.0199  -0.0219  -0.0146  -2.00    1.0
2019/06/12 00:11:51.000   39.714919923 -105.115248953  1693.3643   2  13   0.0221   0.0543   0.0432   0.0200  -0.0222  -0.0153  -1.00    1.1
2019/06/12 00:11:52.000   39.714920289 -105.115248600  1693.2876   2  13   0.0216   0.0542   0.0418   0.0199  -0.0220  -0.0141   0.00    1.1
2019/06/12 00:11:53.000   39.714920263 -105.115248515  1693.3528   2  13   0.0218   0.0542   0.0424   0.0200  -0.0223  -0.0144  -4.00    1.0
2019/06/12 00:11:54.000   39.714920333 -105.115248520  1693.2894   2  14   0.0216   0.0541   0.0419   0.0199  -0.0222  -0.0141  -3.00    1.1
2019/06/12 00:11:55.000   39.714920293 -105.115248511  1693.3497   2  14   0.0215   0.0540   0.0416   0.0198  -0.0221  -0.0138  -2.00    1.1
2019/06/12 00:11:56.000   39.714920366 -105.115248460  1693.2996   2  15   0.0216   0.0540   0.0417   0.0198  -0.0221  -0.0138  -1.00    1.0
2019/06/12 00:11:57.000   39.714920393 -105.115248473  1693.3487   2  15   0.0213   0.0539   0.0409   0.0197  -0.0220  -0.0133   0.00    1.0
2019/06/12 00:11:58.000   39.714920378 -105.115248453  1693.3097   2  15   0.0215   0.0539   0.0414   0.0198  -0.0221  -0.0135  -4.00    1.0
2019/06/12 00:11:59.000   39.714920426 -105.115248487  1693.3338   2  14   0.0216   0.0538   0.0416   0.0196  -0.0219  -0.0141  -3.00    1.0
2019/06/12 00:12:00.000   39.714920037 -105.115248004  1693.4121   2  13   0.0226   0.0542   0.0440   0.0185  -0.0196  -0.0171  -2.00    1.0
2019/06/12 00:12:01.000   39.714919869 -105.115248479  1693.3805   2  13   0.0224   0.0543   0.0434   0.0190  -0.0198  -0.0158  -1.00    1.1
2019/06/12 00:12:02.000   39.714920066 -105.115248616  1693.3112   2  11   0.0222   0.0542   0.0430   0.0189  -0.0196  -0.0157   0.00    1.1
2019/06/12 00:12:03.000   39.714920493 -105.115248916  1693.3469   2  11   0.0240   0.0545   0.0556   0.0198  -0.0225  -0.0220  -4.00    1.6
2019/06/12 00:12:04.000   39.714919292 -105.115251380  1693.3979   2  12   0.0237   0.0544   0.0510   0.0196  -0.0219  -0.0202  -3.00    1.2
2019/06/12 00:12:05.000   39.714918869 -105.115251237  1694.0481   2  10   0.0260   0.0553   0.0551   0.0206  -0.0218  -0.0243  -2.00    0.0
2019/06/12 00:12:06.000   39.714919887 -105.115250705  1693.9035   2   9   0.0264   0.0560   0.0566   0.0202  -0.0248  -0.0249  -1.00    0.0
2019/06/12 00:12:07.000   39.714929066 -105.115244202  1691.0139   2   5   0.1400   0.1048   0.4351   0.1118  -0.1968  -0.2447   0.00    0.0
2019/06/12 00:12:18.000   39.714935607 -105.115263854  1695.2149   2   4   1.4605   0.9240   1.9849  -0.8833   1.0214  -1.3506  -4.00    0.0
2019/06/12 00:12:19.000   39.714928210 -105.115262223  1695.7165   2   5   1.4126   0.8737   1.9252  -0.8149   0.9509  -1.2788  -3.00    0.0
2019/06/12 00:12:20.000   39.714926900 -105.115264730  1695.6395   2   5   1.6060   0.8584   1.8628  -0.8417   0.8400  -1.1241  -2.00    0.0
2019/06/12 00:12:21.000   39.714928451 -105.115268894  1695.0302   2   4   1.2278   0.8369   1.9306  -0.6507   0.9523  -1.3058  -1.00    0.0
2019/06/12 00:12:22.000   39.714928751 -105.115267160  1695.2432   2   5   1.2536   0.8228   2.0717  -0.6406   0.9522  -1.4091   0.00    0.0
2019/06/12 00:12:23.000   39.714930054 -105.115268565  1695.1865   2   5   1.2081   0.8266   1.9635  -0.6404   0.9512  -1.3294  -4.00    0.0
2019/06/12 00:12:24.000   39.714936160 -105.115270961  1694.1438   2   4   1.4698   0.9188   2.4141  -0.8403   1.2001  -1.7151  -3.00    0.0
2019/06/12 00:12:25.000   39.714931951 -105.115267614  1695.1305   2   4   1.4118   0.8837   2.1180  -0.5776   0.9724  -1.5137  -2.00    0.0
2019/06/12 00:12:26.000   39.714927175 -105.115270890  1695.8773   2   5   1.3574   0.7098   2.0850  -0.7122   0.8768  -1.5334  -1.00    0.0
2019/06/12 00:12:27.000   39.714927601 -105.115267597  1695.6917   2   6   1.1598   0.6978   1.8724  -0.6569   0.8208  -1.3099   0.00    0.0
2019/06/12 00:12:28.000   39.714928759 -105.115269176  1695.4886   2   7   1.1784   0.6925   1.8387  -0.6783   0.8057  -1.3020  -4.00    0.0
2019/06/12 00:12:29.000   39.714915756 -105.115261273  1696.0527   2   5   1.1238   0.6589   1.7610  -0.6008   0.6963  -1.2129  -3.00    0.0
2019/06/12 00:12:30.000   39.714905588 -105.115254451  1696.2694   2   5   1.1477   0.6691   1.8369  -0.5885   0.6795  -1.2576  -2.00    0.0
2019/06/12 00:12:36.000   39.714909409 -105.115228396  1694.1254   1   4   0.0709   0.0427   0.2039   0.0523   0.0918   0.1160   4.00  124.7
2019/06/12 00:12:37.000   39.714908938 -105.115228699  1694.0099   1   4   0.0420   0.0236   0.1135   0.0279   0.0501   0.0643   0.00  120.0
2019/06/12 00:12:38.000   39.714909059 -105.115228712  1694.0070   1   8   0.0138   0.0068   0.0198   0.0021   0.0052  -0.0108   1.00    5.0
2019/06/12 00:12:39.000   39.714909104 -105.115228703  1694.0084   1   8   0.0130   0.0064   0.0181   0.0016   0.0051  -0.0097   2.00    5.0
2019/06/12 00:12:40.000   39.714909012 -105.115228743  1693.9962   1  10   0.0111   0.0050   0.0140   0.0033   0.0025  -0.0084   3.00    6.1
2019/06/12 00:12:41.000   39.714909130 -105.115228662  1694.0052   1   9   0.0118   0.0052   0.0151   0.0034   0.0012  -0.0094   4.00    5.9
2019/06/12 00:12:42.000   39.714909089 -105.115228662  1694.0033   1  10   0.0074   0.0043   0.0113   0.0012   0.0026  -0.0058   0.00    5.8
2019/06/12 00:12:43.000   39.714909062 -105.115228711  1693.9948   1  11   0.0077   0.0048   0.0140  -0.0016   0.0024  -0.0071   1.00    7.1
2019/06/12 00:12:44.000   39.714909077 -105.115228719  1693.9970   1  12   0.0065   0.0045   0.0129  -0.0011   0.0026  -0.0068   2.00    6.8
2019/06/12 00:12:45.000   39.714909065 -105.115228723  1693.9950   1  12   0.0065   0.0045   0.0129  -0.0011   0.0026  -0.0068   3.00    6.6
2019/06/12 00:12:46.000   39.714909045 -105.115228726  1693.9965   1  13   0.0064   0.0045   0.0133  -0.0014   0.0018  -0.0067   4.00    6.4
2019/06/12 00:12:47.000   39.714909022 -105.115228730  1693.9983   1  14   0.0055   0.0038   0.0106  -0.0016   0.0018  -0.0056   0.00    6.2
2019/06/12 00:12:48.000   39.714909049 -105.115228697  1693.9948   1  14   0.0064   0.0044   0.0130  -0.0013   0.0010  -0.0065   1.00    6.0
2019/06/12 00:12:49.000   39.714909018 -105.115228725  1694.0022   1  14   0.0060   0.0042   0.0121  -0.0014   0.0014  -0.0062   2.00    5.8
2019/06/12 00:12:50.000   39.714908994 -105.115228737  1694.0040   1  14   0.0060   0.0042   0.0121  -0.0014   0.0015  -0.0062   3.00    5.6
2019/06/12 00:12:51.000   39.714909044 -105.115228729  1693.9990   1  14   0.0064   0.0044   0.0130  -0.0013   0.0011  -0.0065   4.00    5.4
2019/06/12 00:12:52.000   39.714909022 -105.115228742  1694.0033   1  14   0.0055   0.0038   0.0106  -0.0016   0.0018  -0.0056   0.00    5.3
2019/06/12 00:12:53.000   39.714909076 -105.115228754  1693.9945   1  14   0.0064   0.0045   0.0131  -0.0014   0.0014  -0.0066   1.00    3.7
2019/06/12 00:12:54.000   39.714909079 -105.115228762  1693.9913   1  14   0.0061   0.0042   0.0121  -0.0015   0.0017  -0.0062   2.00    3.6
2019/06/12 00:12:55.000   39.714909112 -105.115228828  1693.9805   1  14   0.0062   0.0043   0.0124  -0.0018   0.0023  -0.0064   3.00    9.3
2019/06/12 00:12:56.000   39.714909116 -105.115228791  1693.9788   1  14   0.0065   0.0046   0.0133  -0.0017   0.0021  -0.0068   4.00    9.1
2019/06/12 00:12:57.000   39.714909082 -105.115228775  1693.9832   1  14   0.0056   0.0040   0.0110  -0.0019   0.0026  -0.0059   0.00    8.9
2019/06/12 00:12:58.000   39.714909070 -105.115228792  1693.9879   1  14   0.0065   0.0046   0.0134  -0.0018   0.0022  -0.0068   1.00    8.6
2019/06/12 00:12:59.000   39.714909082 -105.115228799  1693.9871   1  14   0.0062   0.0044   0.0125  -0.0019   0.0024  -0.0065   2.00    8.4
2019/06/12 00:13:00.000   39.714909095 -105.115228832  1693.9836   1  14   0.0062   0.0044   0.0125  -0.0019   0.0025  -0.0065   3.00    8.2
2019/06/12 00:13:01.000   39.714909124 -105.115228809  1693.9827   1  14   0.0066   0.0046   0.0134  -0.0018   0.0024  -0.0069   4.00    8.0
2019/06/12 00:13:02.000   39.714909103 -105.115228823  1693.9856   1  14   0.0057   0.0041   0.0111  -0.0021   0.0028  -0.0059   0.00    7.8
2019/06/12 00:13:03.000   39.714909134 -105.115228803  1693.9843   1  14   0.0066   0.0047   0.0135  -0.0019   0.0025  -0.0069   1.00    7.5
2019/06/12 00:13:04.000   39.714909135 -105.115228819  1693.9838   1  14   0.0062   0.0044   0.0126  -0.0020   0.0027  -0.0066   2.00    7.3
2019/06/12 00:13:05.000   39.714909125 -105.115228810  1693.9842   1  14   0.0062   0.0045   0.0126  -0.0021   0.0028  -0.0066   3.00    7.1
2019/06/12 00:13:06.000   39.714909110 -105.115228792  1693.9852   1  14   0.0066   0.0047   0.0136  -0.0020   0.0028  -0.0070   4.00    6.8
2019/06/12 00:13:07.000   39.714909112 -105.115228782  1693.9867   1  14   0.0058   0.0042   0.0114  -0.0023   0.0032  -0.0061   0.00    6.6
2019/06/12 00:13:08.000   39.714909077 -105.115228788  1693.9901   1  14   0.0067   0.0048   0.0138  -0.0022   0.0030  -0.0071   1.00    6.4
2019/06/12 00:13:09.000   39.714909093 -105.115228776  1693.9846   1  14   0.0063   0.0046   0.0129  -0.0023   0.0033  -0.0068   2.00    6.2
2019/06/12 00:13:10.000   39.714909095 -105.115228780  1693.9859   1  14   0.0064   0.0047   0.0131  -0.0024   0.0036  -0.0069   3.00    4.7
2019/06/12 00:13:11.000   39.714909095 -105.115228771  1693.9901   1  14   0.0068   0.0050   0.0142  -0.0025   0.0037  -0.0074   4.00    4.6
2019/06/12 00:13:12.000   39.714909033 -105.115228707  1694.0051   1  14   0.0041   0.0030   0.0080  -0.0015   0.0022  -0.0043   0.00    4.9
2019/06/12 00:13:13.000   39.714909058 -105.115228737  1694.0000   1  14   0.0048   0.0034   0.0098  -0.0015   0.0021  -0.0051  -4.00    4.8
2019/06/12 00:13:14.000   39.714909025 -105.115228731  1694.0050   1  14   0.0046   0.0033   0.0092  -0.0016   0.0024  -0.0049  -3.00    4.6
2019/06/12 00:13:15.000   39.714909055 -105.115228751  1694.0031   1  14   0.0047   0.0033   0.0094  -0.0018   0.0026  -0.0050  -2.00    4.6
2019/06/12 00:13:16.000   39.714909007 -105.115228642  1694.0179   1  14   0.0050   0.0036   0.0102  -0.0020   0.0029  -0.0054  -1.00    4.4
2019/06/12 00:13:17.000   39.714909009 -105.115228652  1694.0227   1  13   0.0046   0.0036   0.0094  -0.0025   0.0039  -0.0053   0.00    4.9
2019/06/12 00:13:18.000   39.714909052 -105.115228697  1694.0092   1  12   0.0057   0.0047   0.0123  -0.0035   0.0054  -0.0070  -4.00    6.1
2019/06/12 00:13:19.000   39.714909076 -105.115228670  1694.0121   1  12   0.0054   0.0045   0.0116  -0.0034   0.0052  -0.0066  -3.00    6.0
2019/06/12 00:13:20.000   39.714909097 -105.115228720  1694.0066   1  12   0.0054   0.0045   0.0116  -0.0034   0.0052  -0.0066  -2.00    5.8
2019/06/12 00:13:21.000   39.714909096 -105.115228718  1694.0005   1  12   0.0057   0.0047   0.0123  -0.0035   0.0054  -0.0069  -1.00    5.7
2019/06/12 00:13:22.000   39.714909089 -105.115228712  1693.9996   1  12   0.0050   0.0042   0.0105  -0.0032   0.0050  -0.0061   0.00    5.6
2019/06/12 00:13:23.000   39.714909066 -105.115228746  1694.0018   1  13   0.0052   0.0041   0.0111  -0.0026   0.0041  -0.0059  -4.00    5.5
2019/06/12 00:13:24.000   39.714909124 -105.115228787  1693.9916   1  13   0.0049   0.0038   0.0102  -0.0024   0.0038  -0.0055  -3.00    5.3
2019/06/12 00:13:25.000   39.714909092 -105.115228733  1693.9964   1  13   0.0048   0.0038   0.0102  -0.0023   0.0037  -0.0055  -2.00    5.1
2019/06/12 00:13:26.000   39.714909118 -105.115228782  1693.9899   1  14   0.0051   0.0039   0.0107  -0.0023   0.0036  -0.0057  -1.00    5.0
2019/06/12 00:13:27.000   39.714909090 -105.115228797  1693.9918   1  14   0.0046   0.0036   0.0093  -0.0025   0.0038  -0.0053   0.00    4.9
2019/06/12 00:13:28.000   39.714909090 -105.115228786  1693.9910   1  14   0.0052   0.0040   0.0107  -0.0024   0.0037  -0.0058  -4.00    4.7
2019/06/12 00:13:29.000   39.714909078 -105.115228756  1693.9914   1  14   0.0049   0.0039   0.0102  -0.0024   0.0038  -0.0056  -3.00    4.7
2019/06/12 00:13:30.000   39.714909054 -105.115228752  1694.0029   1  14   0.0049   0.0039   0.0102  -0.0024   0.0039  -0.0056  -2.00    4.6
2019/06/12 00:13:31.000   39.714909091 -105.115228778  1693.9894   1  14   0.0053   0.0042   0.0110  -0.0026   0.0041  -0.0060  -1.00    4.5
2019/06/12 00:13:32.000   39.714909123 -105.115228797  1693.9866   1  14   0.0049   0.0042   0.0100  -0.0029   0.0047  -0.0057   0.00   12.9
2019/06/12 00:13:33.000   39.714909078 -105.115228769  1693.9961   1  13   0.0055   0.0048   0.0116  -0.0029   0.0049  -0.0064  -4.00   14.1
2019/06/12 00:13:34.000   39.714909086 -105.115228742  1693.9851   1  13   0.0053   0.0050   0.0112  -0.0027   0.0054  -0.0060  -3.00   13.1
2019/06/12 00:13:35.000   39.714909111 -105.115228664  1693.9858   1  13   0.0053   0.0050   0.0112  -0.0027   0.0053  -0.0060  -2.00   14.7
2019/06/12 00:13:36.000   39.714909084 -105.115228725  1693.9963   1  13   0.0055   0.0051   0.0118  -0.0028   0.0054  -0.0063  -1.00   15.3
2019/06/12 00:13:37.000   39.714909085 -105.115228745  1693.9910   1  13   0.0048   0.0046   0.0104  -0.0028   0.0052  -0.0056   0.00   15.7
2019/06/12 00:13:38.000   39.714909064 -105.115228697  1693.9971   1  15   0.0053   0.0049   0.0115  -0.0027   0.0050  -0.0060  -4.00   15.9
2019/06/12 00:13:39.000   39.714909050 -105.115228673  1693.9971   1  15   0.0050   0.0045   0.0106  -0.0023   0.0046  -0.0055  -3.00   16.0
2019/06/12 00:13:40.000   39.714909024 -105.115228714  1693.9987   1  15   0.0050   0.0043   0.0106  -0.0024   0.0044  -0.0056  -2.00   16.4
2019/06/12 00:13:41.000   39.714909078 -105.115228766  1693.9863   1  14   0.0053   0.0046   0.0118  -0.0028   0.0049  -0.0062  -1.00   16.5
2019/06/12 00:13:42.000   39.714909065 -105.115228624  1694.0143   1  12   0.0046   0.0041   0.0100  -0.0027   0.0047  -0.0054   0.00   16.9
2019/06/12 00:13:43.000   39.714909059 -105.115228680  1694.0211   1  11   0.0051   0.0047   0.0117  -0.0028   0.0050  -0.0059  -4.00   17.5
2019/06/12 00:13:44.000   39.714909023 -105.115228844  1693.9875   1  11   0.0048   0.0044   0.0109  -0.0027   0.0048  -0.0055  -3.00   18.0
2019/06/12 00:13:45.000   39.714908977 -105.115228716  1694.0125   1  11   0.0048   0.0043   0.0107  -0.0027   0.0046  -0.0055  -2.00   18.2
2019/06/12 00:13:46.000   39.714909071 -105.115228752  1693.9939   1  11   0.0050   0.0045   0.0112  -0.0027   0.0046  -0.0057  -1.00   18.4
2019/06/12 00:13:47.000   39.714909072 -105.115228780  1693.9945   1  12   0.0041   0.0035   0.0087  -0.0020   0.0034  -0.0045   0.00   18.7
2019/06/12 00:13:48.000   39.714909051 -105.115228780  1693.9914   1  13   0.0046   0.0038   0.0099  -0.0017   0.0030  -0.0049  -4.00   19.1
2019/06/12 00:13:49.000   39.714909053 -105.115228748  1693.9933   1  13   0.0043   0.0034   0.0090  -0.0015   0.0025  -0.0045  -3.00   19.3
2019/06/12 00:13:50.000   39.714909052 -105.115228767  1693.9956   1  14   0.0042   0.0033   0.0087  -0.0014   0.0021  -0.0043  -2.00   17.9
2019/06/12 00:13:51.000   39.714909052 -105.115228744  1693.9987   1  14   0.0045   0.0034   0.0093  -0.0013   0.0018  -0.0045  -1.00   19.1
2019/06/12 00:13:52.000   39.714909029 -105.115228725  1693.9943   1  14   0.0039   0.0031   0.0078  -0.0013   0.0024  -0.0038   0.00   20.4
2019/06/12 00:13:53.000   39.714909057 -105.115228730  1693.9933   1  14   0.0045   0.0035   0.0093  -0.0009   0.0020  -0.0043  -4.00   20.5
2019/06/12 00:13:54.000   39.714909076 -105.115228742  1693.9926   1  14   0.0043   0.0033   0.0087  -0.0010   0.0022  -0.0041  -3.00   20.5
2019/06/12 00:13:55.000   39.714909080 -105.115228750  1693.9930   1  14   0.0043   0.0033   0.0087  -0.0010   0.0022  -0.0041  -2.00   20.4
2019/06/12 00:13:56.000   39.714909061 -105.115228760  1693.9931   1  14   0.0046   0.0035   0.0094  -0.0009   0.0021  -0.0043  -1.00   20.3
2019/06/12 00:13:57.000   39.714909072 -105.115228763  1694.0012   1  14   0.0041   0.0032   0.0080  -0.0013   0.0025  -0.0038   0.00   20.0
2019/06/12 00:13:58.000   39.714909040 -105.115228732  1694.0039   1  14   0.0047   0.0037   0.0097  -0.0012   0.0025  -0.0045  -4.00   20.0
2019/06/12 00:13:59.000   39.714909148 -105.115228832  1693.9795   1  13   0.0046   0.0037   0.0092  -0.0015   0.0029  -0.0043  -3.00    9.3
2019/06/12 00:14:00.000   39.714909189 -105.115228798  1693.9817   1  13   0.0047   0.0037   0.0092  -0.0014   0.0028  -0.0042  -2.00   10.4
2019/06/12 00:14:01.000   39.714909070 -105.115228748  1693.9958   1  12   0.0053   0.0044   0.0105  -0.0018   0.0038  -0.0047  -1.00   22.4
