% program   : RTKPOST ver.demo5 b31
% inp file  : H:\Data\Colorado\2019-0611\Joe_M600_PPK_Test_20190611_Ricoh_JPGs\CWW_PPK\2019\0612\GPS\UAS\GP000639.obs
% inp file  : H:\Data\Colorado\2019-0611\Joe_M600_PPK_Test_20190611_Ricoh_JPGs\CWW_PPK\2019\0612\GPS\CTMC\ctmc1630.19o
% inp file  : H:\Data\Colorado\2019-0611\Joe_M600_PPK_Test_20190611_Ricoh_JPGs\CWW_PPK\2019\0612\GPS\UAS\GP000639.gnav
% inp file  : H:\Data\Colorado\2019-0611\Joe_M600_PPK_Test_20190611_Ricoh_JPGs\CWW_PPK\2019\0612\GPS\UAS\GP000639.nav
% inp file  : H:\Data\Colorado\2019-0611\Joe_M600_PPK_Test_20190611_Ricoh_JPGs\CWW_PPK\2019\0612\GPS\CTMC\igu20573_18.sp3
% inp file  : H:\Data\Colorado\2019-0611\Joe_M600_PPK_Test_20190611_Ricoh_JPGs\CWW_PPK\2019\CTMC\igr20572.sp3
% obs start : 2019/06/12 00:06:39.5 UTC (week2057 259617.5s)
% obs end   : 2019/06/12 01:03:09.0 UTC (week2057 263007.0s)
% pos mode  : kinematic
% freqs     : L1+L2
% solution  : combined
% elev mask : 10.0 deg
% dynamics  : on
% tidecorr  : off
% ionos opt : broadcast
% tropo opt : saastamoinen
% ephemeris : precise
% navi sys  : gps glonass sbas
% amb res   : fix and hold
% amb glo   : auto calib
% val thres : 3.0
% antenna1  :                       ( 0.0000  0.0000  0.0000)
% antenna2  : TRM55971.00     NONE  ( 0.0000  0.0000  0.0000)
% ref pos   : 39.721525874 -105.192871000  1819.8362
%
% (lat/lon/height=WGS84/ellipsoidal,Q=1:fix,2:float,3:sbas,4:dgps,5:single,6:ppp,ns=# of satellites)
%  UTC                   latitude(deg) longitude(deg)  height(m)   Q  ns   sdn(m)   sde(m)   sdu(m)  sdne(m)  sdeu(m)  sdun(m) age(s)  ratio
2019/06/12 00:06:39.500   39.714897777 -105.115235366  1693.4937   1   5   0.0401   0.0217   0.1084   0.0178  -0.0289  -0.0563   2.50    5.1
2019/06/12 00:06:40.000   39.714901557 -105.115233360  1693.8120   1   5   0.0502   0.0218   0.0784   0.0131  -0.0097  -0.0425   3.00    4.2
2019/06/12 00:06:54.000   39.714909172 -105.115229119  1694.0093   1   8   0.0078   0.0049   0.0146  -0.0032   0.0041  -0.0087   2.00    9.5
2019/06/12 00:06:55.000   39.714909126 -105.115229101  1694.0189   1   8   0.0078   0.0049   0.0146  -0.0032   0.0041  -0.0087   3.00    9.0
2019/06/12 00:06:56.000   39.714909123 -105.115229126  1694.0199   1   8   0.0083   0.0052   0.0158  -0.0033   0.0042  -0.0093   4.00    8.6
2019/06/12 00:06:57.000   39.714909167 -105.115229110  1694.0117   1   8   0.0072   0.0045   0.0129  -0.0032   0.0040  -0.0079   0.00    8.2
2019/06/12 00:06:58.000   39.714909174 -105.115229146  1694.0098   1   8   0.0083   0.0052   0.0158  -0.0033   0.0042  -0.0093   1.00    7.7
2019/06/12 00:06:59.000   39.714909136 -105.115229109  1694.0176   1   8   0.0078   0.0049   0.0146  -0.0032   0.0041  -0.0087   2.00    7.3
2019/06/12 00:07:00.000   39.714909159 -105.115229108  1694.0143   1   8   0.0078   0.0049   0.0146  -0.0032   0.0041  -0.0087   3.00    6.8
2019/06/12 00:07:01.000   39.714909164 -105.115229131  1694.0079   1   8   0.0083   0.0052   0.0158  -0.0033   0.0042  -0.0093   4.00    6.4
2019/06/12 00:07:02.000   39.714909167 -105.115229137  1694.0082   1   8   0.0072   0.0045   0.0128  -0.0032   0.0040  -0.0079   0.00    5.9
2019/06/12 00:07:03.000   39.714909181 -105.115229147  1694.0039   1   8   0.0083   0.0052   0.0158  -0.0033   0.0042  -0.0093   1.00    5.4
2019/06/12 00:07:04.000   39.714909163 -105.115229125  1694.0113   1   8   0.0078   0.0049   0.0146  -0.0032   0.0041  -0.0087   2.00    4.8
2019/06/12 00:07:05.000   39.714909178 -105.115229133  1694.0062   1   8   0.0078   0.0049   0.0146  -0.0032   0.0041  -0.0087   3.00    4.3
2019/06/12 00:07:06.000   39.714909142 -105.115229097  1694.0109   1   8   0.0083   0.0052   0.0158  -0.0033   0.0042  -0.0093   4.00    3.6
2019/06/12 00:07:07.000   39.714909141 -105.115229108  1694.0131   1   8   0.0072   0.0045   0.0128  -0.0032   0.0039  -0.0079   0.00    3.6
2019/06/12 00:07:08.000   39.714909151 -105.115229099  1694.0135   1   8   0.0083   0.0052   0.0158  -0.0033   0.0042  -0.0093   1.00    3.6
2019/06/12 00:07:09.000   39.714909114 -105.115229103  1694.0172   1   8   0.0078   0.0049   0.0146  -0.0032   0.0041  -0.0087   2.00    3.5
2019/06/12 00:07:10.000   39.714909126 -105.115229086  1694.0104   1   8   0.0078   0.0049   0.0146  -0.0032   0.0041  -0.0087   3.00    3.5
2019/06/12 00:07:11.000   39.714909159 -105.115229083  1694.0070   1   8   0.0083   0.0052   0.0158  -0.0033   0.0042  -0.0093   4.00    3.5
2019/06/12 00:07:12.000   39.714909164 -105.115229092  1694.0040   1   8   0.0072   0.0045   0.0128  -0.0032   0.0039  -0.0079   0.00    3.5
2019/06/12 00:07:13.000   39.714909157 -105.115229090  1694.0077   1   8   0.0083   0.0052   0.0158  -0.0033   0.0042  -0.0093   1.00    3.4
2019/06/12 00:07:14.000   39.714909147 -105.115229070  1694.0079   1   8   0.0078   0.0049   0.0146  -0.0032   0.0041  -0.0087   2.00    3.4
2019/06/12 00:07:15.000   39.714909148 -105.115229094  1694.0099   1   8   0.0078   0.0049   0.0146  -0.0032   0.0041  -0.0087   3.00    3.3
2019/06/12 00:07:16.000   39.714909154 -105.115229109  1694.0086   1   8   0.0083   0.0052   0.0158  -0.0033   0.0042  -0.0093   4.00    3.3
2019/06/12 00:07:17.000   39.714909129 -105.115229103  1694.0127   1   8   0.0071   0.0045   0.0128  -0.0032   0.0039  -0.0079   0.00    3.3
2019/06/12 00:07:18.000   39.714909119 -105.115229094  1694.0117   1   8   0.0083   0.0052   0.0158  -0.0033   0.0042  -0.0093   1.00    3.2
2019/06/12 00:07:19.000   39.714909107 -105.115229034  1694.0207   1   8   0.0078   0.0049   0.0146  -0.0032   0.0041  -0.0087   2.00    3.2
2019/06/12 00:07:20.000   39.714909148 -105.115229099  1694.0077   1   8   0.0078   0.0049   0.0146  -0.0032   0.0041  -0.0087   3.00    3.2
2019/06/12 00:07:21.000   39.714909112 -105.115229111  1694.0126   1   8   0.0083   0.0052   0.0157  -0.0033   0.0042  -0.0093   4.00    3.2
2019/06/12 00:07:22.000   39.714909112 -105.115229089  1694.0118   1   8   0.0071   0.0045   0.0128  -0.0032   0.0039  -0.0079   0.00    3.1
2019/06/12 00:07:23.000   39.714909123 -105.115229085  1694.0131   1   8   0.0083   0.0052   0.0157  -0.0033   0.0042  -0.0093   1.00    3.1
2019/06/12 00:07:24.000   39.714909130 -105.115229084  1694.0130   1   8   0.0078   0.0049   0.0145  -0.0032   0.0041  -0.0087   2.00    3.1
2019/06/12 00:07:25.000   39.714909181 -105.115229110  1694.0082   1   8   0.0078   0.0049   0.0145  -0.0032   0.0041  -0.0087   3.00    3.0
2019/06/12 00:07:26.000   39.714908415 -105.115232035  1692.9311   2   8   0.0313   0.0680   0.0502   0.0156  -0.0123  -0.0142  -1.00    0.0
2019/06/12 00:07:27.000   39.714908389 -105.115232021  1692.9339   2   8   0.0312   0.0680   0.0495   0.0156  -0.0123  -0.0135   0.00    0.0
2019/06/12 00:07:28.000   39.714908437 -105.115232070  1692.9255   2   8   0.0316   0.0680   0.0503   0.0154  -0.0121  -0.0144  -4.00    0.0
2019/06/12 00:07:29.000   39.714909155 -105.115229129  1694.0097   1   8   0.0078   0.0049   0.0145  -0.0032   0.0041  -0.0087  -3.00    5.2
2019/06/12 00:07:30.000   39.714909148 -105.115229125  1694.0144   1   8   0.0078   0.0049   0.0145  -0.0032   0.0041  -0.0087  -2.00    5.3
2019/06/12 00:07:31.000   39.714909147 -105.115229114  1694.0138   1   8   0.0083   0.0052   0.0157  -0.0033   0.0042  -0.0093  -1.00    5.3
2019/06/12 00:07:32.000   39.714909180 -105.115229116  1694.0092   1   8   0.0071   0.0045   0.0128  -0.0031   0.0039  -0.0078   0.00    5.3
2019/06/12 00:07:33.000   39.714909162 -105.115229096  1694.0112   1   8   0.0083   0.0052   0.0157  -0.0033   0.0042  -0.0093  -4.00    5.4
2019/06/12 00:07:34.000   39.714909181 -105.115229102  1694.0065   1   8   0.0078   0.0049   0.0145  -0.0032   0.0041  -0.0087  -3.00    5.5
2019/06/12 00:07:35.000   39.714909163 -105.115229084  1694.0074   1   8   0.0078   0.0049   0.0145  -0.0032   0.0041  -0.0087  -2.00    5.5
2019/06/12 00:07:36.000   39.714909187 -105.115229119  1694.0059   1   8   0.0083   0.0052   0.0157  -0.0033   0.0042  -0.0093  -1.00    5.6
2019/06/12 00:07:37.000   39.714909168 -105.115229080  1694.0080   1   8   0.0071   0.0045   0.0128  -0.0031   0.0039  -0.0078   0.00    5.8
2019/06/12 00:07:38.000   39.714909159 -105.115229088  1694.0060   1   8   0.0083   0.0052   0.0157  -0.0033   0.0042  -0.0093  -4.00    5.9
2019/06/12 00:07:39.000   39.714909133 -105.115229091  1694.0135   1   8   0.0078   0.0049   0.0145  -0.0032   0.0041  -0.0087  -3.00    6.0
2019/06/12 00:07:40.000   39.714909138 -105.115229075  1694.0128   1   8   0.0078   0.0049   0.0145  -0.0032   0.0041  -0.0087  -2.00    6.1
2019/06/12 00:07:41.000   39.714909124 -105.115229080  1694.0121   1   8   0.0083   0.0052   0.0157  -0.0033   0.0042  -0.0093  -1.00    6.2
2019/06/12 00:07:42.000   39.714909134 -105.115229073  1694.0140   1   8   0.0071   0.0045   0.0128  -0.0031   0.0039  -0.0078   0.00    6.3
2019/06/12 00:07:43.000   39.714909117 -105.115229085  1694.0132   1   8   0.0083   0.0052   0.0157  -0.0033   0.0042  -0.0093  -4.00    6.3
2019/06/12 00:07:44.000   39.714909152 -105.115229125  1694.0079   1   8   0.0078   0.0049   0.0145  -0.0032   0.0041  -0.0087  -3.00    6.4
2019/06/12 00:07:45.000   39.714909159 -105.115229064  1694.0071   1   8   0.0078   0.0049   0.0145  -0.0032   0.0041  -0.0087  -2.00    6.5
2019/06/12 00:07:46.000   39.714909186 -105.115229105  1694.0060   1   8   0.0083   0.0052   0.0157  -0.0033   0.0042  -0.0093  -1.00    6.7
2019/06/12 00:07:47.000   39.714909179 -105.115229107  1694.0040   1   8   0.0071   0.0045   0.0128  -0.0031   0.0039  -0.0078   0.00    6.8
2019/06/12 00:07:48.000   39.714909199 -105.115229084  1694.0024   1   8   0.0085   0.0052   0.0158  -0.0032   0.0043  -0.0090  -4.00    6.8
2019/06/12 00:07:49.000   39.714909162 -105.115229092  1694.0070   1   8   0.0079   0.0049   0.0146  -0.0032   0.0041  -0.0086  -3.00   12.5
2019/06/12 00:07:50.000   39.714909160 -105.115229068  1694.0067   1   8   0.0079   0.0049   0.0145  -0.0032   0.0041  -0.0086  -2.00   13.4
2019/06/12 00:07:51.000   39.714909158 -105.115229104  1694.0045   1   8   0.0085   0.0052   0.0158  -0.0032   0.0043  -0.0090  -1.00   14.3
2019/06/12 00:07:52.000   39.714909180 -105.115229079  1694.0007   1   8   0.0072   0.0045   0.0128  -0.0031   0.0039  -0.0077   0.00   15.1
2019/06/12 00:07:53.000   39.714909179 -105.115229068  1694.0067   1   8   0.0083   0.0052   0.0157  -0.0032   0.0042  -0.0092  -4.00   16.0
2019/06/12 00:07:54.000   39.714909168 -105.115229072  1694.0078   1   8   0.0078   0.0049   0.0145  -0.0032   0.0041  -0.0086  -3.00   16.8
2019/06/12 00:07:55.000   39.714909161 -105.115229056  1694.0138   1   8   0.0078   0.0049   0.0145  -0.0032   0.0041  -0.0086  -2.00   17.7
2019/06/12 00:07:56.000   39.714909174 -105.115229074  1694.0091   1   8   0.0083   0.0052   0.0157  -0.0032   0.0042  -0.0092  -1.00   18.7
2019/06/12 00:07:57.000   39.714909190 -105.115229061  1694.0073   1   8   0.0071   0.0045   0.0128  -0.0031   0.0039  -0.0078   0.00   19.5
2019/06/12 00:07:58.000   39.714909163 -105.115229051  1694.0094   1   8   0.0083   0.0052   0.0157  -0.0032   0.0042  -0.0092  -4.00   20.3
2019/06/12 00:07:59.000   39.714909165 -105.115229088  1694.0060   1   8   0.0078   0.0049   0.0145  -0.0032   0.0041  -0.0086  -3.00   21.0
2019/06/12 00:08:00.000   39.714909178 -105.115229089  1694.0049   1   8   0.0078   0.0049   0.0145  -0.0032   0.0041  -0.0086  -2.00   21.1
2019/06/12 00:08:01.000   39.714909191 -105.115229123  1694.0021   1   9   0.0083   0.0052   0.0157  -0.0032   0.0042  -0.0092  -1.00   21.4
2019/06/12 00:08:02.000   39.714909200 -105.115229104  1694.0032   1   9   0.0066   0.0043   0.0118  -0.0026   0.0031  -0.0069   0.00   21.6
2019/06/12 00:08:03.000   39.714909162 -105.115229093  1694.0083   1   9   0.0097   0.0064   0.0187  -0.0055   0.0075  -0.0117  -4.00   12.0
2019/06/12 00:08:04.000   39.714909169 -105.115229086  1694.0094   1   9   0.0080   0.0056   0.0152  -0.0041   0.0056  -0.0091  -3.00   12.1
2019/06/12 00:08:05.000   39.714909170 -105.115229065  1694.0087   1   9   0.0075   0.0054   0.0143  -0.0036   0.0049  -0.0083  -2.00   12.2
2019/06/12 00:08:06.000   39.714909156 -105.115229086  1694.0092   1   9   0.0055   0.0038   0.0106  -0.0023   0.0030  -0.0061  -1.00   12.3
2019/06/12 00:08:07.000   39.714909165 -105.115229072  1694.0047   1   9   0.0048   0.0032   0.0086  -0.0021   0.0027  -0.0051   0.00   12.5
2019/06/12 00:08:08.000   39.714909189 -105.115229077  1694.0031   1   9   0.0053   0.0037   0.0102  -0.0020   0.0025  -0.0057  -4.00   12.6
2019/06/12 00:08:09.000   39.714909180 -105.115229099  1694.0017   1   9   0.0052   0.0035   0.0098  -0.0021   0.0027  -0.0057  -3.00   12.8
2019/06/12 00:08:10.000   39.714909171 -105.115229087  1693.9988   1   9   0.0081   0.0052   0.0151  -0.0037   0.0048  -0.0091  -2.00   13.0
2019/06/12 00:08:11.000   39.714909195 -105.115229093  1694.0016   1   9   0.0077   0.0052   0.0148  -0.0029   0.0038  -0.0083  -1.00   13.2
2019/06/12 00:08:12.000   39.714909205 -105.115229085  1693.9977   1   9   0.0066   0.0045   0.0119  -0.0028   0.0035  -0.0069   0.00   13.5
2019/06/12 00:08:13.000   39.714909225 -105.115229111  1693.9975   1   9   0.0072   0.0051   0.0139  -0.0024   0.0030  -0.0075  -4.00   13.6
2019/06/12 00:08:14.000   39.714909196 -105.115229098  1694.0001   1   9   0.0068   0.0048   0.0128  -0.0024   0.0029  -0.0070  -3.00   13.7
2019/06/12 00:08:15.000   39.714909198 -105.115229110  1694.0005   1   9   0.0079   0.0050   0.0148  -0.0034   0.0044  -0.0089  -2.00   13.9
2019/06/12 00:08:16.000   39.714909194 -105.115229081  1694.0010   1   9   0.0074   0.0050   0.0142  -0.0024   0.0030  -0.0078  -1.00   11.1
2019/06/12 00:08:17.000   39.714909196 -105.115229100  1694.0004   1   9   0.0063   0.0043   0.0113  -0.0023   0.0028  -0.0065   0.00   12.1
2019/06/12 00:08:18.000   39.714909182 -105.115229089  1693.9987   1   9   0.0070   0.0049   0.0134  -0.0019   0.0021  -0.0070  -4.00   12.9
2019/06/12 00:08:19.000   39.714909167 -105.115229076  1694.0044   1   9   0.0066   0.0046   0.0124  -0.0019   0.0022  -0.0066  -3.00   13.8
2019/06/12 00:08:20.000   39.714909178 -105.115229105  1694.0074   1   8   0.0078   0.0051   0.0145  -0.0034   0.0039  -0.0085  -2.00   85.5
2019/06/12 00:08:21.000   39.714909181 -105.115229091  1694.0053   1   8   0.0083   0.0055   0.0157  -0.0035   0.0040  -0.0091  -1.00   90.9
2019/06/12 00:08:22.000   39.714909193 -105.115229095  1694.0049   1   8   0.0072   0.0047   0.0127  -0.0033   0.0037  -0.0077   0.00   97.7
2019/06/12 00:08:23.000   39.714909185 -105.115229098  1694.0051   1   8   0.0083   0.0055   0.0157  -0.0035   0.0040  -0.0091  -4.00  102.9
2019/06/12 00:08:24.000   39.714909193 -105.115229109  1694.0074   1   8   0.0078   0.0051   0.0145  -0.0034   0.0039  -0.0085  -3.00  106.7
2019/06/12 00:08:25.000   39.714909211 -105.115229094  1694.0033   1   8   0.0078   0.0051   0.0145  -0.0034   0.0039  -0.0085  -2.00  107.6
2019/06/12 00:08:26.000   39.714909209 -105.115229117  1694.0011   1   8   0.0083   0.0055   0.0157  -0.0035   0.0040  -0.0091  -1.00  108.5
2019/06/12 00:08:27.000   39.714909216 -105.115229127  1694.0004   1   8   0.0072   0.0047   0.0127  -0.0033   0.0037  -0.0077   0.00  109.5
2019/06/12 00:08:28.000   39.714909208 -105.115229117  1694.0000   1   8   0.0083   0.0055   0.0157  -0.0035   0.0040  -0.0091  -4.00  110.3
2019/06/12 00:08:29.000   39.714909211 -105.115229118  1693.9998   1   8   0.0078   0.0051   0.0145  -0.0034   0.0039  -0.0085  -3.00  110.8
2019/06/12 00:08:30.000   39.714909201 -105.115229101  1694.0012   1   8   0.0078   0.0051   0.0145  -0.0034   0.0038  -0.0085  -2.00  112.3
2019/06/12 00:08:31.000   39.714909195 -105.115229091  1694.0050   1   8   0.0083   0.0054   0.0157  -0.0035   0.0040  -0.0091  -1.00  112.7
2019/06/12 00:08:32.000   39.714909183 -105.115229076  1694.0082   1   8   0.0072   0.0047   0.0127  -0.0033   0.0037  -0.0077   0.00  113.7
2019/06/12 00:08:33.000   39.714909176 -105.115229037  1694.0101   1   8   0.0083   0.0054   0.0157  -0.0035   0.0040  -0.0091  -4.00  114.0
2019/06/12 00:08:34.000   39.714909189 -105.115229086  1694.0104   1   8   0.0078   0.0051   0.0145  -0.0034   0.0038  -0.0085  -3.00  115.2
2019/06/12 00:08:35.000   39.714909240 -105.115229103  1693.9983   1   8   0.0091   0.0055   0.0147  -0.0015   0.0030  -0.0092  -2.00   61.0
2019/06/12 00:08:36.000   39.714909228 -105.115229077  1694.0018   1   8   0.0092   0.0057   0.0159  -0.0023   0.0033  -0.0097  -1.00   61.9
2019/06/12 00:08:37.000   39.714909219 -105.115229077  1694.0026   1   8   0.0083   0.0050   0.0128  -0.0019   0.0032  -0.0082   0.00   62.4
2019/06/12 00:08:38.000   39.714909206 -105.115229077  1694.0050   1   9   0.0092   0.0057   0.0159  -0.0024   0.0033  -0.0096  -4.00   62.9
2019/06/12 00:08:39.000   39.714909215 -105.115229078  1694.0016   1   9   0.0081   0.0052   0.0138  -0.0019   0.0027  -0.0082  -3.00   63.9
2019/06/12 00:08:40.000   39.714909206 -105.115229078  1694.0038   1   9   0.0085   0.0053   0.0146  -0.0026   0.0035  -0.0089  -2.00   65.3
2019/06/12 00:08:41.000   39.714909206 -105.115229051  1694.0018   1   9   0.0081   0.0054   0.0144  -0.0012   0.0021  -0.0082  -1.00   66.1
2019/06/12 00:08:42.000   39.714909213 -105.115229064  1693.9997   1   9   0.0069   0.0046   0.0114  -0.0015   0.0023  -0.0067   0.00   67.6
2019/06/12 00:08:43.000   39.714909220 -105.115229085  1693.9972   1   9   0.0076   0.0052   0.0136   0.0010   0.0011  -0.0074  -4.00   68.7
2019/06/12 00:08:44.000   39.714909205 -105.115229064  1693.9998   1   9   0.0072   0.0049   0.0125   0.0005   0.0014  -0.0069  -3.00   69.1
2019/06/12 00:08:45.000   39.714909222 -105.115229077  1693.9969   1   9   0.0071   0.0049   0.0124   0.0007   0.0013  -0.0068  -2.00   69.7
2019/06/12 00:08:46.000   39.714909227 -105.115229096  1693.9970   1   9   0.0074   0.0052   0.0132   0.0013  -0.0005  -0.0070  -1.00   70.1
2019/06/12 00:08:47.000   39.714909209 -105.115229072  1693.9972   1   9   0.0064   0.0044   0.0108  -0.0012   0.0019  -0.0060   0.00   67.3
2019/06/12 00:08:48.000   39.714909244 -105.115229088  1693.9931   1   9   0.0082   0.0059   0.0134   0.0021  -0.0029  -0.0071  -4.00   69.3
2019/06/12 00:08:49.000   39.714909250 -105.115229093  1693.9953   1   9   0.0072   0.0051   0.0122   0.0005  -0.0012  -0.0065  -3.00   69.1
2019/06/12 00:08:50.000   39.714909225 -105.115229062  1694.0011   1   9   0.0070   0.0049   0.0122  -0.0008  -0.0002  -0.0064  -2.00   69.6
2019/06/12 00:08:51.000   39.714909286 -105.115229102  1693.9875   1   9   0.0080   0.0056   0.0132   0.0028  -0.0024  -0.0072  -1.00   70.0
2019/06/12 00:08:52.000   39.714909303 -105.115229083  1693.9887   1   9   0.0067   0.0045   0.0107   0.0004   0.0013  -0.0060   0.00   70.2
2019/06/12 00:08:53.000   39.714909298 -105.115229099  1693.9915   1   9   0.0071   0.0051   0.0130   0.0008  -0.0009  -0.0067  -4.00   70.8
2019/06/12 00:08:54.000   39.714909290 -105.115229084  1693.9906   1   9   0.0067   0.0048   0.0120  -0.0008   0.0009  -0.0063  -3.00   71.5
2019/06/12 00:08:55.000   39.714909280 -105.115229078  1693.9906   1   9   0.0067   0.0048   0.0120  -0.0010   0.0010  -0.0063  -2.00   71.7
2019/06/12 00:08:56.000   39.714909285 -105.115229082  1693.9869   1   9   0.0069   0.0050   0.0129  -0.0007   0.0002  -0.0065  -1.00   71.7
2019/06/12 00:08:57.000   39.714909295 -105.115229073  1693.9859   1   9   0.0062   0.0043   0.0106  -0.0015   0.0017  -0.0057   0.00   70.6
2019/06/12 00:08:58.000   39.714909261 -105.115229044  1693.9878   1   9   0.0068   0.0049   0.0129  -0.0006   0.0007  -0.0065  -4.00   40.1
2019/06/12 00:08:59.000   39.714909250 -105.115229072  1693.9905   1   9   0.0065   0.0046   0.0119  -0.0011   0.0013  -0.0062  -3.00   43.3
2019/06/12 00:09:00.000   39.714909235 -105.115229072  1693.9953   1   9   0.0065   0.0046   0.0119  -0.0011   0.0013  -0.0062  -2.00   45.8
2019/06/12 00:09:01.000   39.714909205 -105.115229075  1693.9954   1   9   0.0066   0.0049   0.0128  -0.0012   0.0011  -0.0064  -1.00   40.3
2019/06/12 00:09:02.000   39.714909234 -105.115229121  1693.9892   1   9   0.0058   0.0042   0.0105  -0.0018   0.0019  -0.0056   0.00   43.1
2019/06/12 00:09:03.000   39.714909248 -105.115229066  1693.9924   1   9   0.0079   0.0056   0.0131   0.0027  -0.0026  -0.0070  -4.00   58.1
2019/06/12 00:09:04.000   39.714909284 -105.115229068  1693.9916   1   9   0.0071   0.0051   0.0120   0.0012  -0.0015  -0.0063  -3.00   57.6
2019/06/12 00:09:05.000   39.714909293 -105.115229064  1693.9887   1   9   0.0068   0.0050   0.0120  -0.0005  -0.0012  -0.0062  -2.00   56.6
2019/06/12 00:09:06.000   39.714909295 -105.115229065  1693.9856   1   9   0.0079   0.0056   0.0131   0.0027  -0.0027  -0.0070  -1.00   56.2
2019/06/12 00:09:07.000   39.714909265 -105.115229047  1693.9873   1   9   0.0066   0.0045   0.0106   0.0008   0.0011  -0.0058   0.00   55.6
2019/06/12 00:09:08.000   39.714909287 -105.115229066  1693.9842   1   9   0.0070   0.0051   0.0129   0.0011  -0.0012  -0.0065  -4.00   55.0
2019/06/12 00:09:09.000   39.714909236 -105.115229061  1693.9926   1   9   0.0067   0.0048   0.0119  -0.0003   0.0006  -0.0062  -3.00   54.3
2019/06/12 00:09:10.000   39.714909240 -105.115229044  1693.9900   1   9   0.0066   0.0047   0.0119  -0.0007   0.0008  -0.0061  -2.00   53.9
2019/06/12 00:09:11.000   39.714909245 -105.115229058  1693.9870   1   9   0.0068   0.0050   0.0128  -0.0002  -0.0006  -0.0064  -1.00   53.8
2019/06/12 00:09:12.000   39.714909224 -105.115229035  1693.9925   1   9   0.0061   0.0043   0.0105  -0.0014   0.0017  -0.0057   0.00   53.3
2019/06/12 00:09:13.000   39.714909243 -105.115229019  1693.9867   1   9   0.0068   0.0049   0.0128  -0.0006  -0.0002  -0.0064  -4.00   53.2
2019/06/12 00:09:14.000   39.714909227 -105.115229045  1693.9894   1   9   0.0065   0.0047   0.0119  -0.0011   0.0011  -0.0061  -3.00   53.3
2019/06/12 00:09:15.000   39.714909222 -105.115229018  1693.9914   1   9   0.0064   0.0046   0.0119  -0.0011   0.0011  -0.0061  -2.00   53.1
2019/06/12 00:09:16.000   39.714909173 -105.115229037  1693.9941   1   9   0.0066   0.0049   0.0127  -0.0011   0.0009  -0.0063  -1.00   35.8
2019/06/12 00:09:17.000   39.714909170 -105.115229039  1693.9909   1   9   0.0058   0.0042   0.0105  -0.0017   0.0018  -0.0056   0.00   38.4
2019/06/12 00:09:18.000   39.714909182 -105.115229031  1693.9948   1   9   0.0066   0.0049   0.0127  -0.0011   0.0009  -0.0063  -4.00   40.0
2019/06/12 00:09:19.000   39.714909193 -105.115229038  1693.9921   1   9   0.0063   0.0046   0.0118  -0.0014   0.0014  -0.0060  -3.00   42.1
2019/06/12 00:09:20.000   39.714909193 -105.115229031  1693.9917   1   9   0.0063   0.0046   0.0118  -0.0014   0.0013  -0.0060  -2.00   44.7
2019/06/12 00:09:21.000   39.714909193 -105.115229039  1693.9901   1   9   0.0066   0.0049   0.0127  -0.0011   0.0009  -0.0063  -1.00   46.9
2019/06/12 00:09:22.000   39.714909191 -105.115229040  1693.9877   1   9   0.0058   0.0042   0.0104  -0.0017   0.0018  -0.0056   0.00   50.2
2019/06/12 00:09:23.000   39.714909179 -105.115229039  1693.9931   1   9   0.0066   0.0049   0.0127  -0.0011   0.0009  -0.0063  -4.00   52.4
2019/06/12 00:09:24.000   39.714909180 -105.115229048  1693.9907   1   9   0.0063   0.0046   0.0118  -0.0014   0.0013  -0.0060  -3.00   54.6
2019/06/12 00:09:25.000   39.714909177 -105.115229047  1693.9909   1   9   0.0063   0.0046   0.0118  -0.0014   0.0013  -0.0060  -2.00   57.0
2019/06/12 00:09:26.000   39.714909173 -105.115229030  1693.9907   1   9   0.0066   0.0049   0.0127  -0.0011   0.0008  -0.0062  -1.00   57.9
2019/06/12 00:09:27.000   39.714909180 -105.115229049  1693.9901   1   9   0.0058   0.0042   0.0104  -0.0017   0.0018  -0.0055   0.00   58.4
2019/06/12 00:09:28.000   39.714909177 -105.115229050  1693.9918   1   9   0.0066   0.0049   0.0127  -0.0011   0.0008  -0.0062  -4.00   58.8
2019/06/12 00:09:29.000   39.714909167 -105.115229060  1693.9894   1   9   0.0063   0.0046   0.0118  -0.0014   0.0013  -0.0060  -3.00   58.7
2019/06/12 00:09:30.000   39.714909173 -105.115229060  1693.9884   1   9   0.0063   0.0046   0.0118  -0.0014   0.0013  -0.0060  -2.00   59.0
2019/06/12 00:09:31.000   39.714909183 -105.115229077  1693.9857   1   9   0.0066   0.0049   0.0127  -0.0011   0.0008  -0.0062  -1.00   59.0
2019/06/12 00:09:32.000   39.714909175 -105.115229049  1693.9849   1   9   0.0058   0.0042   0.0104  -0.0017   0.0018  -0.0055   0.00   58.3
2019/06/12 00:09:33.000   39.714909192 -105.115229055  1693.9860   1   9   0.0066   0.0049   0.0127  -0.0011   0.0008  -0.0062  -4.00   58.8
2019/06/12 00:09:34.000   39.714909181 -105.115229059  1693.9930   1   9   0.0062   0.0046   0.0118  -0.0014   0.0013  -0.0059  -3.00   59.2
2019/06/12 00:09:35.000   39.714909188 -105.115229063  1693.9905   1   9   0.0062   0.0046   0.0118  -0.0014   0.0013  -0.0059  -2.00   59.1
2019/06/12 00:09:36.000   39.714909204 -105.115229034  1693.9918   1   9   0.0066   0.0049   0.0127  -0.0011   0.0008  -0.0062  -1.00   59.6
2019/06/12 00:09:37.000   39.714909155 -105.115229025  1693.9967   1   9   0.0058   0.0042   0.0104  -0.0017   0.0018  -0.0055   0.00   59.9
2019/06/12 00:09:38.000   39.714909184 -105.115229028  1693.9962   1   9   0.0066   0.0049   0.0127  -0.0011   0.0008  -0.0062  -4.00   60.4
2019/06/12 00:09:39.000   39.714909197 -105.115229048  1693.9912   1   9   0.0062   0.0046   0.0118  -0.0013   0.0013  -0.0059  -3.00   60.6
2019/06/12 00:09:40.000   39.714909184 -105.115229041  1693.9943   1   9   0.0062   0.0046   0.0118  -0.0013   0.0013  -0.0059  -2.00   60.8
2019/06/12 00:09:41.000   39.714909171 -105.115229031  1693.9942   1   9   0.0066   0.0048   0.0127  -0.0010   0.0007  -0.0062  -1.00   61.0
2019/06/12 00:09:42.000   39.714909168 -105.115229023  1693.9964   1   9   0.0058   0.0042   0.0104  -0.0017   0.0018  -0.0055   0.00   61.2
2019/06/12 00:09:43.000   39.714909164 -105.115229044  1693.9982   1   9   0.0066   0.0048   0.0127  -0.0010   0.0007  -0.0062  -4.00   61.5
2019/06/12 00:09:44.000   39.714909196 -105.115229036  1693.9945   1   9   0.0062   0.0046   0.0118  -0.0013   0.0013  -0.0059  -3.00   62.0
2019/06/12 00:09:45.000   39.714909158 -105.115229051  1694.0001   1   9   0.0062   0.0046   0.0118  -0.0013   0.0013  -0.0059  -2.00   62.5
2019/06/12 00:09:46.000   39.714909156 -105.115229033  1694.0039   1   9   0.0066   0.0048   0.0127  -0.0010   0.0007  -0.0062  -1.00   62.8
2019/06/12 00:09:47.000   39.714909164 -105.115229050  1694.0013   1   9   0.0058   0.0042   0.0104  -0.0017   0.0018  -0.0055   0.00   63.3
2019/06/12 00:09:48.000   39.714909179 -105.115229055  1694.0007   1   9   0.0065   0.0048   0.0127  -0.0010   0.0007  -0.0062  -4.00   63.8
2019/06/12 00:09:49.000   39.714909166 -105.115229067  1693.9974   1   9   0.0062   0.0046   0.0118  -0.0013   0.0012  -0.0059  -3.00   64.0
2019/06/12 00:09:50.000   39.714909163 -105.115229050  1694.0015   1   9   0.0062   0.0046   0.0118  -0.0013   0.0012  -0.0059  -2.00   64.0
2019/06/12 00:09:51.000   39.714909163 -105.115229071  1693.9982   1   9   0.0065   0.0048   0.0127  -0.0010   0.0007  -0.0062  -1.00   64.5
2019/06/12 00:09:52.000   39.714909145 -105.115229081  1694.0013   1   9   0.0058   0.0042   0.0104  -0.0016   0.0017  -0.0055   0.00   64.6
2019/06/12 00:09:53.000   39.714909126 -105.115229040  1694.0045   1   9   0.0065   0.0048   0.0127  -0.0010   0.0007  -0.0062  -4.00   64.6
2019/06/12 00:09:54.000   39.714909167 -105.115229062  1694.0008   1   9   0.0062   0.0046   0.0118  -0.0013   0.0012  -0.0059  -3.00   65.1
2019/06/12 00:09:55.000   39.714909145 -105.115229044  1694.0057   1   9   0.0062   0.0046   0.0118  -0.0013   0.0012  -0.0059  -2.00   65.4
2019/06/12 00:09:56.000   39.714909167 -105.115229024  1694.0039   1   9   0.0065   0.0048   0.0127  -0.0010   0.0007  -0.0062  -1.00   65.7
2019/06/12 00:09:57.000   39.714909166 -105.115229038  1694.0024   1   9   0.0058   0.0041   0.0104  -0.0016   0.0017  -0.0055   0.00   65.9
2019/06/12 00:09:58.000   39.714909174 -105.115229039  1693.9988   1   9   0.0065   0.0048   0.0127  -0.0010   0.0007  -0.0062  -4.00   66.3
2019/06/12 00:09:59.000   39.714909144 -105.115229028  1694.0054   1   9   0.0062   0.0046   0.0118  -0.0013   0.0012  -0.0059  -3.00   66.9
2019/06/12 00:10:00.000   39.714909154 -105.115229029  1693.9997   1   9   0.0062   0.0046   0.0118  -0.0013   0.0012  -0.0059  -2.00   67.3
2019/06/12 00:10:01.000   39.714909168 -105.115229024  1693.9978   1   9   0.0065   0.0048   0.0127  -0.0010   0.0006  -0.0062  -1.00   67.8
2019/06/12 00:10:02.000   39.714909152 -105.115229035  1693.9974   1   9   0.0058   0.0041   0.0104  -0.0016   0.0017  -0.0055   0.00   68.1
2019/06/12 00:10:03.000   39.714909167 -105.115229026  1693.9977   1   9   0.0065   0.0048   0.0127  -0.0010   0.0006  -0.0062  -4.00   68.7
2019/06/12 00:10:04.000   39.714909186 -105.115229003  1693.9973   1   9   0.0074   0.0051   0.0119   0.0028  -0.0017  -0.0065  -3.00   61.6
2019/06/12 00:10:05.000   39.714909212 -105.115228998  1693.9910   1   9   0.0068   0.0048   0.0118   0.0017  -0.0009  -0.0062  -2.00   61.4
2019/06/12 00:10:06.000   39.714909223 -105.115229035  1693.9887   1   9   0.0069   0.0050   0.0127   0.0015  -0.0012  -0.0064  -1.00   61.3
2019/06/12 00:10:07.000   39.714909225 -105.115229037  1693.9924   1   9   0.0069   0.0046   0.0104   0.0022   0.0007  -0.0059   0.00   61.6
2019/06/12 00:10:08.000   39.714909223 -105.115229040  1693.9843   1   9   0.0071   0.0051   0.0127   0.0018  -0.0014  -0.0065  -4.00   62.0
2019/06/12 00:10:09.000   39.714909212 -105.115229039  1693.9945   1   9   0.0066   0.0047   0.0118   0.0012   0.0002  -0.0061  -3.00   61.9
2019/06/12 00:10:10.000   39.714909216 -105.115229043  1693.9919   1   9   0.0065   0.0047   0.0118   0.0008   0.0006  -0.0060  -2.00   61.9
2019/06/12 00:10:11.000   39.714909194 -105.115229043  1693.9962   1   9   0.0068   0.0050   0.0127   0.0010  -0.0008  -0.0063  -1.00   62.2
2019/06/12 00:10:12.000   39.714909152 -105.115229057  1694.0035   1   9   0.0060   0.0042   0.0104  -0.0010   0.0016  -0.0055   0.00   62.5
2019/06/12 00:10:13.000   39.714909182 -105.115229057  1693.9939   1   9   0.0067   0.0049   0.0127   0.0006  -0.0006  -0.0063  -4.00   62.8
2019/06/12 00:10:14.000   39.714909153 -105.115229054  1693.9968   1   9   0.0064   0.0046   0.0118  -0.0007   0.0009  -0.0059  -3.00   62.8
2019/06/12 00:10:15.000   39.714909123 -105.115229051  1694.0021   1   9   0.0064   0.0046   0.0118  -0.0008   0.0010  -0.0059  -2.00   62.5
2019/06/12 00:10:16.000   39.714909207 -105.115229084  1693.9951   1   9   0.0066   0.0049   0.0127   0.0002  -0.0004  -0.0062  -1.00   62.4
2019/06/12 00:10:17.000   39.714909192 -105.115229080  1693.9980   1   9   0.0057   0.0041   0.0104  -0.0016   0.0017  -0.0054   0.00   27.3
2019/06/12 00:10:18.000   39.714909164 -105.115229119  1693.9998   1   9   0.0065   0.0048   0.0127  -0.0009   0.0006  -0.0061  -4.00   29.0
2019/06/12 00:10:19.000   39.714909167 -105.115229072  1693.9979   1   9   0.0062   0.0046   0.0117  -0.0013   0.0012  -0.0059  -3.00   31.0
2019/06/12 00:10:20.000   39.714909173 -105.115229088  1694.0006   1   9   0.0062   0.0046   0.0117  -0.0013   0.0012  -0.0059  -2.00   32.9
2019/06/12 00:10:21.000   39.714909154 -105.115229103  1694.0029   1   9   0.0065   0.0048   0.0126  -0.0009   0.0006  -0.0061  -1.00   34.6
2019/06/12 00:10:22.000   39.714909158 -105.115229069  1694.0043   1   9   0.0057   0.0041   0.0103  -0.0016   0.0017  -0.0054   0.00   36.9
2019/06/12 00:10:23.000   39.714909156 -105.115229085  1694.0053   1   9   0.0065   0.0048   0.0126  -0.0009   0.0005  -0.0061  -4.00   38.4
2019/06/12 00:10:24.000   39.714909175 -105.115229088  1694.0013   1   9   0.0062   0.0046   0.0117  -0.0013   0.0012  -0.0059  -3.00   40.0
2019/06/12 00:10:25.000   39.714909183 -105.115229108  1693.9960   1   9   0.0062   0.0046   0.0117  -0.0012   0.0012  -0.0058  -2.00   42.1
2019/06/12 00:10:26.000   39.714909166 -105.115229079  1694.0032   1   9   0.0065   0.0048   0.0126  -0.0009   0.0005  -0.0061  -1.00   43.7
2019/06/12 00:10:27.000   39.714909166 -105.115229061  1694.0045   1   9   0.0057   0.0041   0.0103  -0.0016   0.0017  -0.0054   0.00   45.8
2019/06/12 00:10:28.000   39.714909167 -105.115229067  1694.0057   1   9   0.0065   0.0048   0.0126  -0.0009   0.0005  -0.0061  -4.00   47.1
2019/06/12 00:10:29.000   39.714909162 -105.115229068  1694.0072   1   9   0.0062   0.0045   0.0117  -0.0012   0.0012  -0.0058  -3.00   48.7
2019/06/12 00:10:30.000   39.714909176 -105.115229067  1694.0066   1   9   0.0062   0.0045   0.0117  -0.0012   0.0012  -0.0058  -2.00   50.3
2019/06/12 00:10:31.000   39.714909194 -105.115229061  1693.9972   1   9   0.0065   0.0048   0.0126  -0.0009   0.0005  -0.0061  -1.00   51.8
2019/06/12 00:10:32.000   39.714909151 -105.115229075  1693.9984   1   9   0.0057   0.0041   0.0103  -0.0016   0.0017  -0.0054   0.00   54.0
2019/06/12 00:10:33.000   39.714909196 -105.115229088  1693.9958   1   9   0.0065   0.0048   0.0126  -0.0009   0.0005  -0.0061  -4.00   55.4
2019/06/12 00:10:34.000   39.714909137 -105.115229029  1694.0146   1   9   0.0062   0.0045   0.0117  -0.0012   0.0011  -0.0058  -3.00   56.8
2019/06/12 00:10:35.000   39.714909205 -105.115229063  1694.0004   1   9   0.0062   0.0045   0.0117  -0.0012   0.0011  -0.0058  -2.00   58.5
2019/06/12 00:10:36.000   39.714909170 -105.115229079  1694.0012   1   9   0.0065   0.0048   0.0126  -0.0009   0.0005  -0.0061  -1.00   59.8
2019/06/12 00:10:37.000   39.714909162 -105.115229053  1694.0006   1   9   0.0057   0.0041   0.0103  -0.0016   0.0017  -0.0054   0.00   61.7
2019/06/12 00:10:38.000   39.714909186 -105.115229070  1694.0011   1   9   0.0065   0.0048   0.0126  -0.0009   0.0005  -0.0061  -4.00   62.8
2019/06/12 00:10:39.000   39.714909177 -105.115229034  1693.9998   1   9   0.0062   0.0045   0.0117  -0.0012   0.0011  -0.0058  -3.00   64.4
2019/06/12 00:10:40.000   39.714909168 -105.115229019  1694.0046   1   9   0.0062   0.0045   0.0117  -0.0012   0.0011  -0.0058  -2.00   65.7
2019/06/12 00:10:41.000   39.714909152 -105.115229042  1694.0041   1   9   0.0065   0.0048   0.0126  -0.0009   0.0005  -0.0061  -1.00   67.1
2019/06/12 00:10:42.000   39.714909168 -105.115229071  1693.9963   1   9   0.0057   0.0041   0.0103  -0.0016   0.0017  -0.0054   0.00   69.2
2019/06/12 00:10:43.000   39.714909191 -105.115229032  1693.9999   1   9   0.0065   0.0048   0.0126  -0.0009   0.0004  -0.0061  -4.00   70.6
2019/06/12 00:10:44.000   39.714909188 -105.115229069  1693.9988   1   9   0.0062   0.0045   0.0117  -0.0012   0.0011  -0.0058  -3.00   72.1
2019/06/12 00:10:45.000   39.714909184 -105.115229045  1694.0020   1   9   0.0062   0.0045   0.0117  -0.0012   0.0011  -0.0058  -2.00   72.8
2019/06/12 00:10:46.000   39.714909217 -105.115229060  1693.9960   1   9   0.0065   0.0048   0.0126  -0.0009   0.0004  -0.0061  -1.00   73.0
2019/06/12 00:10:47.000   39.714909207 -105.115229044  1694.0044   1   9   0.0057   0.0041   0.0103  -0.0016   0.0017  -0.0054   0.00   73.5
2019/06/12 00:10:48.000   39.714909193 -105.115229044  1694.0027   1   9   0.0065   0.0048   0.0126  -0.0009   0.0004  -0.0061  -4.00   73.7
2019/06/12 00:10:49.000   39.714909170 -105.115229048  1694.0140   1   9   0.0062   0.0045   0.0117  -0.0012   0.0011  -0.0058  -3.00   74.2
2019/06/12 00:10:50.000   39.714909193 -105.115229041  1694.0012   1   9   0.0062   0.0045   0.0117  -0.0012   0.0011  -0.0058  -2.00   74.5
2019/06/12 00:10:51.000   39.714909176 -105.115229048  1694.0004   1   9   0.0065   0.0048   0.0126  -0.0009   0.0004  -0.0061  -1.00   74.6
2019/06/12 00:10:52.000   39.714909190 -105.115229051  1694.0009   1   9   0.0057   0.0041   0.0103  -0.0016   0.0017  -0.0054   0.00   74.4
2019/06/12 00:10:53.000   39.714909197 -105.115229064  1693.9963   1   9   0.0065   0.0048   0.0126  -0.0009   0.0004  -0.0061  -4.00   74.5
2019/06/12 00:10:54.000   39.714909198 -105.115229066  1693.9967   1   9   0.0062   0.0045   0.0117  -0.0012   0.0011  -0.0058  -3.00   74.4
2019/06/12 00:10:55.000   39.714909174 -105.115229055  1693.9978   1   9   0.0062   0.0045   0.0117  -0.0012   0.0011  -0.0058  -2.00   74.4
2019/06/12 00:10:56.000   39.714909188 -105.115229053  1693.9979   1   9   0.0065   0.0048   0.0126  -0.0008   0.0004  -0.0061  -1.00   74.3
2019/06/12 00:10:57.000   39.714909189 -105.115229040  1694.0013   1   9   0.0057   0.0041   0.0103  -0.0015   0.0016  -0.0054   0.00   74.2
2019/06/12 00:10:58.000   39.714909192 -105.115229054  1693.9960   1   9   0.0065   0.0048   0.0126  -0.0008   0.0004  -0.0061  -4.00   74.1
2019/06/12 00:10:59.000   39.714909207 -105.115229062  1693.9961   1   9   0.0062   0.0045   0.0117  -0.0012   0.0011  -0.0058  -3.00   74.2
2019/06/12 00:11:00.000   39.714909178 -105.115229057  1693.9995   1   9   0.0062   0.0045   0.0117  -0.0012   0.0011  -0.0058  -2.00   73.8
2019/06/12 00:11:01.000   39.714909205 -105.115229048  1693.9986   1   9   0.0065   0.0048   0.0126  -0.0008   0.0004  -0.0061  -1.00   73.9
2019/06/12 00:11:02.000   39.714909188 -105.115229074  1693.9950   1   9   0.0057   0.0041   0.0103  -0.0015   0.0016  -0.0054   0.00   73.9
2019/06/12 00:11:03.000   39.714909205 -105.115229035  1693.9935   1   9   0.0085   0.0058   0.0165  -0.0026   0.0019  -0.0096  -4.00   70.5
2019/06/12 00:11:04.000   39.714909211 -105.115229060  1693.9939   1   9   0.0072   0.0053   0.0139  -0.0019  -0.0013  -0.0077  -3.00   70.3
2019/06/12 00:11:05.000   39.714909216 -105.115229049  1693.9955   1   9   0.0069   0.0053   0.0134  -0.0015  -0.0020  -0.0072  -2.00   70.1
2019/06/12 00:11:06.000   39.714909256 -105.115229038  1693.9885   1   9   0.0085   0.0058   0.0165  -0.0026   0.0019  -0.0096  -1.00   70.1
2019/06/12 00:11:07.000   39.714909206 -105.115229031  1693.9925   1   9   0.0066   0.0046   0.0120  -0.0023   0.0020  -0.0069   0.00   70.2
2019/06/12 00:11:08.000   39.714909216 -105.115229028  1693.9898   1   9   0.0071   0.0051   0.0139  -0.0016   0.0011  -0.0073  -4.00   70.2
2019/06/12 00:11:09.000   39.714909221 -105.115229038  1693.9910   1   9   0.0067   0.0048   0.0126  -0.0017   0.0014  -0.0067  -3.00   70.3
2019/06/12 00:11:10.000   39.714909212 -105.115229030  1693.9913   1   9   0.0066   0.0047   0.0124  -0.0016   0.0013  -0.0065  -2.00   70.3
2019/06/12 00:11:11.000   39.714909215 -105.115229068  1693.9865   1   9   0.0068   0.0050   0.0133  -0.0013   0.0008  -0.0067  -1.00   70.1
2019/06/12 00:11:12.000   39.714909209 -105.115229056  1693.9855   1   9   0.0060   0.0043   0.0108  -0.0018   0.0017  -0.0058   0.00   69.7
2019/06/12 00:11:13.000   39.714909215 -105.115229067  1693.9861   1   9   0.0067   0.0049   0.0131  -0.0011   0.0007  -0.0065  -4.00   69.5
2019/06/12 00:11:14.000   39.714909210 -105.115229037  1693.9862   1   9   0.0064   0.0046   0.0121  -0.0014   0.0012  -0.0062  -3.00   69.6
2019/06/12 00:11:15.000   39.714909206 -105.115229042  1693.9820   1   9   0.0064   0.0046   0.0121  -0.0014   0.0012  -0.0061  -2.00   69.5
2019/06/12 00:11:16.000   39.714909276 -105.115229111  1693.9685   1   9   0.0066   0.0049   0.0129  -0.0011   0.0012  -0.0063  -1.00   24.2
2019/06/12 00:11:17.000   39.714909275 -105.115229092  1693.9718   1   9   0.0069   0.0044   0.0124  -0.0029   0.0037  -0.0074   0.00   26.6
2019/06/12 00:11:18.000   39.714909328 -105.115229102  1693.9561   1   8   0.0083   0.0059   0.0160  -0.0041   0.0056  -0.0094  -4.00   31.0
2019/06/12 00:11:19.000   39.714909573 -105.115229546  1694.1538   1   8   0.0077   0.0055   0.0146  -0.0038   0.0051  -0.0085  -3.00   33.1
2019/06/12 00:11:20.000   39.714913097 -105.115235515  1694.5647   1   8   0.0075   0.0054   0.0143  -0.0037   0.0050  -0.0083  -2.00   35.9
2019/06/12 00:11:21.000   39.714917819 -105.115244173  1694.5854   1   8   0.0078   0.0057   0.0152  -0.0036   0.0049  -0.0086  -1.00   38.2
2019/06/12 00:11:22.000   39.714921758 -105.115252936  1694.5580   1   8   0.0069   0.0050   0.0126  -0.0035   0.0046  -0.0075   0.00   40.3
2019/06/12 00:11:23.000   39.714924033 -105.115256044  1694.5577   1   8   0.0077   0.0057   0.0150  -0.0035   0.0048  -0.0084  -4.00   41.9
2019/06/12 00:11:24.000   39.714923256 -105.115256864  1694.6012   1   9   0.0088   0.0060   0.0167  -0.0050   0.0068  -0.0104  -3.00   44.1
2019/06/12 00:11:25.000   39.714923191 -105.115256693  1694.5864   1   9   0.0081   0.0057   0.0153  -0.0042   0.0058  -0.0092  -2.00   47.2
2019/06/12 00:11:26.000   39.714923543 -105.115256247  1694.5833   1   8   0.0094   0.0063   0.0180  -0.0052   0.0071  -0.0111  -1.00   49.5
2019/06/12 00:11:27.000   39.714923667 -105.115256011  1694.5696   1   8   0.0080   0.0055   0.0147  -0.0046   0.0062  -0.0093   0.00   51.8
2019/06/12 00:11:28.000   39.714923700 -105.115255184  1694.5878   1   9   0.0094   0.0063   0.0180  -0.0052   0.0071  -0.0111  -4.00   53.6
2019/06/12 00:11:29.000   39.714923484 -105.115254689  1694.5761   1   9   0.0082   0.0055   0.0156  -0.0041   0.0056  -0.0094  -3.00   53.6
2019/06/12 00:11:30.000   39.714922881 -105.115254011  1694.6028   1   9   0.0077   0.0053   0.0147  -0.0028   0.0036  -0.0086  -2.00   53.6
2019/06/12 00:11:31.000   39.714922750 -105.115253638  1694.6094   1   9   0.0077   0.0055   0.0150  -0.0021   0.0026  -0.0084  -1.00   53.8
2019/06/12 00:11:32.000   39.714922216 -105.115254325  1694.5813   1   9   0.0066   0.0050   0.0123  -0.0025   0.0021  -0.0070   0.00   57.2
2019/06/12 00:11:33.000   39.714921553 -105.115254498  1694.5931   1   9   0.0088   0.0061   0.0156  -0.0035  -0.0018  -0.0083  -4.00  361.8
2019/06/12 00:11:34.000   39.714921554 -105.115255238  1694.5905   1   9   0.0076   0.0054   0.0136  -0.0030   0.0014  -0.0072  -3.00  357.2
2019/06/12 00:11:35.000   39.714921289 -105.115255968  1694.5843   1   9   0.0076   0.0052   0.0134  -0.0029   0.0013  -0.0065  -2.00  369.3
2019/06/12 00:11:36.000   39.714921797 -105.115256134  1694.5752   1   8   0.0077   0.0054   0.0141  -0.0026   0.0006  -0.0066  -1.00  375.2
2019/06/12 00:11:37.000   39.714921902 -105.115256240  1694.5921   1   8   0.0067   0.0046   0.0114  -0.0027   0.0021  -0.0059   0.00  368.4
2019/06/12 00:11:38.000   39.714922537 -105.115256536  1694.5916   1   8   0.0072   0.0051   0.0133  -0.0017  -0.0011  -0.0062  -4.00  114.5
2019/06/12 00:11:39.000   39.714922662 -105.115256732  1694.5869   1   8   0.0076   0.0048   0.0124  -0.0024  -0.0010  -0.0053  -3.00  128.4
2019/06/12 00:11:40.000   39.714774438 -105.115314742  1667.6026   1   8   0.0075   0.0053   0.0131  -0.0030   0.0031  -0.0064  -2.00  229.0
2019/06/12 00:11:41.000   39.714592597 -105.115388886  1633.2813   1   8   0.0076   0.0055   0.0139  -0.0028   0.0031  -0.0067  -1.00   24.2
2019/06/12 00:11:42.000   39.714921154 -105.115255118  1694.4178   1   8   0.0085   0.0056   0.0150  -0.0049   0.0062  -0.0093   0.00   25.2
2019/06/12 00:11:43.000   39.714921690 -105.115255236  1694.4990   1   9   0.0090   0.0061   0.0167  -0.0045   0.0059  -0.0095  -4.00   25.3
2019/06/12 00:11:44.000   39.714922437 -105.115254835  1694.1922   1   8   0.0086   0.0056   0.0158  -0.0043   0.0055  -0.0094  -3.00   25.8
2019/06/12 00:11:45.000   39.714922418 -105.115254324  1694.6210   1   8   0.0083   0.0054   0.0153  -0.0039   0.0050  -0.0090  -2.00   26.4
2019/06/12 00:11:46.000   39.714923039 -105.115254845  1694.2767   1   8   0.0086   0.0055   0.0162  -0.0037   0.0049  -0.0095  -1.00    7.1
2019/06/12 00:11:47.000   39.714922548 -105.115254035  1694.5636   1   8   0.0074   0.0047   0.0131  -0.0035   0.0044  -0.0079   0.00   12.0
2019/06/12 00:11:48.000   39.714922904 -105.115253987  1694.3237   1   9   0.0086   0.0054   0.0161  -0.0035   0.0047  -0.0091  -4.00   12.9
2019/06/12 00:11:49.000   39.714922204 -105.115255497  1694.1851   1   9   0.0077   0.0050   0.0141  -0.0030   0.0039  -0.0078  -3.00   11.1
2019/06/12 00:11:50.000   39.714921963 -105.115256324  1693.8517   1   9   0.0077   0.0051   0.0144  -0.0023   0.0027  -0.0081  -2.00    8.6
2019/06/12 00:11:51.000   39.714921819 -105.115256087  1693.9591   1   8   0.0094   0.0058   0.0183  -0.0010  -0.0012  -0.0108  -1.00    7.0
2019/06/12 00:11:52.000   39.714922111 -105.115255821  1693.9090   1   8   0.0072   0.0049   0.0134  -0.0016   0.0005  -0.0079   0.00    5.3
2019/06/12 00:11:53.000   39.714922053 -105.115255719  1693.9716   1   8   0.0078   0.0057   0.0151   0.0022  -0.0036  -0.0082  -4.00    4.3
2019/06/12 00:11:54.000   39.714922098 -105.115255737  1693.9178   1   9   0.0072   0.0053   0.0138   0.0018  -0.0032  -0.0075  -3.00    3.5
2019/06/12 00:11:55.000   39.714922266 -105.115256043  1693.9446   2   9   0.0075   0.0054   0.0146  -0.0018   0.0016  -0.0076  -2.00    3.0
2019/06/12 00:11:56.000   39.714922362 -105.115256036  1693.9032   2   9   0.0077   0.0055   0.0151  -0.0018   0.0018  -0.0076  -1.00    2.7
2019/06/12 00:11:57.000   39.714922306 -105.115256031  1693.9766   1   9   0.0062   0.0044   0.0112  -0.0015  -0.0006  -0.0060   0.00   14.7
2019/06/12 00:11:58.000   39.714922320 -105.115256053  1693.9455   1   9   0.0069   0.0051   0.0134  -0.0007  -0.0017  -0.0066  -4.00   15.5
2019/06/12 00:11:59.000   39.714922440 -105.115256160  1693.9450   1   9   0.0077   0.0050   0.0146  -0.0028   0.0033  -0.0084  -3.00   16.6
2019/06/12 00:12:00.000   39.714921909 -105.115255664  1694.0556   1   9   0.0160   0.0117   0.0307  -0.0125   0.0172  -0.0212  -2.00   34.7
2019/06/12 00:12:01.000   39.714921851 -105.115255993  1694.0132   1   9   0.0129   0.0124   0.0274  -0.0098   0.0159  -0.0170  -1.00   25.4
2019/06/12 00:12:02.000   39.714922077 -105.115256178  1693.9702   1   7   0.0125   0.0113   0.0263  -0.0094   0.0152  -0.0167   0.00   31.8
2019/06/12 00:12:03.000   39.714923120 -105.115256454  1693.8340   2   7   0.0193   0.0131   0.0513  -0.0049   0.0049  -0.0284  -4.00    0.0
2019/06/12 00:12:04.000   39.714921971 -105.115259217  1693.8950   2   7   0.0172   0.0123   0.0414  -0.0063   0.0098  -0.0238  -3.00    0.0
2019/06/12 00:12:05.000   39.714923875 -105.115261610  1693.9055   2   6   0.0424   0.0295   0.0904  -0.0293   0.0442  -0.0602  -2.00    0.0
2019/06/12 00:12:06.000   39.714924541 -105.115261086  1693.9298   2   5   0.0399   0.0307   0.0784  -0.0280   0.0371  -0.0536  -1.00    0.0
2019/06/12 00:12:07.000   39.714929025 -105.115257927  1692.6812   2   5   0.1437   0.1100   0.4582   0.1188  -0.2168  -0.2556   0.00    0.0
2019/06/12 00:12:18.000   39.714935692 -105.115264256  1695.1659   2   4   1.4868   0.9556   2.0673  -0.9204   1.0869  -1.4087  -4.00    0.0
2019/06/12 00:12:19.000   39.714928316 -105.115262663  1695.6586   2   5   1.4372   0.9048   2.0086  -0.8518   1.0182  -1.3368  -3.00    0.0
2019/06/12 00:12:20.000   39.714926600 -105.115264870  1695.6283   2   5   1.6130   0.8731   1.9148  -0.8550   0.8799  -1.1531  -2.00    0.0
2019/06/12 00:12:21.000   39.714929008 -105.115269784  1694.9082   2   4   1.2635   0.8781   2.0262  -0.7084   1.0331  -1.3741  -1.00    0.0
2019/06/12 00:12:22.000   39.714929282 -105.115267871  1695.1195   2   5   1.2952   0.8631   2.1804  -0.7029   1.0393  -1.4856   0.00    0.0
2019/06/12 00:12:23.000   39.714930429 -105.115269258  1695.0956   2   5   1.2408   0.8643   2.0524  -0.6933   1.0260  -1.3915  -4.00    0.0
2019/06/12 00:12:24.000   39.714936179 -105.115271420  1694.1237   2   4   1.4833   0.9419   2.4535  -0.8639   1.2359  -1.7403  -3.00    0.0
2019/06/12 00:12:25.000   39.714932778 -105.115268417  1694.9737   2   4   1.4683   0.9136   2.2326  -0.6528   1.0517  -1.6048  -2.00    0.0
2019/06/12 00:12:26.000   39.714927922 -105.115271473  1695.7492   2   5   1.4184   0.7749   2.2415  -0.7940   1.0089  -1.6398  -1.00    0.0
2019/06/12 00:12:27.000   39.714927915 -105.115267987  1695.6404   2   6   1.2049   0.7583   2.0026  -0.7248   0.9376  -1.3954   0.00    0.0
2019/06/12 00:12:28.000   39.714929733 -105.115270428  1695.2823   2   5   1.2404   0.7995   2.0168  -0.7768   0.9811  -1.4197  -4.00    0.0
2019/06/12 00:12:38.000   39.714909004 -105.115228705  1693.9948   2   6   0.0152   0.0087   0.0220  -0.0049   0.0087  -0.0126  -4.00    0.0
2019/06/12 00:12:39.000   39.714909059 -105.115228701  1693.9956   2   6   0.0143   0.0083   0.0204  -0.0049   0.0086  -0.0117  -3.00    0.0
2019/06/12 00:12:40.000   39.714908982 -105.115228731  1693.9973   1   6   0.0120   0.0054   0.0143   0.0019   0.0033  -0.0090   3.00    3.4
2019/06/12 00:12:41.000   39.714909092 -105.115228676  1694.0022   1   6   0.0127   0.0057   0.0156   0.0023   0.0033  -0.0098   4.00    3.3
2019/06/12 00:12:42.000   39.714909082 -105.115228655  1694.0028   1   6   0.0100   0.0048   0.0123  -0.0011   0.0033  -0.0079   0.00    3.2
2019/06/12 00:12:43.000   39.714909025 -105.115228714  1693.9958   1   7   0.0099   0.0054   0.0154  -0.0030   0.0038  -0.0092   1.00    6.4
2019/06/12 00:12:44.000   39.714909053 -105.115228728  1693.9981   1   8   0.0079   0.0050   0.0141  -0.0022   0.0036  -0.0083   2.00    5.9
2019/06/12 00:12:45.000   39.714909034 -105.115228723  1693.9974   1   8   0.0079   0.0050   0.0141  -0.0022   0.0036  -0.0083   3.00    5.7
2019/06/12 00:12:46.000   39.714909008 -105.115228712  1694.0001   1   8   0.0080   0.0051   0.0153  -0.0030   0.0040  -0.0087   4.00    6.8
2019/06/12 00:12:47.000   39.714909013 -105.115228727  1693.9982   1   8   0.0068   0.0044   0.0122  -0.0028   0.0036  -0.0072   0.00    6.6
2019/06/12 00:12:48.000   39.714909074 -105.115228701  1693.9906   1   8   0.0080   0.0051   0.0153  -0.0030   0.0040  -0.0087   1.00    6.3
2019/06/12 00:12:49.000   39.714909029 -105.115228730  1693.9986   1   8   0.0075   0.0048   0.0140  -0.0029   0.0038  -0.0081   2.00    6.0
2019/06/12 00:12:50.000   39.714908980 -105.115228733  1694.0040   1   8   0.0075   0.0048   0.0140  -0.0029   0.0038  -0.0081   3.00    5.8
2019/06/12 00:12:51.000   39.714909059 -105.115228737  1693.9955   1   8   0.0080   0.0051   0.0153  -0.0030   0.0040  -0.0087   4.00    5.6
2019/06/12 00:12:52.000   39.714909014 -105.115228745  1694.0027   1   8   0.0068   0.0044   0.0122  -0.0028   0.0036  -0.0072   0.00    5.4
2019/06/12 00:12:53.000   39.714909071 -105.115228765  1693.9928   1   8   0.0080   0.0052   0.0154  -0.0031   0.0041  -0.0088   1.00    3.7
2019/06/12 00:12:54.000   39.714909061 -105.115228769  1693.9920   1   8   0.0075   0.0049   0.0142  -0.0030   0.0040  -0.0082   2.00    3.6
2019/06/12 00:12:55.000   39.714909172 -105.115228904  1693.9643   1   8   0.0079   0.0053   0.0150  -0.0038   0.0051  -0.0089   3.00   10.2
2019/06/12 00:12:56.000   39.714909174 -105.115228862  1693.9633   1   8   0.0084   0.0056   0.0163  -0.0038   0.0053  -0.0095   4.00    9.9
2019/06/12 00:12:57.000   39.714909154 -105.115228856  1693.9670   1   8   0.0073   0.0050   0.0134  -0.0038   0.0050  -0.0082   0.00    9.7
2019/06/12 00:12:58.000   39.714909151 -105.115228883  1693.9697   1   8   0.0085   0.0056   0.0164  -0.0039   0.0054  -0.0096   1.00    9.3
2019/06/12 00:12:59.000   39.714909165 -105.115228884  1693.9687   1   8   0.0080   0.0054   0.0152  -0.0039   0.0053  -0.0091   2.00    9.1
2019/06/12 00:13:00.000   39.714909164 -105.115228910  1693.9670   1   8   0.0081   0.0054   0.0153  -0.0040   0.0054  -0.0092   3.00    8.9
2019/06/12 00:13:01.000   39.714909200 -105.115228882  1693.9658   1   8   0.0085   0.0057   0.0165  -0.0041   0.0056  -0.0098   4.00    8.6
2019/06/12 00:13:02.000   39.714909192 -105.115228909  1693.9666   1   8   0.0075   0.0051   0.0137  -0.0040   0.0054  -0.0085   0.00    8.4
2019/06/12 00:13:03.000   39.714909223 -105.115228875  1693.9647   1   8   0.0086   0.0058   0.0167  -0.0042   0.0058  -0.0099   1.00    8.1
2019/06/12 00:13:04.000   39.714909205 -105.115228876  1693.9674   1   8   0.0082   0.0056   0.0156  -0.0042   0.0058  -0.0094   2.00    7.9
2019/06/12 00:13:05.000   39.714909190 -105.115228861  1693.9673   1   8   0.0083   0.0056   0.0158  -0.0043   0.0059  -0.0096   3.00    7.6
2019/06/12 00:13:06.000   39.714909182 -105.115228857  1693.9660   1   8   0.0088   0.0060   0.0170  -0.0045   0.0062  -0.0102   4.00    7.4
2019/06/12 00:13:07.000   39.714909197 -105.115228872  1693.9672   1   8   0.0078   0.0054   0.0144  -0.0045   0.0061  -0.0091   0.00    7.2
2019/06/12 00:13:08.000   39.714909170 -105.115228889  1693.9686   1   8   0.0090   0.0062   0.0174  -0.0048   0.0066  -0.0105   1.00    6.9
2019/06/12 00:13:09.000   39.714909172 -105.115228864  1693.9667   1   8   0.0087   0.0060   0.0165  -0.0049   0.0067  -0.0102   2.00    6.7
2019/06/12 00:13:10.000   39.714909164 -105.115228871  1693.9683   1   8   0.0088   0.0062   0.0169  -0.0051   0.0071  -0.0105   3.00    6.5
2019/06/12 00:13:11.000   39.714909172 -105.115228879  1693.9680   1   8   0.0095   0.0066   0.0183  -0.0054   0.0076  -0.0113   4.00    6.2
2019/06/12 00:13:12.000   39.714909159 -105.115228867  1693.9723   1   8   0.0087   0.0063   0.0163  -0.0057   0.0078  -0.0105   0.00    6.0
2019/06/12 00:13:13.000   39.714909198 -105.115228912  1693.9625   1   8   0.0102   0.0072   0.0198  -0.0064   0.0089  -0.0125   1.00    5.8
2019/06/12 00:13:14.000   39.714909180 -105.115228913  1693.9660   1   8   0.0104   0.0076   0.0200  -0.0071   0.0099  -0.0130   2.00    5.6
2019/06/12 00:13:15.000   39.714909265 -105.115228970  1693.9535   1   8   0.0117   0.0087   0.0225  -0.0086   0.0119  -0.0150   3.00    5.4
2019/06/12 00:13:16.000   39.714909234 -105.115228908  1693.9639   1   8   0.0154   0.0117   0.0300  -0.0121   0.0169  -0.0204   4.00    5.2
2019/06/12 00:13:17.000   39.714908923 -105.115228592  1694.0355   1   8   0.0064   0.0047   0.0120  -0.0043   0.0059  -0.0078   0.00    8.2
2019/06/12 00:13:18.000   39.714909061 -105.115228735  1694.0037   1   7   0.0109   0.0083   0.0212  -0.0086   0.0120  -0.0144  -4.00   15.6
2019/06/12 00:13:19.000   39.714909035 -105.115228661  1694.0166   1   7   0.0102   0.0078   0.0197  -0.0081   0.0113  -0.0135  -3.00   15.1
2019/06/12 00:13:20.000   39.714909157 -105.115228834  1693.9887   1   7   0.0102   0.0078   0.0197  -0.0081   0.0112  -0.0135  -2.00   14.4
2019/06/12 00:13:21.000   39.714909167 -105.115228831  1693.9799   1   7   0.0108   0.0082   0.0211  -0.0085   0.0119  -0.0144  -1.00   14.2
2019/06/12 00:13:22.000   39.714909133 -105.115228795  1693.9843   1   7   0.0093   0.0071   0.0176  -0.0074   0.0102  -0.0121   0.00   13.7
2019/06/12 00:13:23.000   39.714909143 -105.115228879  1693.9769   1   8   0.0079   0.0058   0.0154  -0.0054   0.0076  -0.0099  -4.00   13.3
2019/06/12 00:13:24.000   39.714909266 -105.115229009  1693.9517   1   8   0.0078   0.0065   0.0159  -0.0059   0.0087  -0.0101  -3.00   12.9
2019/06/12 00:13:25.000   39.714909181 -105.115228909  1693.9674   1   8   0.0075   0.0061   0.0151  -0.0055   0.0081  -0.0096  -2.00   12.3
2019/06/12 00:13:26.000   39.714909216 -105.115228962  1693.9597   1   8   0.0077   0.0061   0.0155  -0.0054   0.0079  -0.0097  -1.00   12.0
2019/06/12 00:13:27.000   39.714909143 -105.115228925  1693.9712   1   8   0.0071   0.0056   0.0136  -0.0051   0.0074  -0.0089   0.00   11.5
2019/06/12 00:13:28.000   39.714909209 -105.115228957  1693.9579   1   8   0.0077   0.0062   0.0156  -0.0054   0.0080  -0.0097  -4.00   11.1
2019/06/12 00:13:29.000   39.714909198 -105.115228917  1693.9602   1   8   0.0073   0.0060   0.0147  -0.0052   0.0077  -0.0093  -3.00   11.0
2019/06/12 00:13:30.000   39.714909166 -105.115228926  1693.9721   1   8   0.0074   0.0060   0.0148  -0.0053   0.0078  -0.0094  -2.00   10.8
2019/06/12 00:13:31.000   39.714909214 -105.115228963  1693.9551   1   8   0.0081   0.0064   0.0161  -0.0057   0.0083  -0.0102  -1.00   10.6
2019/06/12 00:13:32.000   39.714909290 -105.115229022  1693.9437   1   8   0.0095   0.0083   0.0191  -0.0080   0.0117  -0.0128   0.00   10.3
2019/06/12 00:13:33.000   39.714909269 -105.115229001  1693.9487   1   7   0.0111   0.0097   0.0229  -0.0093   0.0137  -0.0151  -4.00   10.0
2019/06/12 00:13:34.000   39.714909338 -105.115229179  1693.9096   1   7   0.0116   0.0129   0.0268  -0.0111   0.0177  -0.0168  -3.00    5.8
2019/06/12 00:13:35.000   39.714909255 -105.115228959  1693.9369   1   7   0.0115   0.0126   0.0262  -0.0109   0.0172  -0.0165  -2.00    5.8
2019/06/12 00:13:36.000   39.714909270 -105.115229113  1693.9336   1   7   0.0118   0.0121   0.0261  -0.0107   0.0167  -0.0167  -1.00    5.8
2019/06/12 00:13:37.000   39.714909275 -105.115229126  1693.9270   1   7   0.0102   0.0106   0.0227  -0.0094   0.0147  -0.0145   0.00   10.6
2019/06/12 00:13:38.000   39.714909208 -105.115229034  1693.9445   1   9   0.0096   0.0097   0.0210  -0.0082   0.0129  -0.0131  -4.00   11.2
2019/06/12 00:13:39.000   39.714909181 -105.115228977  1693.9508   1   9   0.0083   0.0084   0.0180  -0.0068   0.0109  -0.0111  -3.00   11.8
2019/06/12 00:13:40.000   39.714909120 -105.115228878  1693.9737   1   9   0.0082   0.0071   0.0168  -0.0063   0.0095  -0.0107  -2.00   12.7
2019/06/12 00:13:41.000   39.714909192 -105.115228958  1693.9543   1   9   0.0089   0.0079   0.0187  -0.0071   0.0107  -0.0118  -1.00   13.4
2019/06/12 00:13:42.000   39.714909160 -105.115228759  1693.9872   1   7   0.0065   0.0056   0.0128  -0.0047   0.0071  -0.0080   0.00   14.2
2019/06/12 00:13:43.000   39.714909188 -105.115228830  1693.9879   1   7   0.0069   0.0062   0.0143  -0.0048   0.0074  -0.0084  -4.00   15.1
2019/06/12 00:13:44.000   39.714909159 -105.115229022  1693.9527   1   7   0.0065   0.0059   0.0135  -0.0046   0.0072  -0.0080  -3.00   15.6
2019/06/12 00:13:45.000   39.714909041 -105.115228816  1693.9904   1   7   0.0064   0.0058   0.0131  -0.0046   0.0070  -0.0078  -2.00   15.9
2019/06/12 00:13:46.000   39.714909210 -105.115228930  1693.9589   1   7   0.0066   0.0060   0.0137  -0.0046   0.0070  -0.0080  -1.00   16.3
2019/06/12 00:13:47.000   39.714909143 -105.115228867  1693.9767   1   8   0.0051   0.0043   0.0099  -0.0030   0.0046  -0.0058   0.00   16.8
2019/06/12 00:13:48.000   39.714909123 -105.115228883  1693.9712   1   8   0.0057   0.0048   0.0116  -0.0031   0.0049  -0.0064  -4.00   17.2
2019/06/12 00:13:49.000   39.714909110 -105.115228824  1693.9761   1   8   0.0052   0.0041   0.0102  -0.0025   0.0039  -0.0056  -3.00   17.5
2019/06/12 00:13:50.000   39.714909155 -105.115228871  1693.9729   1   8   0.0052   0.0039   0.0101  -0.0026   0.0036  -0.0057  -2.00    9.8
2019/06/12 00:13:51.000   39.714909165 -105.115228850  1693.9760   1   8   0.0055   0.0041   0.0107  -0.0025   0.0035  -0.0059  -1.00   10.4
2019/06/12 00:13:52.000   39.714909106 -105.115228861  1693.9694   1   8   0.0049   0.0038   0.0092  -0.0024   0.0038  -0.0052   0.00   11.1
2019/06/12 00:13:53.000   39.714909148 -105.115228868  1693.9678   1   8   0.0055   0.0042   0.0107  -0.0022   0.0037  -0.0057  -4.00   11.7
2019/06/12 00:13:54.000   39.714909159 -105.115228884  1693.9681   1   8   0.0053   0.0041   0.0101  -0.0022   0.0037  -0.0054  -3.00   12.2
2019/06/12 00:13:55.000   39.714909167 -105.115228889  1693.9684   1   8   0.0053   0.0041   0.0100  -0.0022   0.0037  -0.0054  -2.00   12.6
2019/06/12 00:13:56.000   39.714909132 -105.115228897  1693.9667   1   8   0.0056   0.0043   0.0107  -0.0021   0.0037  -0.0057  -1.00   13.0
2019/06/12 00:13:57.000   39.714909140 -105.115228862  1693.9787   1   8   0.0051   0.0039   0.0092  -0.0024   0.0039  -0.0052   0.00   13.1
2019/06/12 00:13:58.000   39.714909104 -105.115228824  1693.9822   1   8   0.0059   0.0045   0.0110  -0.0024   0.0040  -0.0059  -4.00   13.4
2019/06/12 00:13:59.000   39.714909202 -105.115228893  1693.9608   1   8   0.0057   0.0044   0.0103  -0.0025   0.0041  -0.0056  -3.00    6.8
2019/06/12 00:14:00.000   39.714909270 -105.115228854  1693.9634   1   8   0.0058   0.0044   0.0103  -0.0025   0.0041  -0.0056  -2.00    7.7
2019/06/12 00:14:01.000   39.714909118 -105.115228855  1693.9721   1   7   0.0071   0.0057   0.0125  -0.0036   0.0059  -0.0068  -1.00   12.4
2019/06/12 00:14:02.000   39.714909144 -105.115229083  1693.9391   1   7   0.0068   0.0066   0.0126  -0.0025   0.0077  -0.0058   0.00   23.8
2019/06/12 00:14:03.000   39.714909129 -105.115229084  1693.9438   1   7   0.0077   0.0074   0.0140  -0.0019   0.0080  -0.0062  -4.00   23.7
2019/06/12 00:14:04.000   39.714909172 -105.115229077  1693.9468   1   7   0.0079   0.0074   0.0135   0.0010   0.0081  -0.0056  -3.00   23.6
