% program   : RTKPOST ver.demo5 b31
% inp file  : H:\Data\Colorado\2019-0611\Joe_M600_PPK_Test_20190611_Ricoh_JPGs\CWW_PPK\2019\0612\GPS\UAS\GP000639.obs
% inp file  : H:\Data\Colorado\2019-0611\Joe_M600_PPK_Test_20190611_Ricoh_JPGs\CWW_PPK\2019\CTMC\ctmc1620.19o
% inp file  : H:\Data\Colorado\2019-0611\Joe_M600_PPK_Test_20190611_Ricoh_JPGs\CWW_PPK\2019\0612\GPS\UAS\GP000639.gnav
% inp file  : H:\Data\Colorado\2019-0611\Joe_M600_PPK_Test_20190611_Ricoh_JPGs\CWW_PPK\2019\0612\GPS\UAS\GP000639.nav
% inp file  : H:\Data\Colorado\2019-0611\Joe_M600_PPK_Test_20190611_Ricoh_JPGs\CWW_PPK\2019\CTMC\igr20572.sp3
% obs start : 2019/06/12 00:06:39.5 UTC (week2057 259617.5s)
% obs end   : 2019/06/12 01:03:09.0 UTC (week2057 263007.0s)
% pos mode  : kinematic
% freqs     : L1+L2
% solution  : combined
% elev mask : 10.0 deg
% dynamics  : on
% tidecorr  : off
% ionos opt : broadcast
% tropo opt : saastamoinen
% ephemeris : broadcast
% navi sys  : gps glonass sbas
% amb res   : fix and hold
% amb glo   : auto calib
% val thres : 3.0
% antenna1  :                       ( 0.0000  0.0000  0.0000)
% antenna2  : TRM55971.00     NONE  ( 0.0000  0.0000  0.0000)
% ref pos   : 39.721525874 -105.192871000  1819.8362
%
% (lat/lon/height=WGS84/ellipsoidal,Q=1:fix,2:float,3:sbas,4:dgps,5:single,6:ppp,ns=# of satellites)
%  UTC                   latitude(deg) longitude(deg)  height(m)   Q  ns   sdn(m)   sde(m)   sdu(m)  sdne(m)  sdeu(m)  sdun(m) age(s)  ratio
2019/06/12 00:06:39.500   39.714896632 -105.115235229  1692.7797   2   5   0.0452   0.0578   0.1152   0.0270  -0.0365  -0.0580  -2.50    0.0
2019/06/12 00:06:40.000   39.714900481 -105.115233201  1693.0851   2   5   0.0132   0.0545   0.0893   0.0223  -0.0273  -0.0427  -2.00    0.0
2019/06/12 00:06:54.000   39.714909166 -105.115229106  1694.0099   1  12   0.0070   0.0046   0.0139  -0.0025   0.0034  -0.0078   2.00    4.8
2019/06/12 00:06:55.000   39.714909129 -105.115229103  1694.0185   1  12   0.0070   0.0046   0.0139  -0.0026   0.0035  -0.0079   3.00    4.8
2019/06/12 00:06:56.000   39.714909126 -105.115229125  1694.0195   1  12   0.0076   0.0049   0.0152  -0.0027   0.0037  -0.0085   4.00    4.7
2019/06/12 00:06:57.000   39.714909167 -105.115229111  1694.0115   1  12   0.0072   0.0045   0.0129  -0.0032   0.0040  -0.0079   0.00    4.7
2019/06/12 00:06:58.000   39.714909174 -105.115229147  1694.0097   1   8   0.0083   0.0052   0.0158  -0.0033   0.0042  -0.0093   1.00    4.7
2019/06/12 00:06:59.000   39.714908000 -105.115229047  1693.2814   2  10   0.0230   0.0538   0.0424   0.0204  -0.0226  -0.0171  -3.00    0.0
2019/06/12 00:07:00.000   39.714908014 -105.115229036  1693.2764   2  10   0.0231   0.0538   0.0425   0.0204  -0.0226  -0.0171  -2.00    0.0
2019/06/12 00:07:01.000   39.714908019 -105.115229010  1693.2685   2  12   0.0232   0.0538   0.0429   0.0204  -0.0226  -0.0173  -1.00    0.0
2019/06/12 00:07:02.000   39.714908023 -105.115229038  1693.2634   2  12   0.0230   0.0537   0.0421   0.0204  -0.0227  -0.0169   0.00    0.0
2019/06/12 00:07:03.000   39.714908035 -105.115229064  1693.2547   2  12   0.0234   0.0539   0.0431   0.0204  -0.0226  -0.0174  -4.00    0.0
2019/06/12 00:07:04.000   39.714908016 -105.115229056  1693.2584   2  12   0.0233   0.0539   0.0428   0.0204  -0.0227  -0.0172  -3.00    0.0
2019/06/12 00:07:05.000   39.714908023 -105.115229078  1693.2520   2  12   0.0234   0.0539   0.0429   0.0204  -0.0226  -0.0173  -2.00    0.0
2019/06/12 00:07:06.000   39.714907996 -105.115229066  1693.2535   2  12   0.0236   0.0540   0.0433   0.0204  -0.0226  -0.0175  -1.00    0.0
2019/06/12 00:07:07.000   39.714907988 -105.115229075  1693.2534   2  12   0.0234   0.0540   0.0426   0.0204  -0.0227  -0.0171   0.00    0.0
2019/06/12 00:07:08.000   39.714907982 -105.115229078  1693.2535   2  12   0.0238   0.0541   0.0435   0.0204  -0.0226  -0.0176  -4.00    0.0
2019/06/12 00:07:09.000   39.714907936 -105.115229080  1693.2540   2  12   0.0237   0.0541   0.0433   0.0204  -0.0226  -0.0174  -3.00    0.0
2019/06/12 00:07:10.000   39.714907938 -105.115229063  1693.2434   2  12   0.0238   0.0542   0.0434   0.0204  -0.0226  -0.0175  -2.00    0.0
2019/06/12 00:07:11.000   39.714907979 -105.115229122  1693.2308   2  14   0.0238   0.0543   0.0434   0.0204  -0.0227  -0.0173  -1.00    0.0
2019/06/12 00:07:12.000   39.714907962 -105.115229141  1693.2260   2  14   0.0237   0.0543   0.0429   0.0204  -0.0227  -0.0170   0.00    0.0
2019/06/12 00:07:13.000   39.714907961 -105.115229139  1693.2206   2  14   0.0240   0.0544   0.0436   0.0204  -0.0227  -0.0173  -4.00    0.0
2019/06/12 00:07:14.000   39.714907938 -105.115229130  1693.2168   2  14   0.0240   0.0544   0.0435   0.0204  -0.0226  -0.0172  -3.00    0.0
2019/06/12 00:07:15.000   39.714907925 -105.115229153  1693.2157   2  14   0.0241   0.0545   0.0436   0.0204  -0.0226  -0.0173  -2.00    0.0
2019/06/12 00:07:16.000   39.714907900 -105.115229160  1693.2135   2  14   0.0243   0.0545   0.0439   0.0204  -0.0226  -0.0175  -1.00    0.0
2019/06/12 00:07:17.000   39.714907848 -105.115229131  1693.2174   2  14   0.0242   0.0545   0.0434   0.0204  -0.0225  -0.0172   0.00    0.0
2019/06/12 00:07:18.000   39.714907827 -105.115229140  1693.2117   2  14   0.0245   0.0546   0.0442   0.0204  -0.0225  -0.0176  -4.00    0.0
2019/06/12 00:07:19.000   39.714907823 -105.115229115  1693.2132   2  14   0.0245   0.0547   0.0441   0.0204  -0.0225  -0.0175  -3.00    0.0
2019/06/12 00:07:20.000   39.714907819 -105.115229146  1693.2024   2  14   0.0246   0.0547   0.0443   0.0204  -0.0224  -0.0176  -2.00    0.0
2019/06/12 00:07:21.000   39.714907769 -105.115229165  1693.2040   2  13   0.0248   0.0548   0.0447   0.0204  -0.0223  -0.0178  -1.00    0.0
2019/06/12 00:07:22.000   39.714907764 -105.115229158  1693.1991   2  13   0.0247   0.0548   0.0441   0.0204  -0.0223  -0.0175   0.00    0.0
2019/06/12 00:07:23.000   39.714907770 -105.115229181  1693.1945   2  13   0.0250   0.0549   0.0448   0.0204  -0.0224  -0.0178  -4.00    0.0
2019/06/12 00:07:24.000   39.714907768 -105.115229207  1693.1907   2  13   0.0250   0.0549   0.0446   0.0204  -0.0223  -0.0177  -3.00    0.0
2019/06/12 00:07:25.000   39.714907813 -105.115229265  1693.1835   2  13   0.0251   0.0550   0.0447   0.0204  -0.0223  -0.0177  -2.00    2.2
2019/06/12 00:07:26.000   39.714907787 -105.115229288  1693.1845   2  13   0.0253   0.0551   0.0451   0.0204  -0.0223  -0.0179  -1.00    2.3
2019/06/12 00:07:27.000   39.714907756 -105.115229279  1693.1875   2  13   0.0252   0.0551   0.0445   0.0204  -0.0223  -0.0175   0.00    2.3
2019/06/12 00:07:28.000   39.714907769 -105.115229302  1693.1793   2  13   0.0255   0.0552   0.0453   0.0204  -0.0222  -0.0179  -4.00    2.4
2019/06/12 00:07:29.000   39.714907753 -105.115229315  1693.1715   2  13   0.0255   0.0552   0.0451   0.0204  -0.0222  -0.0178  -3.00    2.4
2019/06/12 00:07:30.000   39.714907749 -105.115229332  1693.1682   2  13   0.0256   0.0552   0.0452   0.0203  -0.0222  -0.0178  -2.00    2.4
2019/06/12 00:07:31.000   39.714907751 -105.115229368  1693.1606   2  14   0.0257   0.0553   0.0453   0.0204  -0.0222  -0.0177  -1.00    2.4
2019/06/12 00:07:32.000   39.714907764 -105.115229377  1693.1561   2  14   0.0256   0.0553   0.0448   0.0203  -0.0221  -0.0175   0.00    2.4
2019/06/12 00:07:33.000   39.714907761 -105.115229381  1693.1521   2  14   0.0259   0.0554   0.0455   0.0203  -0.0221  -0.0178  -4.00    2.5
2019/06/12 00:07:34.000   39.714907764 -105.115229405  1693.1474   2  14   0.0259   0.0554   0.0453   0.0203  -0.0221  -0.0177  -3.00    2.5
2019/06/12 00:07:35.000   39.714907734 -105.115229422  1693.1466   2  14   0.0260   0.0555   0.0454   0.0203  -0.0220  -0.0177  -2.00    2.5
2019/06/12 00:07:36.000   39.714907736 -105.115229465  1693.1454   2  14   0.0262   0.0556   0.0457   0.0203  -0.0220  -0.0179  -1.00    2.5
2019/06/12 00:07:37.000   39.714907708 -105.115229444  1693.1453   2  14   0.0261   0.0556   0.0453   0.0203  -0.0220  -0.0176   0.00    2.6
2019/06/12 00:07:38.000   39.714907691 -105.115229472  1693.1414   2  14   0.0264   0.0557   0.0459   0.0203  -0.0220  -0.0179  -4.00    2.6
2019/06/12 00:07:39.000   39.714907679 -105.115229507  1693.1441   2  14   0.0265   0.0557   0.0458   0.0203  -0.0219  -0.0178  -3.00    2.6
2019/06/12 00:07:40.000   39.714907706 -105.115229544  1693.1391   2  14   0.0266   0.0557   0.0458   0.0203  -0.0219  -0.0179  -2.00    2.6
2019/06/12 00:07:41.000   39.714907698 -105.115229580  1693.1373   2  14   0.0268   0.0558   0.0461   0.0202  -0.0219  -0.0180  -1.00    2.7
2019/06/12 00:07:42.000   39.714907694 -105.115229594  1693.1394   2  14   0.0267   0.0558   0.0457   0.0202  -0.0218  -0.0178   0.00    2.6
2019/06/12 00:07:43.000   39.714907669 -105.115229623  1693.1386   2  14   0.0270   0.0559   0.0463   0.0202  -0.0218  -0.0181  -4.00    2.6
2019/06/12 00:07:44.000   39.714907671 -105.115229637  1693.1367   2  14   0.0270   0.0559   0.0461   0.0202  -0.0218  -0.0180  -3.00    2.6
2019/06/12 00:07:45.000   39.714907660 -105.115229583  1693.1340   2  14   0.0271   0.0560   0.0462   0.0202  -0.0217  -0.0180  -2.00    2.6
2019/06/12 00:07:46.000   39.714907661 -105.115229611  1693.1329   2  14   0.0273   0.0560   0.0465   0.0202  -0.0217  -0.0181  -1.00    2.6
2019/06/12 00:07:47.000   39.714907640 -105.115229620  1693.1293   2  14   0.0273   0.0561   0.0461   0.0201  -0.0216  -0.0179   0.00    2.5
2019/06/12 00:07:48.000   39.714907655 -105.115229619  1693.1258   2  14   0.0276   0.0561   0.0467   0.0201  -0.0216  -0.0182  -4.00    2.5
2019/06/12 00:07:49.000   39.714907616 -105.115229650  1693.1288   2  14   0.0276   0.0562   0.0465   0.0201  -0.0216  -0.0181  -3.00    2.5
2019/06/12 00:07:50.000   39.714907609 -105.115229661  1693.1277   2  14   0.0277   0.0562   0.0466   0.0201  -0.0216  -0.0181  -2.00    2.5
2019/06/12 00:07:51.000   39.714907577 -105.115229710  1693.1277   2  14   0.0278   0.0563   0.0470   0.0201  -0.0215  -0.0182  -1.00    2.5
2019/06/12 00:07:52.000   39.714907586 -105.115229706  1693.1237   2  14   0.0278   0.0563   0.0466   0.0200  -0.0215  -0.0180   0.00    2.5
2019/06/12 00:07:53.000   39.714907601 -105.115229720  1693.1228   2  14   0.0281   0.0564   0.0473   0.0200  -0.0215  -0.0183  -4.00    2.5
2019/06/12 00:07:54.000   39.714907578 -105.115229719  1693.1266   2  14   0.0281   0.0564   0.0472   0.0200  -0.0215  -0.0183  -3.00    2.4
2019/06/12 00:07:55.000   39.714907585 -105.115229729  1693.1291   2  14   0.0283   0.0564   0.0473   0.0200  -0.0214  -0.0184  -2.00    2.4
2019/06/12 00:07:56.000   39.714907589 -105.115229765  1693.1232   2  14   0.0285   0.0565   0.0477   0.0200  -0.0214  -0.0185  -1.00    2.4
2019/06/12 00:07:57.000   39.714907600 -105.115229763  1693.1195   2  14   0.0284   0.0565   0.0473   0.0199  -0.0214  -0.0184   0.00    2.4
2019/06/12 00:07:58.000   39.714907572 -105.115229765  1693.1168   2  14   0.0287   0.0566   0.0480   0.0199  -0.0214  -0.0187  -4.00    2.4
2019/06/12 00:07:59.000   39.714907552 -105.115229793  1693.1132   2  14   0.0288   0.0566   0.0480   0.0199  -0.0213  -0.0187  -3.00    2.4
2019/06/12 00:08:00.000   39.714907557 -105.115229822  1693.1086   2  14   0.0289   0.0567   0.0481   0.0199  -0.0213  -0.0188  -2.00    2.4
2019/06/12 00:08:01.000   39.714907566 -105.115229882  1693.1021   2  15   0.0290   0.0567   0.0484   0.0199  -0.0213  -0.0188  -1.00    2.4
2019/06/12 00:08:02.000   39.714907548 -105.115229885  1693.1034   2  15   0.0291   0.0567   0.0483   0.0197  -0.0211  -0.0190   0.00    2.4
2019/06/12 00:08:03.000   39.714907512 -105.115229893  1693.1036   2  14   0.0293   0.0568   0.0486   0.0198  -0.0212  -0.0189  -4.00    2.4
2019/06/12 00:08:04.000   39.714907519 -105.115229911  1693.1009   2  14   0.0294   0.0568   0.0486   0.0198  -0.0212  -0.0190  -3.00    2.4
2019/06/12 00:08:05.000   39.714907528 -105.115229925  1693.0963   2  14   0.0296   0.0569   0.0490   0.0197  -0.0210  -0.0194  -2.00    2.4
2019/06/12 00:08:06.000   39.714907504 -105.115229969  1693.0921   2  14   0.0296   0.0569   0.0487   0.0198  -0.0214  -0.0188  -1.00    2.4
2019/06/12 00:08:07.000   39.714907511 -105.115229974  1693.0839   2  14   0.0296   0.0569   0.0484   0.0198  -0.0213  -0.0188   0.00    2.3
2019/06/12 00:08:08.000   39.714907531 -105.115230005  1693.0779   2  14   0.0299   0.0570   0.0491   0.0197  -0.0213  -0.0191  -4.00    2.3
2019/06/12 00:08:09.000   39.714907524 -105.115230043  1693.0736   2  14   0.0300   0.0570   0.0492   0.0197  -0.0212  -0.0193  -3.00    2.3
2019/06/12 00:08:10.000   39.714907520 -105.115230073  1693.0678   2  14   0.0300   0.0571   0.0490   0.0197  -0.0213  -0.0190  -2.00    2.3
2019/06/12 00:08:11.000   39.714907543 -105.115230125  1693.0665   2  14   0.0302   0.0571   0.0493   0.0197  -0.0213  -0.0191  -1.00    2.3
2019/06/12 00:08:12.000   39.714907551 -105.115230143  1693.0586   2  14   0.0302   0.0571   0.0490   0.0197  -0.0212  -0.0191   0.00    2.3
2019/06/12 00:08:13.000   39.714907542 -105.115230195  1693.0586   2  14   0.0305   0.0572   0.0497   0.0196  -0.0212  -0.0194  -4.00    2.3
2019/06/12 00:08:14.000   39.714907506 -105.115230199  1693.0618   2  14   0.0306   0.0572   0.0498   0.0196  -0.0211  -0.0196  -3.00    2.3
2019/06/12 00:08:15.000   39.714907471 -105.115230210  1693.0648   2  14   0.0306   0.0572   0.0496   0.0196  -0.0212  -0.0193  -2.00    2.3
2019/06/12 00:08:16.000   39.714907443 -105.115230215  1693.0657   2  14   0.0308   0.0573   0.0499   0.0196  -0.0212  -0.0194  -1.00    2.3
2019/06/12 00:08:17.000   39.714907438 -105.115230245  1693.0642   2  14   0.0308   0.0573   0.0496   0.0195  -0.0211  -0.0194   0.00    2.3
2019/06/12 00:08:18.000   39.714907411 -105.115230269  1693.0629   2  14   0.0311   0.0574   0.0502   0.0195  -0.0211  -0.0197  -4.00    2.3
2019/06/12 00:08:19.000   39.714907383 -105.115230280  1693.0686   2  14   0.0312   0.0574   0.0503   0.0194  -0.0210  -0.0198  -3.00    2.2
2019/06/12 00:08:20.000   39.714907356 -105.115230305  1693.0704   2  13   0.0312   0.0574   0.0502   0.0194  -0.0210  -0.0196  -2.00    3.0
2019/06/12 00:08:21.000   39.714907353 -105.115230293  1693.0667   2  13   0.0314   0.0575   0.0505   0.0194  -0.0210  -0.0198  -1.00    2.9
2019/06/12 00:08:22.000   39.714907328 -105.115230292  1693.0673   2  13   0.0314   0.0575   0.0501   0.0194  -0.0210  -0.0197   0.00    2.9
2019/06/12 00:08:23.000   39.714907312 -105.115230309  1693.0641   2  13   0.0316   0.0575   0.0506   0.0194  -0.0210  -0.0199  -4.00    2.9
2019/06/12 00:08:24.000   39.714907314 -105.115230355  1693.0647   2  13   0.0317   0.0576   0.0505   0.0194  -0.0209  -0.0199  -3.00    2.9
2019/06/12 00:08:25.000   39.714907326 -105.115230365  1693.0619   2  13   0.0318   0.0576   0.0506   0.0193  -0.0209  -0.0200  -2.00    2.9
2019/06/12 00:08:26.000   39.714907304 -105.115230401  1693.0606   2  13   0.0320   0.0576   0.0509   0.0193  -0.0209  -0.0201  -1.00    2.9
2019/06/12 00:08:27.000   39.714907281 -105.115230404  1693.0606   2  13   0.0320   0.0576   0.0505   0.0193  -0.0209  -0.0200   0.00    2.9
2019/06/12 00:08:28.000   39.714907249 -105.115230416  1693.0576   2  13   0.0322   0.0577   0.0511   0.0193  -0.0209  -0.0202  -4.00    2.9
2019/06/12 00:08:29.000   39.714907222 -105.115230440  1693.0599   2  13   0.0323   0.0577   0.0510   0.0192  -0.0209  -0.0202  -3.00    2.8
2019/06/12 00:08:30.000   39.714907208 -105.115230450  1693.0607   2  13   0.0324   0.0577   0.0510   0.0192  -0.0209  -0.0203  -2.00    2.8
2019/06/12 00:08:31.000   39.714907197 -105.115230447  1693.0665   2  13   0.0326   0.0578   0.0513   0.0192  -0.0209  -0.0204  -1.00    2.8
2019/06/12 00:08:32.000   39.714907197 -105.115230461  1693.0636   2  13   0.0326   0.0578   0.0509   0.0192  -0.0208  -0.0203   0.00    2.8
2019/06/12 00:08:33.000   39.714907182 -105.115230447  1693.0614   2  13   0.0329   0.0578   0.0514   0.0192  -0.0208  -0.0206  -4.00    2.8
2019/06/12 00:08:34.000   39.714907173 -105.115230499  1693.0617   2  13   0.0330   0.0579   0.0513   0.0192  -0.0208  -0.0206  -3.00    2.8
2019/06/12 00:08:35.000   39.714907162 -105.115230520  1693.0508   2  13   0.0330   0.0579   0.0514   0.0191  -0.0208  -0.0206  -2.00    2.8
2019/06/12 00:08:36.000   39.714907138 -105.115230506  1693.0502   2  13   0.0333   0.0579   0.0519   0.0191  -0.0207  -0.0210  -1.00    2.8
2019/06/12 00:08:37.000   39.714907097 -105.115230519  1693.0469   2  13   0.0331   0.0579   0.0515   0.0190  -0.0206  -0.0206   0.00    2.8
2019/06/12 00:08:38.000   39.714907065 -105.115230527  1693.0453   2  14   0.0333   0.0580   0.0519   0.0190  -0.0206  -0.0207  -4.00    2.8
2019/06/12 00:08:39.000   39.714907045 -105.115230539  1693.0383   2  14   0.0334   0.0580   0.0519   0.0189  -0.0205  -0.0208  -3.00    2.8
2019/06/12 00:08:40.000   39.714906962 -105.115230648  1693.0472   2  14   0.0333   0.0580   0.0516   0.0188  -0.0204  -0.0203  -2.00    2.7
2019/06/12 00:08:41.000   39.714906952 -105.115230598  1693.0417   2  14   0.0334   0.0581   0.0519   0.0189  -0.0205  -0.0204  -1.00    2.7
2019/06/12 00:08:42.000   39.714906946 -105.115230560  1693.0337   2  14   0.0334   0.0581   0.0517   0.0189  -0.0205  -0.0204   0.00    2.7
2019/06/12 00:08:43.000   39.714906934 -105.115230551  1693.0299   2  14   0.0337   0.0582   0.0522   0.0189  -0.0205  -0.0206  -4.00    2.7
2019/06/12 00:08:44.000   39.714906923 -105.115230494  1693.0250   2  14   0.0337   0.0582   0.0522   0.0190  -0.0206  -0.0207  -3.00    2.7
2019/06/12 00:08:45.000   39.714906944 -105.115230475  1693.0168   2  14   0.0339   0.0583   0.0523   0.0190  -0.0206  -0.0208  -2.00    2.7
2019/06/12 00:08:46.000   39.714906972 -105.115230440  1693.0138   2  14   0.0340   0.0584   0.0526   0.0190  -0.0207  -0.0209  -1.00    2.7
2019/06/12 00:08:47.000   39.714907018 -105.115230389  1693.0042   2  14   0.0341   0.0584   0.0524   0.0191  -0.0207  -0.0209   0.00    2.6
2019/06/12 00:08:48.000   39.714907059 -105.115230401  1692.9956   2  14   0.0342   0.0584   0.0528   0.0192  -0.0206  -0.0212  -4.00    2.7
2019/06/12 00:08:49.000   39.714907094 -105.115230358  1692.9845   2  14   0.0343   0.0585   0.0528   0.0192  -0.0207  -0.0212  -3.00    2.7
2019/06/12 00:08:50.000   39.714907114 -105.115230273  1692.9762   2  14   0.0344   0.0585   0.0530   0.0192  -0.0208  -0.0213  -2.00    2.6
2019/06/12 00:08:51.000   39.714907200 -105.115230233  1692.9537   2  14   0.0345   0.0586   0.0533   0.0192  -0.0208  -0.0213  -1.00    2.6
2019/06/12 00:08:52.000   39.714907228 -105.115230208  1692.9405   2  14   0.0345   0.0586   0.0531   0.0192  -0.0209  -0.0213   0.00    2.6
2019/06/12 00:08:53.000   39.714907238 -105.115230190  1692.9318   2  14   0.0347   0.0587   0.0536   0.0192  -0.0210  -0.0215  -4.00    2.6
2019/06/12 00:08:54.000   39.714907246 -105.115230175  1692.9177   2  15   0.0347   0.0587   0.0536   0.0193  -0.0211  -0.0214  -3.00    2.6
2019/06/12 00:08:55.000   39.714907267 -105.115230154  1692.9055   2  15   0.0348   0.0587   0.0538   0.0193  -0.0212  -0.0215  -2.00    2.6
2019/06/12 00:08:56.000   39.714907295 -105.115230140  1692.8930   2  15   0.0349   0.0588   0.0541   0.0193  -0.0213  -0.0216  -1.00    2.6
2019/06/12 00:08:57.000   39.714907332 -105.115230105  1692.8807   2  15   0.0349   0.0588   0.0540   0.0193  -0.0213  -0.0216   0.00    2.6
2019/06/12 00:08:58.000   39.714907359 -105.115230066  1692.8745   2  15   0.0351   0.0589   0.0544   0.0194  -0.0214  -0.0217  -4.00    2.5
2019/06/12 00:08:59.000   39.714907387 -105.115230085  1692.8670   2  15   0.0351   0.0589   0.0544   0.0194  -0.0215  -0.0217  -3.00    2.5
2019/06/12 00:09:00.000   39.714907418 -105.115230077  1692.8620   2  15   0.0352   0.0590   0.0546   0.0194  -0.0216  -0.0218  -2.00    2.5
2019/06/12 00:09:01.000   39.714907456 -105.115230052  1692.8495   2  15   0.0353   0.0590   0.0549   0.0195  -0.0217  -0.0219  -1.00    2.4
2019/06/12 00:09:02.000   39.714907483 -105.115230073  1692.8368   2  15   0.0353   0.0590   0.0548   0.0195  -0.0218  -0.0219   0.00    2.4
2019/06/12 00:09:03.000   39.714907494 -105.115229989  1692.8300   2  15   0.0355   0.0591   0.0552   0.0195  -0.0219  -0.0220  -4.00    2.5
2019/06/12 00:09:04.000   39.714907545 -105.115229967  1692.8171   2  15   0.0355   0.0591   0.0552   0.0196  -0.0220  -0.0220  -3.00    2.5
2019/06/12 00:09:05.000   39.714907592 -105.115229940  1692.8001   2  15   0.0356   0.0592   0.0554   0.0196  -0.0220  -0.0221  -2.00    2.4
2019/06/12 00:09:06.000   39.714907600 -105.115229930  1692.7881   2  15   0.0356   0.0592   0.0555   0.0196  -0.0220  -0.0220  -1.00    2.4
2019/06/12 00:09:07.000   39.714907574 -105.115229899  1692.7758   2  15   0.0356   0.0592   0.0555   0.0196  -0.0221  -0.0220   0.00    2.4
2019/06/12 00:09:08.000   39.714909294 -105.115229042  1693.9842   1  15   0.0063   0.0045   0.0119   0.0017  -0.0027  -0.0056  -4.00    3.1
2019/06/12 00:09:09.000   39.714909252 -105.115229046  1693.9913   1  15   0.0060   0.0042   0.0110   0.0014  -0.0023  -0.0054  -3.00    3.0
2019/06/12 00:09:10.000   39.714909256 -105.115229026  1693.9889   1  15   0.0059   0.0042   0.0110   0.0013  -0.0022  -0.0053  -2.00    3.0
2019/06/12 00:09:11.000   39.714909257 -105.115229039  1693.9871   1  15   0.0062   0.0044   0.0118   0.0015  -0.0026  -0.0055  -1.00    3.0
2019/06/12 00:09:12.000   39.714909237 -105.115229017  1693.9915   1  15   0.0055   0.0038   0.0098   0.0005  -0.0014  -0.0049   0.00    3.0
2019/06/12 00:09:13.000   39.714907672 -105.115229795  1692.7199   2  15   0.0359   0.0595   0.0567   0.0198  -0.0226  -0.0223  -4.00    3.0
2019/06/12 00:09:14.000   39.714909262 -105.115228997  1693.9843   1  15   0.0058   0.0042   0.0110   0.0011  -0.0022  -0.0053  -3.00    3.4
2019/06/12 00:09:15.000   39.714909263 -105.115228984  1693.9849   1  15   0.0058   0.0041   0.0110   0.0011  -0.0021  -0.0053  -2.00    3.3
2019/06/12 00:09:16.000   39.714909200 -105.115229011  1693.9896   1  14   0.0061   0.0044   0.0121   0.0007  -0.0021  -0.0057  -1.00    3.2
2019/06/12 00:09:17.000   39.714909191 -105.115229010  1693.9866   1  15   0.0054   0.0038   0.0100  -0.0010  -0.0006  -0.0051   0.00    3.2
2019/06/12 00:09:18.000   39.714909202 -105.115229003  1693.9914   1  15   0.0060   0.0043   0.0119   0.0009  -0.0022  -0.0056  -4.00    3.2
2019/06/12 00:09:19.000   39.714909212 -105.115229013  1693.9885   1  15   0.0057   0.0041   0.0111   0.0005  -0.0019  -0.0053  -3.00    3.1
2019/06/12 00:09:20.000   39.714909214 -105.115229011  1693.9871   1  15   0.0057   0.0041   0.0110   0.0006  -0.0019  -0.0053  -2.00    3.1
2019/06/12 00:09:21.000   39.714909216 -105.115229007  1693.9857   1  15   0.0060   0.0043   0.0118   0.0010  -0.0024  -0.0055  -1.00    3.1
2019/06/12 00:09:22.000   39.714909204 -105.115229002  1693.9845   1  15   0.0053   0.0037   0.0098  -0.0008  -0.0011  -0.0049   0.00    3.1
2019/06/12 00:09:23.000   39.714909201 -105.115229000  1693.9896   1  15   0.0059   0.0043   0.0118   0.0011  -0.0024  -0.0054  -4.00    3.1
2019/06/12 00:09:24.000   39.714909196 -105.115229011  1693.9878   1  15   0.0057   0.0041   0.0110   0.0007  -0.0020  -0.0052  -3.00    3.1
2019/06/12 00:09:25.000   39.714909194 -105.115229008  1693.9875   1  15   0.0057   0.0041   0.0110   0.0007  -0.0020  -0.0052  -2.00    3.1
2019/06/12 00:09:26.000   39.714909191 -105.115228993  1693.9876   1  15   0.0059   0.0043   0.0118   0.0011  -0.0024  -0.0054  -1.00    3.0
2019/06/12 00:09:27.000   39.714909195 -105.115229016  1693.9875   1  15   0.0052   0.0037   0.0097  -0.0007  -0.0012  -0.0048   0.00    3.0
2019/06/12 00:09:28.000   39.714909204 -105.115229024  1693.9877   1  15   0.0059   0.0043   0.0117   0.0011  -0.0024  -0.0054  -4.00    3.0
2019/06/12 00:09:29.000   39.714907776 -105.115229623  1692.6532   2  15   0.0359   0.0598   0.0585   0.0202  -0.0238  -0.0223  -3.00    3.0
2019/06/12 00:09:30.000   39.714909249 -105.115228988  1693.9795   1  15   0.0057   0.0041   0.0110   0.0010  -0.0021  -0.0052  -2.00    3.3
2019/06/12 00:09:31.000   39.714909249 -105.115228995  1693.9795   1  15   0.0060   0.0044   0.0118   0.0013  -0.0025  -0.0055  -1.00    3.3
2019/06/12 00:09:32.000   39.714909236 -105.115228973  1693.9783   1  15   0.0053   0.0038   0.0098   0.0001  -0.0014  -0.0049   0.00    3.3
2019/06/12 00:09:33.000   39.714909256 -105.115228986  1693.9792   1  15   0.0060   0.0044   0.0117   0.0013  -0.0025  -0.0054  -4.00    3.2
2019/06/12 00:09:34.000   39.714909231 -105.115228992  1693.9872   1  15   0.0057   0.0041   0.0110   0.0010  -0.0021  -0.0052  -3.00    3.2
2019/06/12 00:09:35.000   39.714909240 -105.115228993  1693.9843   1  15   0.0057   0.0041   0.0109   0.0010  -0.0021  -0.0052  -2.00    3.2
2019/06/12 00:09:36.000   39.714909256 -105.115228966  1693.9858   1  15   0.0060   0.0044   0.0117   0.0013  -0.0025  -0.0054  -1.00    3.2
2019/06/12 00:09:37.000   39.714909220 -105.115228965  1693.9878   1  15   0.0053   0.0038   0.0097  -0.0000  -0.0014  -0.0049   0.00    3.2
2019/06/12 00:09:38.000   39.714909247 -105.115228966  1693.9887   1  15   0.0060   0.0044   0.0117   0.0013  -0.0025  -0.0054  -4.00    3.2
2019/06/12 00:09:39.000   39.714909253 -105.115228981  1693.9848   1  15   0.0057   0.0041   0.0109   0.0010  -0.0021  -0.0052  -3.00    3.1
2019/06/12 00:09:40.000   39.714909240 -105.115228977  1693.9878   1  15   0.0057   0.0041   0.0109   0.0010  -0.0021  -0.0052  -2.00    3.1
2019/06/12 00:09:41.000   39.714909230 -105.115228973  1693.9877   1  15   0.0060   0.0044   0.0117   0.0013  -0.0025  -0.0054  -1.00    3.1
2019/06/12 00:09:42.000   39.714909219 -105.115228967  1693.9896   1  15   0.0053   0.0038   0.0097  -0.0001  -0.0014  -0.0049   0.00    3.1
2019/06/12 00:09:43.000   39.714909223 -105.115228970  1693.9921   1  15   0.0060   0.0044   0.0117   0.0013  -0.0025  -0.0054  -4.00    3.0
2019/06/12 00:09:44.000   39.714909245 -105.115228965  1693.9886   1  15   0.0057   0.0041   0.0109   0.0010  -0.0021  -0.0052  -3.00    3.0
2019/06/12 00:09:45.000   39.714907563 -105.115229326  1692.6534   2  15   0.0349   0.0600   0.0589   0.0207  -0.0248  -0.0218  -2.00    3.0
2019/06/12 00:09:46.000   39.714907548 -105.115229329  1692.6556   2  15   0.0349   0.0600   0.0589   0.0207  -0.0249  -0.0218  -1.00    2.1
2019/06/12 00:09:47.000   39.714907529 -105.115229367  1692.6584   2  15   0.0347   0.0599   0.0587   0.0207  -0.0249  -0.0216   0.00    2.9
2019/06/12 00:09:48.000   39.714907548 -105.115229382  1692.6588   2  15   0.0347   0.0600   0.0589   0.0207  -0.0250  -0.0217  -4.00    2.7
2019/06/12 00:09:49.000   39.714907568 -105.115229428  1692.6598   2  15   0.0346   0.0599   0.0587   0.0207  -0.0250  -0.0216  -3.00    2.8
2019/06/12 00:09:50.000   39.714907596 -105.115229441  1692.6651   2  15   0.0345   0.0599   0.0587   0.0208  -0.0250  -0.0216  -2.00    2.6
2019/06/12 00:09:51.000   39.714907622 -105.115229464  1692.6631   2  15   0.0344   0.0599   0.0587   0.0208  -0.0251  -0.0216  -1.00    1.1
2019/06/12 00:09:52.000   39.714909130 -105.115229083  1694.0029   1  15   0.0053   0.0038   0.0097   0.0005  -0.0015  -0.0049   0.00    3.8
2019/06/12 00:09:53.000   39.714909115 -105.115229045  1694.0056   1  15   0.0060   0.0044   0.0117   0.0014  -0.0025  -0.0054  -4.00    3.8
2019/06/12 00:09:54.000   39.714909152 -105.115229065  1694.0026   1  15   0.0057   0.0041   0.0109   0.0011  -0.0021  -0.0052  -3.00    3.8
2019/06/12 00:09:55.000   39.714909136 -105.115229053  1694.0061   1  15   0.0057   0.0041   0.0109   0.0011  -0.0021  -0.0052  -2.00    3.8
2019/06/12 00:09:56.000   39.714909152 -105.115229031  1694.0052   1  15   0.0060   0.0044   0.0117   0.0014  -0.0025  -0.0054  -1.00    3.8
2019/06/12 00:09:57.000   39.714909146 -105.115229049  1694.0042   1  15   0.0053   0.0038   0.0097   0.0005  -0.0015  -0.0049   0.00    3.8
2019/06/12 00:09:58.000   39.714909154 -105.115229035  1694.0012   1  15   0.0060   0.0044   0.0117   0.0014  -0.0025  -0.0054  -4.00    3.8
2019/06/12 00:09:59.000   39.714909135 -105.115229022  1694.0057   1  15   0.0057   0.0041   0.0109   0.0011  -0.0021  -0.0052  -3.00    3.8
2019/06/12 00:10:00.000   39.714909140 -105.115229022  1694.0006   1  15   0.0057   0.0041   0.0109   0.0011  -0.0021  -0.0052  -2.00    3.8
2019/06/12 00:10:01.000   39.714909151 -105.115229027  1693.9992   1  15   0.0060   0.0044   0.0117   0.0014  -0.0025  -0.0054  -1.00    3.8
2019/06/12 00:10:02.000   39.714909135 -105.115229050  1693.9983   1  15   0.0053   0.0038   0.0097   0.0004  -0.0014  -0.0048   0.00    3.8
2019/06/12 00:10:03.000   39.714909157 -105.115229035  1693.9979   1  15   0.0059   0.0043   0.0117   0.0012  -0.0024  -0.0053  -4.00    3.7
2019/06/12 00:10:04.000   39.714909174 -105.115229009  1693.9974   1  15   0.0066   0.0045   0.0110   0.0027  -0.0027  -0.0056  -3.00    4.1
2019/06/12 00:10:05.000   39.714909189 -105.115229003  1693.9935   1  15   0.0061   0.0043   0.0109   0.0020  -0.0024  -0.0054  -2.00    3.9
2019/06/12 00:10:06.000   39.714909206 -105.115229037  1693.9905   1  15   0.0063   0.0045   0.0117   0.0019  -0.0027  -0.0055  -1.00    3.9
2019/06/12 00:10:07.000   39.714909198 -105.115229035  1693.9939   1  15   0.0061   0.0041   0.0097   0.0022  -0.0018  -0.0051   0.00    3.9
2019/06/12 00:10:08.000   39.714909196 -105.115229038  1693.9878   1  15   0.0063   0.0045   0.0117   0.0021  -0.0027  -0.0056  -4.00    3.9
2019/06/12 00:10:09.000   39.714909188 -105.115229041  1693.9971   1  15   0.0060   0.0042   0.0109   0.0017  -0.0022  -0.0053  -3.00    3.7
2019/06/12 00:10:10.000   39.714909193 -105.115229044  1693.9945   1  15   0.0059   0.0042   0.0109   0.0015  -0.0022  -0.0052  -2.00    3.7
2019/06/12 00:10:11.000   39.714909178 -105.115229045  1693.9972   1  15   0.0061   0.0044   0.0117   0.0017  -0.0026  -0.0054  -1.00    3.7
2019/06/12 00:10:12.000   39.714909187 -105.115229043  1694.0012   1  15   0.0054   0.0038   0.0096   0.0008  -0.0013  -0.0048   0.00    9.9
2019/06/12 00:10:13.000   39.714909203 -105.115229035  1693.9935   1  15   0.0060   0.0044   0.0117   0.0015  -0.0025  -0.0053  -4.00   11.2
2019/06/12 00:10:14.000   39.714909172 -105.115229032  1693.9956   1  15   0.0057   0.0041   0.0108   0.0012  -0.0021  -0.0051  -3.00   11.9
2019/06/12 00:10:15.000   39.714909144 -105.115229034  1693.9999   1  15   0.0056   0.0041   0.0108   0.0012  -0.0021  -0.0050  -2.00   12.3
2019/06/12 00:10:16.000   39.714909212 -105.115229055  1693.9957   1  15   0.0059   0.0044   0.0116   0.0014  -0.0025  -0.0053  -1.00   12.7
2019/06/12 00:10:17.000   39.714909181 -105.115229057  1693.9998   1  15   0.0051   0.0037   0.0096  -0.0006  -0.0012  -0.0046   0.00    9.6
2019/06/12 00:10:18.000   39.714909166 -105.115229089  1694.0016   1  15   0.0058   0.0043   0.0116   0.0011  -0.0024  -0.0052  -4.00   10.3
2019/06/12 00:10:19.000   39.714909161 -105.115229055  1693.9997   1  15   0.0055   0.0041   0.0108   0.0008  -0.0020  -0.0049  -3.00   11.1
2019/06/12 00:10:20.000   39.714909171 -105.115229071  1694.0010   1  15   0.0055   0.0041   0.0108   0.0008  -0.0020  -0.0049  -2.00   11.9
2019/06/12 00:10:21.000   39.714909153 -105.115229083  1694.0039   1  15   0.0057   0.0043   0.0116   0.0011  -0.0024  -0.0052  -1.00   12.6
2019/06/12 00:10:22.000   39.714909160 -105.115229057  1694.0049   1  15   0.0050   0.0037   0.0096  -0.0006  -0.0012  -0.0046   0.00   13.5
2019/06/12 00:10:23.000   39.714909143 -105.115229057  1694.0073   1  15   0.0057   0.0043   0.0116   0.0011  -0.0024  -0.0052  -4.00   14.1
2019/06/12 00:10:24.000   39.714909154 -105.115229049  1694.0049   1  15   0.0055   0.0041   0.0108   0.0008  -0.0020  -0.0049  -3.00   14.7
2019/06/12 00:10:25.000   39.714909155 -105.115229065  1694.0016   1  15   0.0055   0.0041   0.0108   0.0008  -0.0020  -0.0049  -2.00   14.9
2019/06/12 00:10:26.000   39.714909157 -105.115229045  1694.0051   1  15   0.0057   0.0043   0.0116   0.0011  -0.0024  -0.0052  -1.00   15.0
2019/06/12 00:10:27.000   39.714909158 -105.115229043  1694.0063   1  15   0.0050   0.0037   0.0096  -0.0005  -0.0012  -0.0046   0.00   15.2
2019/06/12 00:10:28.000   39.714909154 -105.115229049  1694.0075   1  15   0.0057   0.0043   0.0116   0.0011  -0.0024  -0.0052  -4.00   15.3
2019/06/12 00:10:29.000   39.714909155 -105.115229052  1694.0079   1  15   0.0054   0.0041   0.0108   0.0008  -0.0020  -0.0049  -3.00   15.5
2019/06/12 00:10:30.000   39.714909162 -105.115229060  1694.0081   1  15   0.0054   0.0041   0.0108   0.0008  -0.0020  -0.0049  -2.00   15.6
2019/06/12 00:10:31.000   39.714909176 -105.115229042  1694.0006   1  15   0.0057   0.0043   0.0116   0.0011  -0.0024  -0.0051  -1.00   15.8
2019/06/12 00:10:32.000   39.714909142 -105.115229053  1694.0008   1  15   0.0050   0.0037   0.0096  -0.0005  -0.0012  -0.0046   0.00   15.9
2019/06/12 00:10:33.000   39.714909181 -105.115229076  1693.9988   1  15   0.0057   0.0043   0.0116   0.0011  -0.0024  -0.0051  -4.00   16.1
2019/06/12 00:10:34.000   39.714909143 -105.115229032  1694.0133   1  15   0.0054   0.0041   0.0108   0.0008  -0.0020  -0.0049  -3.00   16.2
2019/06/12 00:10:35.000   39.714909173 -105.115229047  1694.0034   1  15   0.0054   0.0041   0.0108   0.0008  -0.0020  -0.0049  -2.00   16.4
2019/06/12 00:10:36.000   39.714909147 -105.115229053  1694.0037   1  15   0.0057   0.0043   0.0116   0.0011  -0.0024  -0.0051  -1.00   16.5
2019/06/12 00:10:37.000   39.714909157 -105.115229032  1694.0023   1  15   0.0050   0.0037   0.0096  -0.0005  -0.0012  -0.0046   0.00   16.6
2019/06/12 00:10:38.000   39.714909182 -105.115229035  1694.0043   1  15   0.0057   0.0043   0.0116   0.0011  -0.0024  -0.0051  -4.00   16.6
2019/06/12 00:10:39.000   39.714909176 -105.115229003  1694.0007   1  15   0.0054   0.0041   0.0108   0.0008  -0.0019  -0.0049  -3.00   16.6
2019/06/12 00:10:40.000   39.714909168 -105.115228998  1694.0044   1  15   0.0054   0.0041   0.0108   0.0008  -0.0019  -0.0049  -2.00   16.6
2019/06/12 00:10:41.000   39.714909149 -105.115229024  1694.0047   1  15   0.0057   0.0043   0.0116   0.0011  -0.0024  -0.0051  -1.00   16.6
2019/06/12 00:10:42.000   39.714909163 -105.115229048  1693.9980   1  15   0.0050   0.0037   0.0096  -0.0005  -0.0012  -0.0045   0.00   16.7
2019/06/12 00:10:43.000   39.714909182 -105.115229014  1694.0020   1  15   0.0057   0.0043   0.0116   0.0011  -0.0024  -0.0051  -4.00   16.8
2019/06/12 00:10:44.000   39.714909180 -105.115229050  1694.0010   1  15   0.0054   0.0041   0.0108   0.0008  -0.0019  -0.0049  -3.00   16.8
2019/06/12 00:10:45.000   39.714909188 -105.115229041  1694.0025   1  15   0.0054   0.0041   0.0108   0.0008  -0.0019  -0.0049  -2.00   16.9
2019/06/12 00:10:46.000   39.714909199 -105.115229039  1693.9985   1  15   0.0057   0.0043   0.0116   0.0012  -0.0024  -0.0051  -1.00   17.0
2019/06/12 00:10:47.000   39.714909194 -105.115229032  1694.0058   1  15   0.0050   0.0037   0.0095  -0.0005  -0.0012  -0.0045   0.00   17.1
2019/06/12 00:10:48.000   39.714909189 -105.115229037  1694.0039   1  15   0.0057   0.0043   0.0116   0.0012  -0.0024  -0.0051  -4.00   17.2
2019/06/12 00:10:49.000   39.714909172 -105.115229048  1694.0142   1  15   0.0054   0.0041   0.0108   0.0008  -0.0019  -0.0049  -3.00   17.3
2019/06/12 00:10:50.000   39.714909190 -105.115229037  1694.0013   1  15   0.0054   0.0041   0.0108   0.0008  -0.0019  -0.0049  -2.00   17.4
2019/06/12 00:10:51.000   39.714909175 -105.115229041  1694.0001   1  15   0.0057   0.0043   0.0116   0.0012  -0.0024  -0.0051  -1.00   17.5
2019/06/12 00:10:52.000   39.714909176 -105.115229031  1694.0024   1  15   0.0050   0.0037   0.0095  -0.0005  -0.0012  -0.0045   0.00   17.5
2019/06/12 00:10:53.000   39.714909171 -105.115229038  1694.0004   1  15   0.0057   0.0043   0.0116   0.0012  -0.0024  -0.0051  -4.00   17.6
2019/06/12 00:10:54.000   39.714909176 -105.115229050  1694.0010   1  15   0.0054   0.0041   0.0108   0.0008  -0.0019  -0.0049  -3.00   17.7
2019/06/12 00:10:55.000   39.714909166 -105.115229048  1693.9998   1  15   0.0054   0.0041   0.0108   0.0008  -0.0019  -0.0049  -2.00   17.8
2019/06/12 00:10:56.000   39.714909184 -105.115229045  1693.9994   1  15   0.0057   0.0043   0.0116   0.0012  -0.0024  -0.0051  -1.00   17.9
2019/06/12 00:10:57.000   39.714909181 -105.115229021  1694.0023   1  15   0.0050   0.0037   0.0095  -0.0005  -0.0012  -0.0045   0.00   17.9
2019/06/12 00:10:58.000   39.714909185 -105.115229033  1693.9972   1  15   0.0057   0.0043   0.0116   0.0012  -0.0024  -0.0051  -4.00   17.9
2019/06/12 00:10:59.000   39.714909191 -105.115229044  1693.9979   1  15   0.0054   0.0041   0.0108   0.0008  -0.0019  -0.0049  -3.00   18.0
2019/06/12 00:11:00.000   39.714909171 -105.115229040  1693.9993   1  15   0.0054   0.0041   0.0108   0.0008  -0.0019  -0.0049  -2.00   17.9
2019/06/12 00:11:01.000   39.714909195 -105.115229031  1693.9990   1  15   0.0057   0.0043   0.0116   0.0012  -0.0024  -0.0051  -1.00   18.0
2019/06/12 00:11:02.000   39.714909176 -105.115229049  1693.9976   1  15   0.0050   0.0037   0.0095  -0.0005  -0.0012  -0.0045   0.00   18.0
2019/06/12 00:11:03.000   39.714909194 -105.115229005  1693.9980   1  15   0.0067   0.0049   0.0140   0.0008  -0.0032  -0.0072  -4.00   20.4
2019/06/12 00:11:04.000   39.714909200 -105.115229036  1693.9970   1  15   0.0060   0.0046   0.0123   0.0009  -0.0031  -0.0060  -3.00   20.4
2019/06/12 00:11:05.000   39.714909194 -105.115229024  1693.9982   1  15   0.0058   0.0046   0.0120   0.0011  -0.0032  -0.0057  -2.00   20.4
2019/06/12 00:11:06.000   39.714909210 -105.115229007  1693.9943   1  15   0.0067   0.0049   0.0140   0.0008  -0.0032  -0.0072  -1.00   20.5
2019/06/12 00:11:07.000   39.714909183 -105.115229001  1693.9961   1  15   0.0054   0.0040   0.0106  -0.0009  -0.0017  -0.0054   0.00   20.5
2019/06/12 00:11:08.000   39.714909199 -105.115229001  1693.9939   1  15   0.0060   0.0045   0.0124   0.0010  -0.0026  -0.0058  -4.00   20.6
2019/06/12 00:11:09.000   39.714909201 -105.115229017  1693.9955   1  15   0.0056   0.0042   0.0114   0.0007  -0.0022  -0.0054  -3.00   20.6
2019/06/12 00:11:10.000   39.714909194 -105.115229011  1693.9940   1  15   0.0056   0.0042   0.0112   0.0007  -0.0021  -0.0053  -2.00   20.6
2019/06/12 00:11:11.000   39.714909190 -105.115229037  1693.9921   1  15   0.0059   0.0044   0.0120   0.0011  -0.0025  -0.0055  -1.00   20.6
2019/06/12 00:11:12.000   39.714909186 -105.115229027  1693.9898   1  15   0.0051   0.0038   0.0099  -0.0006  -0.0014  -0.0048   0.00   20.6
2019/06/12 00:11:13.000   39.714909187 -105.115229039  1693.9934   1  15   0.0058   0.0044   0.0119   0.0011  -0.0025  -0.0054  -4.00   20.6
2019/06/12 00:11:14.000   39.714909179 -105.115229015  1693.9928   1  15   0.0055   0.0041   0.0110   0.0008  -0.0021  -0.0051  -3.00   20.7
2019/06/12 00:11:15.000   39.714909169 -105.115229012  1693.9886   1  15   0.0055   0.0041   0.0110   0.0008  -0.0020  -0.0051  -2.00   20.7
2019/06/12 00:11:16.000   39.714909222 -105.115229059  1693.9796   1  15   0.0058   0.0043   0.0117   0.0011  -0.0022  -0.0052  -1.00   11.2
2019/06/12 00:11:17.000   39.714909242 -105.115229062  1693.9797   1  15   0.0056   0.0038   0.0107  -0.0016   0.0017  -0.0057   0.00   12.3
2019/06/12 00:11:18.000   39.714909217 -105.115228986  1693.9746   1  14   0.0065   0.0048   0.0131  -0.0020   0.0022  -0.0066  -4.00   13.0
2019/06/12 00:11:19.000   39.714909486 -105.115229438  1694.1696   1  14   0.0060   0.0045   0.0121  -0.0019   0.0023  -0.0062  -3.00   13.8
2019/06/12 00:11:20.000   39.714913056 -105.115235482  1694.5743   1  14   0.0060   0.0045   0.0120  -0.0018   0.0022  -0.0061  -2.00   14.8
2019/06/12 00:11:21.000   39.714917770 -105.115244167  1694.5944   1  13   0.0065   0.0048   0.0133  -0.0021   0.0026  -0.0068  -1.00   15.8
2019/06/12 00:11:22.000   39.714921717 -105.115252890  1694.5650   1  12   0.0057   0.0044   0.0116  -0.0024   0.0037  -0.0062   0.00   16.8
2019/06/12 00:11:23.000   39.714923990 -105.115256007  1694.5653   1  12   0.0065   0.0051   0.0141  -0.0024   0.0038  -0.0070  -4.00   17.6
2019/06/12 00:11:24.000   39.714923302 -105.115256924  1694.5936   1  14   0.0069   0.0051   0.0147  -0.0033   0.0051  -0.0081  -3.00   18.8
2019/06/12 00:11:25.000   39.714923193 -105.115256714  1694.5858   1  13   0.0065   0.0050   0.0139  -0.0029   0.0044  -0.0074  -2.00   20.1
2019/06/12 00:11:26.000   39.714923494 -105.115256221  1694.5913   1  12   0.0073   0.0054   0.0159  -0.0034   0.0053  -0.0086  -1.00   21.0
2019/06/12 00:11:27.000   39.714923622 -105.115255972  1694.5769   1  12   0.0063   0.0047   0.0129  -0.0031   0.0047  -0.0072   0.00   21.8
2019/06/12 00:11:28.000   39.714923661 -105.115255156  1694.5944   1  14   0.0073   0.0054   0.0159  -0.0034   0.0053  -0.0086  -4.00   22.3
2019/06/12 00:11:29.000   39.714923412 -105.115254641  1694.5875   1  14   0.0066   0.0047   0.0138  -0.0027   0.0039  -0.0074  -3.00   22.4
2019/06/12 00:11:30.000   39.714922852 -105.115253998  1694.6087   1  15   0.0063   0.0047   0.0133  -0.0015   0.0019  -0.0070  -2.00   23.0
2019/06/12 00:11:31.000   39.714922704 -105.115253630  1694.6172   1  15   0.0064   0.0048   0.0135  -0.0001  -0.0013  -0.0068  -1.00   23.3
2019/06/12 00:11:32.000   39.714922174 -105.115254290  1694.5887   1  15   0.0055   0.0043   0.0112  -0.0013  -0.0013  -0.0057   0.00   24.2
2019/06/12 00:11:33.000   39.714921509 -105.115254478  1694.6000   1  15   0.0070   0.0052   0.0141  -0.0017  -0.0035  -0.0064  -4.00   35.9
2019/06/12 00:11:34.000   39.714921531 -105.115255222  1694.5941   1  15   0.0062   0.0046   0.0124  -0.0016  -0.0024  -0.0057  -3.00   36.0
2019/06/12 00:11:35.000   39.714921324 -105.115255946  1694.5840   1  15   0.0062   0.0045   0.0123  -0.0015  -0.0023  -0.0051  -2.00   36.2
2019/06/12 00:11:36.000   39.714921800 -105.115256120  1694.5778   1  14   0.0064   0.0047   0.0130  -0.0011  -0.0026  -0.0052  -1.00   36.4
2019/06/12 00:11:37.000   39.714921888 -105.115256250  1694.5949   1  14   0.0055   0.0040   0.0106  -0.0015  -0.0011  -0.0047   0.00   36.7
2019/06/12 00:11:38.000   39.714922521 -105.115256543  1694.5896   1  14   0.0061   0.0045   0.0123   0.0006  -0.0026  -0.0051  -4.00   14.6
2019/06/12 00:11:39.000   39.714922625 -105.115256712  1694.5886   1  14   0.0063   0.0043   0.0117  -0.0012  -0.0021  -0.0042  -3.00   15.9
2019/06/12 00:11:40.000   39.714797458 -105.115305095  1667.8944   1  14   0.0061   0.0046   0.0120  -0.0016   0.0013  -0.0050  -2.00   35.8
2019/06/12 00:11:41.000   39.714646824 -105.115383582  1630.4893   1  13   0.0063   0.0049   0.0130  -0.0013   0.0017  -0.0053  -1.00   13.9
2019/06/12 00:11:42.000   39.714919316 -105.115254551  1694.3933   1  12   0.0065   0.0047   0.0133  -0.0032   0.0047  -0.0070   0.00   14.7
2019/06/12 00:11:43.000   39.714919695 -105.115254611  1694.5230   1  14   0.0071   0.0053   0.0155  -0.0029   0.0046  -0.0075  -4.00   15.2
2019/06/12 00:11:44.000   39.714920490 -105.115254168  1694.2350   1  13   0.0068   0.0048   0.0142  -0.0027   0.0040  -0.0073  -3.00   15.4
2019/06/12 00:11:45.000   39.714920661 -105.115253743  1694.6766   1  13   0.0067   0.0047   0.0141  -0.0026   0.0038  -0.0072  -2.00   15.7
2019/06/12 00:11:46.000   39.714921093 -105.115254083  1694.3393   1  13   0.0070   0.0048   0.0146  -0.0023   0.0034  -0.0075  -1.00    4.6
2019/06/12 00:11:47.000   39.714920892 -105.115253520  1694.5823   2  13   0.0068   0.0048   0.0145  -0.0030   0.0043  -0.0069   0.00    2.7
2019/06/12 00:11:48.000   39.714921241 -105.115253525  1694.3356   2  15   0.0079   0.0053   0.0168  -0.0029   0.0042  -0.0079  -4.00    1.8
2019/06/12 00:11:49.000   39.714920758 -105.115255062  1694.2020   2  15   0.0074   0.0051   0.0154  -0.0029   0.0039  -0.0072  -3.00    1.1
2019/06/12 00:11:50.000   39.714920679 -105.115255849  1693.8367   2  14   0.0075   0.0053   0.0156  -0.0025   0.0030  -0.0075  -2.00    1.7
2019/06/12 00:11:51.000   39.714920723 -105.115255507  1694.0009   1  13   0.0078   0.0054   0.0158   0.0015  -0.0033  -0.0086  -1.00    4.1
2019/06/12 00:11:52.000   39.714921086 -105.115255183  1693.9152   1  13   0.0063   0.0045   0.0122  -0.0007  -0.0022  -0.0068   0.00    3.4
2019/06/12 00:11:53.000   39.714921203 -105.115255331  1693.9232   2  13   0.0078   0.0059   0.0166  -0.0006  -0.0023  -0.0079  -4.00    1.8
2019/06/12 00:11:54.000   39.714921366 -105.115255313  1693.9270   1  14   0.0066   0.0050   0.0131   0.0014  -0.0035  -0.0068  -3.00   10.3
2019/06/12 00:11:55.000   39.714921381 -105.115255373  1693.9838   1  14   0.0064   0.0047   0.0125  -0.0004  -0.0026  -0.0063  -2.00   10.2
2019/06/12 00:11:56.000   39.714921499 -105.115255384  1693.9310   1  15   0.0066   0.0049   0.0130   0.0003  -0.0026  -0.0064  -1.00   10.0
2019/06/12 00:11:57.000   39.714921583 -105.115255460  1693.9747   1  15   0.0058   0.0041   0.0108  -0.0014  -0.0012  -0.0056   0.00    9.9
2019/06/12 00:11:58.000   39.714921609 -105.115255482  1693.9338   1  15   0.0064   0.0047   0.0127   0.0002  -0.0024  -0.0061  -4.00    9.8
2019/06/12 00:11:59.000   39.714921705 -105.115255563  1693.9527   1  14   0.0070   0.0045   0.0135  -0.0021   0.0020  -0.0074  -3.00    9.7
2019/06/12 00:12:00.000   39.714921157 -105.115255021  1694.0636   1  13   0.0100   0.0075   0.0208  -0.0069   0.0100  -0.0129  -2.00   13.7
2019/06/12 00:12:01.000   39.714920939 -105.115255545  1694.0339   1  13   0.0095   0.0083   0.0198  -0.0050   0.0093  -0.0110  -1.00   23.0
2019/06/12 00:12:02.000   39.714921105 -105.115255736  1693.9926   1  11   0.0093   0.0076   0.0191  -0.0053   0.0094  -0.0112   0.00   22.5
2019/06/12 00:12:03.000   39.714921591 -105.115256061  1693.9835   1  11   0.0129   0.0090   0.0403  -0.0015   0.0010  -0.0188  -4.00   28.8
2019/06/12 00:12:04.000   39.714920157 -105.115258545  1694.1611   1  12   0.0119   0.0084   0.0311  -0.0029   0.0058  -0.0156  -3.00    3.9
2019/06/12 00:12:05.000   39.714920075 -105.115258639  1694.6825   2  10   0.0165   0.0137   0.0395   0.0055   0.0067  -0.0216  -2.00    0.0
2019/06/12 00:12:06.000   39.714921094 -105.115258098  1694.5365   2   9   0.0170   0.0162   0.0417   0.0038  -0.0098  -0.0223  -1.00    0.0
2019/06/12 00:12:07.000   39.714930417 -105.115251484  1691.5953   2   5   0.1386   0.0901   0.4337   0.1102  -0.1958  -0.2446   0.00    0.0
2019/06/12 00:12:18.000   39.714935583 -105.115263865  1695.2192   2   4   1.4605   0.9240   1.9849  -0.8833   1.0214  -1.3506  -4.00    0.0
2019/06/12 00:12:19.000   39.714928187 -105.115262234  1695.7207   2   5   1.4126   0.8737   1.9252  -0.8149   0.9509  -1.2788  -3.00    0.0
2019/06/12 00:12:20.000   39.714926874 -105.115264741  1695.6437   2   5   1.6060   0.8584   1.8628  -0.8417   0.8400  -1.1241  -2.00    0.0
2019/06/12 00:12:21.000   39.714928423 -105.115268906  1695.0345   2   4   1.2278   0.8369   1.9306  -0.6507   0.9523  -1.3058  -1.00    0.0
2019/06/12 00:12:22.000   39.714928732 -105.115267173  1695.2458   2   5   1.2536   0.8228   2.0717  -0.6406   0.9522  -1.4091   0.00    0.0
2019/06/12 00:12:23.000   39.714930027 -105.115268577  1695.1907   2   5   1.2081   0.8266   1.9635  -0.6404   0.9512  -1.3294  -4.00    0.0
2019/06/12 00:12:24.000   39.714936120 -105.115270967  1694.1504   2   4   1.4698   0.9188   2.4141  -0.8403   1.2001  -1.7151  -3.00    0.0
2019/06/12 00:12:25.000   39.714931929 -105.115267633  1695.1333   2   4   1.4118   0.8837   2.1180  -0.5776   0.9724  -1.5137  -2.00    0.0
2019/06/12 00:12:26.000   39.714927173 -105.115270900  1695.8785   2   5   1.3574   0.7098   2.0850  -0.7122   0.8768  -1.5334  -1.00    0.0
2019/06/12 00:12:27.000   39.714927587 -105.115267604  1695.6947   2   6   1.1598   0.6978   1.8724  -0.6569   0.8208  -1.3099   0.00    0.0
2019/06/12 00:12:28.000   39.714928761 -105.115269201  1695.4881   2   7   1.1784   0.6925   1.8387  -0.6783   0.8057  -1.3020  -4.00    0.0
2019/06/12 00:12:29.000   39.714915760 -105.115261305  1696.0511   2   5   1.1238   0.6589   1.7610  -0.6008   0.6963  -1.2129  -3.00    0.0
2019/06/12 00:12:30.000   39.714905596 -105.115254493  1696.2665   2   5   1.1477   0.6691   1.8369  -0.5885   0.6795  -1.2576  -2.00    0.0
2019/06/12 00:12:36.000   39.714909409 -105.115228396  1694.1254   1   4   0.0709   0.0427   0.2039   0.0523   0.0918   0.1160   4.00  124.7
2019/06/12 00:12:37.000   39.714908938 -105.115228699  1694.0099   1   4   0.0420   0.0236   0.1135   0.0279   0.0501   0.0643   0.00  120.0
2019/06/12 00:12:38.000   39.714909059 -105.115228712  1694.0070   1   8   0.0138   0.0068   0.0198   0.0021   0.0052  -0.0108   1.00    5.0
2019/06/12 00:12:39.000   39.714909104 -105.115228703  1694.0084   1   8   0.0130   0.0064   0.0181   0.0016   0.0051  -0.0097   2.00    5.0
2019/06/12 00:12:40.000   39.714909012 -105.115228743  1693.9962   1  10   0.0111   0.0050   0.0140   0.0033   0.0025  -0.0084   3.00    6.1
2019/06/12 00:12:41.000   39.714909130 -105.115228662  1694.0052   1   9   0.0118   0.0052   0.0151   0.0034   0.0012  -0.0094   4.00    5.9
2019/06/12 00:12:42.000   39.714909089 -105.115228662  1694.0033   1  10   0.0074   0.0043   0.0113   0.0012   0.0026  -0.0058   0.00    5.8
2019/06/12 00:12:43.000   39.714909062 -105.115228711  1693.9948   1  11   0.0077   0.0048   0.0140  -0.0016   0.0024  -0.0071   1.00    7.1
2019/06/12 00:12:44.000   39.714909077 -105.115228719  1693.9970   1  12   0.0065   0.0045   0.0129  -0.0011   0.0026  -0.0068   2.00    6.8
2019/06/12 00:12:45.000   39.714909065 -105.115228723  1693.9950   1  12   0.0065   0.0045   0.0129  -0.0011   0.0026  -0.0068   3.00    6.6
2019/06/12 00:12:46.000   39.714909045 -105.115228726  1693.9965   1  13   0.0064   0.0045   0.0133  -0.0014   0.0018  -0.0067   4.00    6.4
2019/06/12 00:12:47.000   39.714909022 -105.115228730  1693.9983   1  14   0.0055   0.0038   0.0106  -0.0016   0.0018  -0.0056   0.00    6.2
2019/06/12 00:12:48.000   39.714909049 -105.115228697  1693.9948   1  14   0.0064   0.0044   0.0130  -0.0013   0.0010  -0.0065   1.00    6.0
2019/06/12 00:12:49.000   39.714909018 -105.115228725  1694.0022   1  14   0.0060   0.0042   0.0121  -0.0014   0.0014  -0.0062   2.00    5.8
2019/06/12 00:12:50.000   39.714908994 -105.115228737  1694.0040   1  14   0.0060   0.0042   0.0121  -0.0014   0.0015  -0.0062   3.00    5.6
2019/06/12 00:12:51.000   39.714909044 -105.115228729  1693.9990   1  14   0.0064   0.0044   0.0130  -0.0013   0.0011  -0.0065   4.00    5.4
2019/06/12 00:12:52.000   39.714909022 -105.115228742  1694.0033   1  14   0.0055   0.0038   0.0106  -0.0016   0.0018  -0.0056   0.00    5.3
2019/06/12 00:12:53.000   39.714909076 -105.115228754  1693.9945   1  14   0.0064   0.0045   0.0131  -0.0014   0.0014  -0.0066   1.00    3.7
2019/06/12 00:12:54.000   39.714909079 -105.115228762  1693.9913   1  14   0.0061   0.0042   0.0121  -0.0015   0.0017  -0.0062   2.00    3.6
2019/06/12 00:12:55.000   39.714909112 -105.115228828  1693.9805   1  14   0.0062   0.0043   0.0124  -0.0018   0.0023  -0.0064   3.00    9.3
2019/06/12 00:12:56.000   39.714909116 -105.115228791  1693.9788   1  14   0.0065   0.0046   0.0133  -0.0017   0.0021  -0.0068   4.00    9.1
2019/06/12 00:12:57.000   39.714909082 -105.115228775  1693.9832   1  14   0.0056   0.0040   0.0110  -0.0019   0.0026  -0.0059   0.00    8.9
2019/06/12 00:12:58.000   39.714909070 -105.115228792  1693.9879   1  14   0.0065   0.0046   0.0134  -0.0018   0.0022  -0.0068   1.00    8.6
2019/06/12 00:12:59.000   39.714909082 -105.115228799  1693.9871   1  14   0.0062   0.0044   0.0125  -0.0019   0.0024  -0.0065   2.00    8.4
2019/06/12 00:13:00.000   39.714909095 -105.115228832  1693.9836   1  14   0.0062   0.0044   0.0125  -0.0019   0.0025  -0.0065   3.00    8.2
2019/06/12 00:13:01.000   39.714909124 -105.115228809  1693.9827   1  14   0.0066   0.0046   0.0134  -0.0018   0.0024  -0.0069   4.00    8.0
2019/06/12 00:13:02.000   39.714909103 -105.115228823  1693.9856   1  14   0.0057   0.0041   0.0111  -0.0021   0.0028  -0.0059   0.00    7.8
2019/06/12 00:13:03.000   39.714909134 -105.115228803  1693.9843   1  14   0.0066   0.0047   0.0135  -0.0019   0.0025  -0.0069   1.00    7.5
2019/06/12 00:13:04.000   39.714909135 -105.115228819  1693.9838   1  14   0.0062   0.0044   0.0126  -0.0020   0.0027  -0.0066   2.00    7.3
2019/06/12 00:13:05.000   39.714909125 -105.115228810  1693.9842   1  14   0.0062   0.0045   0.0126  -0.0021   0.0028  -0.0066   3.00    7.1
2019/06/12 00:13:06.000   39.714909110 -105.115228792  1693.9852   1  14   0.0066   0.0047   0.0136  -0.0020   0.0028  -0.0070   4.00    6.8
2019/06/12 00:13:07.000   39.714909112 -105.115228782  1693.9867   1  14   0.0058   0.0042   0.0114  -0.0023   0.0032  -0.0061   0.00    6.6
2019/06/12 00:13:08.000   39.714909077 -105.115228788  1693.9901   1  14   0.0067   0.0048   0.0138  -0.0022   0.0030  -0.0071   1.00    6.4
2019/06/12 00:13:09.000   39.714909093 -105.115228776  1693.9846   1  14   0.0063   0.0046   0.0129  -0.0023   0.0033  -0.0068   2.00    6.2
2019/06/12 00:13:10.000   39.714909095 -105.115228780  1693.9859   1  14   0.0064   0.0047   0.0131  -0.0024   0.0036  -0.0069   3.00    4.7
2019/06/12 00:13:11.000   39.714909095 -105.115228771  1693.9901   1  14   0.0068   0.0050   0.0142  -0.0025   0.0037  -0.0074   4.00    4.6
2019/06/12 00:13:12.000   39.714909033 -105.115228707  1694.0052   1  14   0.0041   0.0030   0.0080  -0.0015   0.0022  -0.0043   0.00    3.3
2019/06/12 00:13:13.000   39.714909057 -105.115228736  1694.0000   1  14   0.0048   0.0034   0.0098  -0.0015   0.0021  -0.0051  -4.00    3.2
2019/06/12 00:13:14.000   39.714909025 -105.115228731  1694.0050   1  14   0.0046   0.0033   0.0092  -0.0016   0.0024  -0.0049  -3.00    3.2
2019/06/12 00:13:15.000   39.714909055 -105.115228750  1694.0032   1  14   0.0047   0.0033   0.0094  -0.0018   0.0026  -0.0050  -2.00    3.2
2019/06/12 00:13:16.000   39.714909007 -105.115228642  1694.0180   1  14   0.0050   0.0036   0.0102  -0.0020   0.0029  -0.0054  -1.00    3.1
2019/06/12 00:13:17.000   39.714909009 -105.115228652  1694.0227   1  13   0.0046   0.0036   0.0094  -0.0025   0.0039  -0.0053   0.00    3.2
2019/06/12 00:13:18.000   39.714909049 -105.115228695  1694.0099   1  12   0.0057   0.0047   0.0123  -0.0035   0.0054  -0.0070  -4.00    3.3
2019/06/12 00:13:19.000   39.714909074 -105.115228668  1694.0127   1  12   0.0054   0.0045   0.0116  -0.0034   0.0052  -0.0066  -3.00    3.3
2019/06/12 00:13:20.000   39.714909095 -105.115228718  1694.0071   1  12   0.0054   0.0045   0.0116  -0.0034   0.0052  -0.0066  -2.00    3.3
2019/06/12 00:13:21.000   39.714909094 -105.115228716  1694.0009   1  12   0.0057   0.0047   0.0123  -0.0035   0.0054  -0.0069  -1.00    3.3
2019/06/12 00:13:22.000   39.714909087 -105.115228710  1694.0000   1  12   0.0050   0.0042   0.0105  -0.0032   0.0050  -0.0061   0.00    3.2
2019/06/12 00:13:23.000   39.714909065 -105.115228745  1694.0021   1  13   0.0052   0.0041   0.0111  -0.0026   0.0041  -0.0059  -4.00    3.2
2019/06/12 00:13:24.000   39.714909123 -105.115228786  1693.9919   1  13   0.0049   0.0038   0.0102  -0.0024   0.0038  -0.0055  -3.00    3.2
2019/06/12 00:13:25.000   39.714909091 -105.115228732  1693.9967   1  13   0.0048   0.0038   0.0102  -0.0023   0.0037  -0.0055  -2.00    3.1
2019/06/12 00:13:26.000   39.714909117 -105.115228781  1693.9902   1  14   0.0051   0.0039   0.0107  -0.0023   0.0036  -0.0057  -1.00    3.1
2019/06/12 00:13:27.000   39.714909089 -105.115228795  1693.9921   1  14   0.0046   0.0036   0.0093  -0.0025   0.0038  -0.0053   0.00    3.1
2019/06/12 00:13:28.000   39.714909089 -105.115228785  1693.9912   1  14   0.0052   0.0040   0.0107  -0.0024   0.0037  -0.0058  -4.00    3.0
2019/06/12 00:13:29.000   39.714909077 -105.115228754  1693.9916   1  14   0.0049   0.0039   0.0102  -0.0024   0.0038  -0.0056  -3.00    3.0
2019/06/12 00:13:30.000   39.714909043 -105.115228685  1694.0117   1  14   0.0069   0.0061   0.0148  -0.0034   0.0062  -0.0078   3.00    5.8
2019/06/12 00:13:31.000   39.714909073 -105.115228698  1694.0002   1  14   0.0076   0.0068   0.0164  -0.0041   0.0071  -0.0088   4.00    5.7
2019/06/12 00:13:32.000   39.714909096 -105.115228789  1693.9936   1  14   0.0049   0.0042   0.0102  -0.0029   0.0048  -0.0058   0.00    3.3
2019/06/12 00:13:33.000   39.714909049 -105.115228764  1694.0034   1  13   0.0056   0.0048   0.0117  -0.0030   0.0050  -0.0065  -4.00    3.2
2019/06/12 00:13:34.000   39.714909056 -105.115228739  1693.9891   1  13   0.0073   0.0069   0.0159  -0.0039   0.0075  -0.0084   2.00    5.3
2019/06/12 00:13:35.000   39.714909077 -105.115228666  1693.9899   1  13   0.0074   0.0075   0.0162  -0.0035   0.0081  -0.0083   3.00    5.1
2019/06/12 00:13:36.000   39.714909054 -105.115228717  1694.0012   1  13   0.0077   0.0070   0.0169  -0.0043   0.0076  -0.0090   4.00    5.0
2019/06/12 00:13:37.000   39.714909057 -105.115228735  1693.9954   1  13   0.0067   0.0065   0.0150  -0.0040   0.0076  -0.0080   0.00    4.9
2019/06/12 00:13:38.000   39.714909025 -105.115228681  1694.0046   1  15   0.0073   0.0072   0.0164  -0.0036   0.0074  -0.0082   1.00    4.7
2019/06/12 00:13:39.000   39.714909002 -105.115228660  1694.0051   1  15   0.0073   0.0068   0.0157  -0.0027   0.0071  -0.0078   2.00    4.6
2019/06/12 00:13:40.000   39.714909013 -105.115228722  1693.9973   1  15   0.0069   0.0058   0.0153  -0.0039   0.0063  -0.0081   3.00    5.0
2019/06/12 00:13:41.000   39.714909069 -105.115228766  1693.9841   1  14   0.0084   0.0070   0.0191  -0.0054   0.0087  -0.0105   4.00    4.8
2019/06/12 00:13:42.000   39.714909067 -105.115228630  1694.0127   1  12   0.0060   0.0052   0.0127  -0.0034   0.0054  -0.0068   0.00    4.7
2019/06/12 00:13:43.000   39.714909058 -105.115228679  1694.0200   1  11   0.0068   0.0060   0.0153  -0.0035   0.0058  -0.0076   1.00    4.4
2019/06/12 00:13:44.000   39.714909013 -105.115228842  1693.9879   1  11   0.0065   0.0057   0.0145  -0.0034   0.0058  -0.0072   2.00    4.2
2019/06/12 00:13:45.000   39.714908956 -105.115228702  1694.0160   1  11   0.0065   0.0056   0.0141  -0.0034   0.0055  -0.0073   3.00    4.0
2019/06/12 00:13:46.000   39.714909050 -105.115228737  1693.9974   1  11   0.0068   0.0059   0.0150  -0.0035   0.0057  -0.0076   4.00    3.8
2019/06/12 00:13:47.000   39.714909055 -105.115228771  1693.9973   1  12   0.0055   0.0043   0.0112  -0.0022   0.0034  -0.0057   0.00    3.4
2019/06/12 00:13:48.000   39.714909031 -105.115228770  1693.9944   1  13   0.0063   0.0048   0.0130  -0.0018   0.0025  -0.0063   1.00    3.2
2019/06/12 00:13:49.000   39.714909036 -105.115228739  1693.9963   1  13   0.0058   0.0042   0.0117  -0.0011   0.0014  -0.0056   2.00    3.0
2019/06/12 00:13:50.000   39.714909034 -105.115228756  1693.9987   1  14   0.0057   0.0043   0.0116  -0.0012   0.0016  -0.0055   3.00    3.0
2019/06/12 00:13:51.000   39.714909028 -105.115228732  1694.0013   1  14   0.0061   0.0046   0.0125  -0.0011   0.0013  -0.0058   4.00    3.2
2019/06/12 00:13:52.000   39.714909017 -105.115228688  1694.0003   1  14   0.0056   0.0044   0.0108  -0.0002   0.0032  -0.0047   0.00    5.8
2019/06/12 00:13:53.000   39.714909043 -105.115228691  1693.9997   1  14   0.0064   0.0050   0.0129   0.0012   0.0028  -0.0055   1.00    5.4
2019/06/12 00:13:54.000   39.714909062 -105.115228699  1693.9997   1  14   0.0061   0.0049   0.0122   0.0010   0.0033  -0.0052   2.00    5.1
2019/06/12 00:13:55.000   39.714909065 -105.115228705  1694.0010   1  14   0.0062   0.0050   0.0124   0.0009   0.0036  -0.0052   3.00    4.7
2019/06/12 00:13:56.000   39.714909051 -105.115228719  1694.0050   1  14   0.0067   0.0054   0.0136   0.0012   0.0037  -0.0055   4.00   45.7
2019/06/12 00:13:57.000   39.714909059 -105.115228711  1694.0154   1  14   0.0061   0.0051   0.0120  -0.0009   0.0046  -0.0049   0.00   45.8
2019/06/12 00:13:58.000   39.714909021 -105.115228656  1694.0217   1  14   0.0072   0.0062   0.0150  -0.0013   0.0055  -0.0062   1.00   45.8
2019/06/12 00:13:59.000   39.714909135 -105.115228776  1693.9951   1  13   0.0072   0.0059   0.0137  -0.0014   0.0053  -0.0056   2.00   46.0
2019/06/12 00:14:00.000   39.714909173 -105.115228728  1694.0009   1  13   0.0077   0.0063   0.0142   0.0005   0.0057  -0.0051   3.00   45.9
2019/06/12 00:14:01.000   39.714909095 -105.115228646  1694.0143   1  12   0.0078   0.0071   0.0152   0.0017   0.0061  -0.0063   4.00   45.9
