     2.11           OBSERVATION DATA    G (GPS)             RINEX VERSION / TYPE
teqc  2018Jun8      root                20191212 04:38:24UTCPGM / RUN BY / DATE
Linux 2.4.21-27.ELsmp|Opteron|gcc|Linux 64|=+               COMMENT
teqc  2019Feb25     CORS-ADM Account    20190427 20:47:30UTCCOMMENT
teqc  2018Jan11                         20190327 00:52:22UTCCOMMENT
Linux 2.4.21-27.ELsmp|Opteron|gcc -static|Linux 64|=+       COMMENT
     2.10           OBSERVATION DATA    G (GPS)             COMMENT
NSTB2RINEX 2.06     NOAA/NOS/NGS/CORS   20190327 00:51:29UTCCOMMENT
Forced Modulo Decimation to 30 seconds                      COMMENT
ZDV1                                                        MARKER NAME
Nathan Vary         FAA                                     OBSERVER / AGENCY
70C1                NOV WAASGII         2.003               REC # / TYPE / VERS
                    MPL_WAAS_2225NW NONE                    ANT # / TYPE
 -1273627.7060 -4711376.5660  4094889.9210                  APPROX POSITION XYZ
        0.0000        0.0000        0.0000                  ANTENNA: DELTA H/E/N
     1     1                                                WAVELENGTH FACT L1/2
     7    L1    L2    P1    P2    C1    S1    S2            # / TYPES OF OBSERV
    30.0000                                                 INTERVAL
teqc.w windowed: start @ 2019 Mar 26 19:00:00.000           COMMENT
teqc.w windowed:  end  @ 2019 Mar 26 22:00:00.000           COMMENT
teqc.w edited: all GLONASS satellites excluded              COMMENT
teqc.w edited: all SBAS satellites excluded                 COMMENT
teqc.w edited: all Galileo satellites excluded              COMMENT
teqc.w edited: all Beidou satellites excluded               COMMENT
teqc.w edited: all QZSS satellites excluded                 COMMENT
  2019     3    26    19     0    0.0000000     GPS         TIME OF FIRST OBS
    18                                                      LEAP SECONDS
                                                            END OF HEADER
 19  3 26 19  0  0.0000000  0 10G05G07G08G09G11G16G23G27G28G30
 129330732.4974  100777187.7884                   24610824.6954   24610820.6034
        43.3004         36.6004
 108754292.5354   84743605.5534                   20695248.8274   20695246.8624
        55.0004         46.3004
 111177992.4494   86632219.1114                   21156464.4524   21156459.1134
        50.6004         44.6004
 107987388.1084   84146010.4364                   20549319.2564   20549314.7664
        54.3004         49.0004
 131253788.9014  102275691.7234                   24976763.3634   24976759.0524
        40.3004         35.0004
 127069059.7784   99014856.9544                   24180442.5694   24180438.5194
        41.6004         37.0004
 117053088.1054   91210197.6734                   22274463.0754   22274461.6734
        49.6004         42.3004
 116022824.1734   90407407.4574                   22078404.7984   22078400.0334
        49.3004         46.6004
 121901143.6134   94987898.0104                   23197014.7264   23197007.1624
        41.6004         40.3004
 116323068.9574   90641350.3474                   22135539.6244   22135535.7764
        49.3004         44.6004
 19  3 26 19  0 30.0000000  0 10G05G07G08G09G11G16G23G27G28G30
 129328147.3244  100775173.3644                   24610331.9904   24610329.5654
        43.0004         34.6004
 108724965.1424   84720753.0484                   20689667.6054   20689665.7294
        55.0004         46.3004
 111158608.4554   86617114.7194                   21152775.9034   21152770.6554
        50.6004         44.3004
 108036695.9344   84184432.1044                   20558701.5264   20558697.0334
        54.0004         49.0004
 131159746.6614  102202412.1374                   24958868.2694   24958864.6464
        41.6004         35.0004
 127174797.0004   99097249.5154                   24200562.1514   24200557.8704
        39.3004         39.0004
 117147874.5104   91284057.1774                   22292499.2684   22292499.6394
        50.0004         41.6004
 116068595.5964   90443073.5034                   22087114.6574   22087109.8224
        49.0004         46.6004
 121820740.9794   94925246.6454                   23181712.8034   23181709.7344
        43.3004         38.0004
 116252947.6204   90586710.3654                   22122196.1124   22122191.9354
        49.6004         44.3004
 19  3 26 19  1  0.0000000  0 10G05G07G08G09G11G16G23G27G28G30
 129326087.0334  100773567.9184                   24609940.1134   24609936.5544
        42.3004         37.0004
 108695875.8004   84698086.0284                   20684131.9284   20684130.5244
        55.0004         46.3004
 111139837.8884   86602488.3164                   21149204.4594   21149198.3454
        50.6004         45.0004
 108086531.1344   84223264.7144                   20568185.0554   20568180.4154
        54.0004         49.0004
 131065659.7504  102129097.7094                   24940964.2214   24940960.0744
        42.0004         36.6004
 127280547.6674   99179652.5094                   24220686.3044   24220682.6564
        39.3004         40.3004
 117242977.4364   91358163.3274                   22310596.7394   22310595.4874
        49.3004         42.3004
 116114950.6394   90479194.3114                   22095936.6034   22095931.6204
        49.3004         47.0004
 121740587.3244   94862789.2834                   23166459.0734   23166456.8944
        44.0004         37.0004
 116182955.0884   90532170.7414                   22108877.4694   22108872.8924
        49.3004         45.0004
 19  3 26 19  1 30.0000000  0 10G05G07G08G09G11G16G23G27G28G30
 129324550.8814  100772370.9084                   24609647.0384   24609642.0764
        41.3004         36.6004
 108667025.6204   84675605.3724                   20678642.1364   20678640.3584
        55.0004         46.3004
 111121680.8974   86588340.0264                   21145749.1034   21145743.2054
        50.6004         44.6004
 108136892.2124   84262507.0994                   20577768.5424   20577763.5824
        54.0004         49.0004
 130971530.9394  102055750.6554                   24923052.3344   24923048.7804
        41.6004         35.3004
 127386309.6554   99262064.3724                   24240810.3674   24240809.4774
        40.6004         39.3004
 117338394.2654   91432514.0764                   22328754.5654   22328754.1234
        50.0004         42.0004
 116161887.3634   90515768.3804                   22104868.6814   22104863.7924
        49.3004         46.3004
 121660682.6854   94800525.9544                   23151255.8084   23151253.3074
        45.3004         38.0004
 116113092.1194   90477732.0964                   22095583.3454   22095578.4304
        49.6004         45.3004
 19  3 26 19  2  0.0000000  0 10G05G07G08G09G11G16G23G27G28G30
 129323538.1194  100771581.7184                   24609456.0764   24609449.4824
        41.0004         37.3004
 108638415.0734   84653311.4444                   20673198.1174   20673195.8344
        55.0004         47.0004
 111104138.2524   86574670.4364                   21142410.2114   21142405.1164
        50.6004         44.3004
 108187777.7934   84302158.1834                   20587451.9624   20587447.3044
        54.0004         49.0004
 130877362.9464  101982373.0744                   24905132.4844   24905128.7444
        40.3004         37.3004
 127492081.2574   99344483.7424                   24260938.7104   24260934.3334
        40.6004         40.3004
 117434122.7374   91507107.6444                   22346971.1384   22346969.8354
        49.0004         42.6004
 116209403.8954   90552794.2544                   22113911.1564   22113906.8314
        49.0004         46.6004
 121581027.4444   94738457.0094                   23136097.1074   23136094.6294
        44.6004         39.0004
 116043359.5004   90423395.0144                   22082313.2334   22082309.4084
        49.6004         45.3004
 19  3 26 19  2 30.0000000  0 10G05G07G08G09G11G16G23G27G28G30
 129323048.7654  100771200.3914                   24609361.8974   24609358.1794
        42.0004         36.6004
 108610046.3334   84631205.9414                   20667799.9694   20667797.5894
        55.3004         47.0004
 111087211.2864   86561480.6014                   21139188.8624   21139184.4264
        51.0004         44.0004
 108239187.0944   84342217.3634                   20597234.7064   20597230.0864
        54.0004         49.0004
 130783159.1004  101908967.5334                   24887206.2764   24887201.3934
        39.3004         36.3004
 127597861.5414   99426909.8794                   24281068.2254   24281063.3844
        41.0004         39.6004
 117530160.9784   91581942.6084                   22365246.6364   22365246.0214
        49.0004         42.3004
 116257499.0244   90590270.9714                   22123062.9674   22123057.8164
        48.3004         47.0004
 121501623.3564   94676583.7434                   23120988.7334   23120984.6364
        44.6004         39.0004
 115973758.7834   90369160.7084                   22069068.9234   22069064.4834
        49.6004         45.3004
 19  3 26 19  3  0.0000000  0 10G05G07G08G09G11G16G23G27G28G30
 129323082.0934  100771226.3664                   24609370.1264   24609364.0344
        42.3004         36.6004
 108581919.4154   84609288.8624                   20662448.0154   20662444.9934
        55.3004         47.3004
 111070900.2464   86548770.7034                   21136085.2764   21136079.8844
        51.0004         44.0004
 108291118.4034   84382683.3084                   20607116.8444   20607111.8654
        54.0004         48.6004
 130688921.3294  101835535.5944                   24869271.2704   24869268.4284
        39.6004         36.6004
 127703648.2974   99509341.1064                   24301197.6164   24301195.5254
        42.3004         37.0004
 117626506.2354   91657016.7834                   22383581.6174   22383578.4024
        48.0004         42.6004
 116306170.4974   90628196.7904                   22132324.7944   22132318.2084
        47.6004         47.6004
 121422470.2444   94614906.0424                   23105923.3944   23105922.5734
        45.6004         37.0004
 115904290.4774   90315029.5864                   22055848.7694   22055844.4604
        49.3004         45.3004
 19  3 26 19  3 30.0000000  0 10G05G07G08G09G11G16G23G27G28G30
 129323636.4574  100771658.3074                   24609474.8954   24609468.7884
        40.6004         37.6004
 108554035.3394   84587561.0164                   20657141.9034   20657139.2854
        55.3004         47.6004
 111055204.9964   86536540.6434                   21133098.3514   21133093.7534
        50.6004         44.0004
 108343569.5514   84423554.3214                   20617097.6354   20617093.4524
        54.0004         48.6004
 130594651.7144  101762078.8084                   24851334.3834   24851331.2964
        41.3004         35.6004
 127809439.2294   99591775.5764                   24321329.4994   24321328.2144
        42.3004         34.3004
 117723155.3324   91732327.7034                   22401972.3914   22401971.6564
        48.0004         42.0004
 116355415.6644   90666569.6654                   22141696.2344   22141691.3524
        48.6004         47.0004
 121343568.1274   94553423.8814                   23090910.2844   23090908.6414
        46.3004         36.6004
 115834954.8084   90261001.8044                   22042654.5874   22042649.9124
        49.0004         45.0004
 19  3 26 19  4  0.0000000  0 10G05G07G08G09G11G16G23G27G28G30
 129324711.9204  100772496.3234                   24609678.9814   24609673.0394
        41.6004         37.0004
 108526395.3364   84566023.3574                   20651882.0744   20651879.4424
        55.6004         47.6004
 111040126.6734   86524791.3094                   21130229.2944   21130223.7344
        50.6004         44.3004
 108396539.7434   84464829.7854                   20627177.4154   20627173.1524
        54.0004         48.3004
 130500353.7604  101688599.9654                   24833387.5154   24833386.5974
        42.3004         36.6004
 127915233.1324   99674212.4204                   24341461.6944   24341458.4954
        40.0004         36.0004
 117820106.7714   91807874.2504                   22420421.7934   22420419.9174
        48.0004         42.0004
 116405233.3124   90705388.6284                   22151176.3844   22151170.8644
        48.6004         47.0004
 121264918.6504   94492138.5994                   23075942.4144   23075941.3934
        46.0004         37.6004
 115765753.2924   90207078.5664                   22029486.4884   22029480.9124
        49.0004         46.0004
 19  3 26 19  4 30.0000000  0 10G05G07G08G09G11G16G23G27G28G30
 129326308.0514  100773740.0074                   24609981.8244   24609977.8674
        42.3004         36.0004
 108499001.0174   84544677.1374                   20646668.8224   20646666.8054
        55.6004         47.3004
 111025666.1094   86513523.3474                   21127477.5254   21127472.1104
        50.3004         44.6004
 108450027.9374   84506508.8844                   20637356.4214   20637351.7284
        53.6004         48.3004
 130406030.4834  101615101.3604                   24815439.3434   24815437.8644
        41.6004         36.6004
 128021028.5474   99756650.3674                   24361594.2314   24361589.0484
        36.6004         39.0004
 117917358.3874   91883654.6834                   22438928.6464   22438927.0684
        48.0004         41.6004
 116455621.9004   90744652.4724                   22160764.7194   22160758.3584
        47.6004         47.0004
 121186522.4494   94431050.7414                   23061025.4464   23061021.7534
        44.3004         39.0004
 115696687.2444   90153260.8944                   22016343.6674   22016338.9034
        49.0004         45.6004
 19  3 26 19  5  0.0000000  0 10G05G07G08G09G11G16G23G27G28G30
 129328424.9774  100775389.5424                   24610383.5764   24610378.2614
        39.6004         37.3004
 108471854.1344   84523523.7214                   20641502.9304   20641501.0224
        55.6004         47.3004
 111011824.3824   86502737.6004                   21124843.7944   21124838.4354
        50.6004         45.0004
 108504033.3694   84548591.0254                   20647633.3114   20647628.6484
        53.3004         48.3004
 130311685.3244  101541585.7424                   24797485.4004   24797483.2034
        40.6004         37.3004
 128126824.4144   99839088.5554                   24381728.0844   24381724.2524
        37.0004         38.6004
 118014908.5464   91959667.7544                   22457491.6394   22457489.8584
        48.0004         41.0004
 116506580.1634   90784360.2124                   22170461.6304   22170455.8844
        47.6004         46.0004
 121108381.0664   94370161.4434                   23046153.9054   23046151.5464
        44.6004         39.3004
 115627758.3324   90099550.0814                   22003226.6794   22003221.7814
        49.0004         45.6004
 19  3 26 19  5 30.0000000  0 10G05G07G08G09G11G16G23G27G28G30
 129331060.6664  100777443.3264                   24610885.8374   24610881.0854
        41.3004         36.3004
 108444954.2474   84502562.7764                   20636383.9404   20636381.3914
        55.3004         47.3004
 110998600.8004   86492433.5214                   21122328.4374   21122321.9584
        50.6004         45.3004
 108558553.2514   84591074.0344                   20658007.8904   20658003.3654
        53.3004         48.3004
 130217319.5234  101468054.0074                   24779531.3774   24779525.7244
        40.6004         38.0004
 128232617.8634   99921524.9534                   24401858.9484   24401855.8854
        40.0004         39.0004
 118112753.3704   92035910.4274                   22476110.1194   22476110.8924
        48.3004         40.3004
 116558104.8874   90824509.3364                   22180265.2544   22180259.9324
        47.3004         45.0004
 121030493.9094   94309470.1934                   23031332.9724   23031329.6914
        44.6004         38.3004
 115558966.2044   90045945.8314                   21990136.4114   21990131.1394
        49.0004         46.3004
 19  3 26 19  6  0.0000000  0 10G05G07G08G09G11G16G23G27G28G30
 129334214.5804  100779900.8364                   24611485.4664   24611482.6854
        42.6004         35.3004
 108418303.0244   84481795.5974                   20631312.2894   20631310.1754
        55.3004         47.0004
 110985996.3984   86482611.9174                   21119929.8294   21119923.3084
        50.6004         45.3004
 108613586.4334   84633957.0214                   20668480.6174   20668475.9834
        53.3004         48.3004
 130122936.5294  101394508.9044                   24761572.5294   24761566.1684
        40.3004         37.6004
 128338407.4174  100003958.3254                   24421989.3774   24421986.4704
        42.0004         38.6004
 118210890.7564   92112381.0824                   22494786.2344   22494786.0784
        49.0004         40.3004
 116610194.3834   90865098.5454                   22190177.5084   22190173.2534
        47.6004         43.6004
 120952861.7234   94248977.6304                   23016559.0414   23016557.3614
        45.0004         36.6004
 115490312.0804   89992449.1284                   21977072.4644   21977066.9844
        49.3004         45.6004
 19  3 26 19  6 30.0000000  0 11G05G07G08G09G11G16G18G23G27G28G30
 129337886.3544  100782761.9464                   24612184.6154   24612178.5574
        40.6004         37.0004
 108391901.5334   84461223.0144                   20626288.2544   20626285.8214
        55.3004         47.0004
 110974011.9694   86473273.4214                   21117648.3074   21117643.5094
        50.6004         45.0004
 108669131.7734   84677239.0804                   20679050.5274   20679045.4014
        53.3004         48.6004
 130028538.9814  101320952.4484                   24743606.2184   24743603.3144
        40.6004         37.0004
 128444192.2114  100086387.9734                   24442120.6724   24442117.3204
        43.0004         38.3004
    -30816.6244                                          0.9464   25231038.9464

 118309319.0134   92189078.3734                   22513515.7134   22513515.0474
        48.3004         40.6004
 116662847.0234   90906126.5604                   22200196.6474   22200193.1314
        48.0004         42.6004
 120875485.3794   94188684.4324                   23001836.3474   23001833.9804
        45.3004         38.3004
 115421797.3164   89939061.0284                   21964034.1344   21964028.7674
        49.3004         46.0004
 19  3 26 19  7  0.0000000  0 11G05G07G08G09G11G16G18G23G27G28G30
 129342075.5184  100786026.2174                   24612983.2284   24612977.5524
        42.0004         37.3004
 108365751.5634   84440846.4174                   20621311.6884   20621309.7994
        55.0004         47.0004
 110962648.4344   86464418.7384                   21115486.1524   21115480.3294
        50.3004         45.3004
 108725188.2224   84720919.4144                   20689717.7264   20689713.2854
        53.6004         48.6004
 129934130.4474  101247387.4254                   24725638.9854   24725636.3364
        41.0004         38.6004
 128549970.7274  100168812.7644                   24462249.1764   24462246.8774
        43.3004         36.6004
 135654372.5164                                          0.6554   25814168.6554
        36.0004
 118408035.7144   92266000.4214                   22532301.3454   22532300.3064
        48.0004         41.0004
 116716061.3424   90947592.2614                   22210322.8114   22210318.9214
        47.3004         43.0004
 120798366.0154   94128591.4764                   22987161.1424   22987158.5824
        46.0004         40.0004
 115353423.4264   89885782.6804                   21951022.8074   21951017.8774
        49.3004         46.3004
 19  3 26 19  7 30.0000000  0 11G05G07G08G09G11G16G18G23G27G28G30
 129346780.4624  100789692.3704                   24613879.4954   24613873.0604
        42.6004         38.0004
 108339853.1114   84420665.8114                   20616382.7904   20616380.9194
        54.6004         47.0004
 110951904.8334   86456047.1204                   21113441.1304   21113436.2154
        50.3004         45.3004
 108781753.1874   84764996.0014                   20700482.0404   20700477.1114
        53.3004         48.6004
 129839712.2234  101173814.8864                   24707672.4294   24707670.5704
        43.0004         38.0004
 128655740.0794  100251230.4374                   24482373.9314   24482372.9984
        41.3004         36.0004
 135567801.6494  105637246.7104                   25797701.4044   25797695.6144
        33.3004         30.6004
 118507037.8144   92343144.8544                   22551140.5844   22551139.6464
        48.0004         40.6004
 116769834.2154   90989493.1974                   22220555.1334   22220551.3944
        47.0004         43.0004
 120721503.2834   94068698.5094                   22972535.1624   22972533.1934
        46.6004         39.3004
 115285190.2754   89832614.0184                   21938038.7174   21938033.6464
        49.6004         46.3004
 19  3 26 19  8  0.0000000  0 11G05G07G08G09G11G16G18G23G27G28G30
 129352000.7324  100793760.0954                   24614872.6984   24614867.3104
        43.0004         38.3004
 108314207.8694   84400682.5064                   20611502.8224   20611501.5634
        55.0004         47.0004
 110941781.9394   86448159.1654                   21111514.8124   21111509.9904
        50.3004         45.0004
 108838825.6174   84809468.0124                   20711342.7214   20711337.5214
        53.0004         48.6004
 129745288.1254  101100237.7454                   24689705.7814   24689701.0574
        42.6004         39.0004
 128761499.6874  100333640.4664                   24502502.8304   24502497.7474
        39.6004         37.3004
 135481134.2254  105569713.6654                   25781208.7314   25781201.9474
        34.0004         29.0004
 118606323.2384   92420510.0744                   22570033.4834   22570033.7184
        48.3004         39.6004
 116824164.1014   91031828.1544                   22230893.7164   22230889.6744
        46.6004         43.6004
 120644898.2034   94009006.2784                   22957956.3454   22957954.6234
        46.0004         38.3004
 115217099.3834   89779556.1924                   21925081.1594   21925076.3234
        49.6004         46.3004
 19  3 26 19  8 30.0000000  0 11G05G07G08G09G11G16G18G23G27G28G30
 129357735.6804  100798228.8554                   24615963.6334   24615959.2304
        43.6004         37.3004
 108288816.7554   84380897.2174                   20606671.4194   20606669.9954
        55.3004         46.6004
 110932280.3574   86440755.3484                   21109706.9154   21109701.2714
        50.6004         44.6004
 108896404.0134   84854334.2794                   20722299.5374   20722294.0964
        53.0004         48.3004
 129650860.6934  101026658.0014                   24671737.9234   24671732.3934
        43.0004         39.6004
 128867247.5544  100416041.3424                   24522622.6964   24522622.0874
        39.6004         36.3004
 135394373.4214  105502108.0204                   25764697.5694   25764692.6184
        35.6004         30.0004
 118705889.3954   92498094.0494                   22588981.3304   22588980.3444
        49.0004         39.3004
 116879049.0174   91074595.6334                   22241338.3184   22241334.6864
        47.3004         43.0004
 120568551.5324   93949515.3804                   22943427.5574   22943426.9194
        46.3004         37.6004
 115149151.8104   89726610.0444                   21912151.2934   21912146.2994
        49.6004         46.0004
 19  3 26 19  9  0.0000000  0 11G05G07G08G09G11G16G18G23G27G28G30
 129363984.6554  100803098.1954                   24617152.6794   24617146.8474
        42.3004         37.0004
 108263681.2974   84361311.1494                   20601888.7404   20601886.8224
        55.3004         47.3004
 110923400.9184   86433836.3164                   21108016.8574   21108011.6944
        50.6004         45.0004
 108954487.0994   84899593.8164                   20733352.3624   20733346.9134
        53.0004         48.3004
 129556433.2114  100953078.2274                   24653766.5264   24653764.2374
        43.0004         38.0004
 128972982.4424  100498432.1084                   24542746.8034   24542743.4864
        40.6004         35.6004
 135307522.1954  105434431.7224                   25748168.9644   25748164.7894
        35.3004         32.0004
 118805734.2154   92575895.1614                   22607980.5714   22607979.9334
        48.6004         39.0004
 116934487.2634   91117794.2684                   22251888.5264   22251884.0324
        47.6004         44.0004
 120492464.0374   93890226.4714                   22928949.4584   22928947.4884
        46.0004         38.6004
 115081348.8974   89673776.6174                   21899248.8844   21899244.7654
        50.6004         45.6004
 19  3 26 19  9 30.0000000  0 11G05G07G08G09G11G16G18G23G27G28G30
 129370746.1974  100808366.8924                   24618440.6364   24618432.6054
        42.3004         37.6004
 108238801.9334   84341924.6384                   20597154.2784   20597152.4244
        55.3004         47.0004
 110915143.0104   86427401.6004                   21106445.2014   21106440.5244
        51.0004         44.6004
 109013072.7474   84945244.9474                   20744500.9654   20744495.8394
        52.6004         48.0004
 129462007.7254  100879500.0234                   24635798.6734   24635795.3754
        42.6004         38.6004
 129078702.6754  100580811.4604                   24562862.7244   24562861.7464
        42.3004         36.6004
 135220582.5714  105366686.7574                   25731626.5484   25731620.4384
        34.6004         33.3004
 118905855.0854   92653911.3964                   22627032.1514   22627032.2254
        48.0004         38.0004
 116990476.1214   91161421.9554                   22262543.5704   22262537.7134
        47.3004         45.0004
 120416635.9764   93831139.7194                   22914520.2154   22914519.2314
        46.6004         39.3004
 115013691.1284   89621056.2834                   21886373.4844   21886368.8964
        50.0004         45.6004
 19  3 26 19 10  0.0000000  0 11G05G07G08G09G11G16G18G23G27G28G30
 129378019.6784  100814034.4724                   24619823.9414   24619817.5804
        42.0004         38.0004
 108214180.1274   84322738.8114                   20592468.6554   20592467.1734
        55.0004         47.0004
 110907507.3954   86421451.7744                   21104992.2794   21104987.7824
        51.0004         44.6004
 109072159.4664   84991286.5324                   20755744.6874   20755739.3524
        52.6004         48.0004
 129367587.2554  100805925.6924                   24617830.4924   24617826.3664
        41.6004         38.6004
 129184406.3484  100663177.9504                   24582978.1774   24582976.2054
        42.6004         37.0004
 135133557.4934  105298875.0724                   25715068.2294   25715059.8944
        34.3004         35.3004
 119006249.6514   92732140.8694                   22646139.0504   22646137.9694
        48.3004         39.0004
 117047013.7004   91205477.1904                   22273302.5054   22273296.8344
        48.0004         45.3004
 120341067.6614   93772255.3744                   22900140.1534   22900137.6584
        45.6004         39.6004
 114946179.6684   89568449.9734                   21873526.6874   21873520.5924
        49.3004         46.3004
 19  3 26 19 10 30.0000000  0 11G05G07G08G09G11G16G18G23G27G28G30
 129385804.8334  100820100.7974                   24621305.6564   24621300.6074
        44.0004         37.6004
 108189817.5454   84303754.9884                   20587833.0794   20587830.6864
        55.0004         47.3004
 110900494.6864   86415987.3414                   21103658.0944   21103653.5924
        51.3004         44.6004
 109131746.2764   85037717.7964                   20767083.6854   20767078.5924
        52.6004         48.0004
 129273175.4794  100732358.1514                   24599863.8664   24599860.2484
        41.3004         37.0004
 129290092.6674  100745530.8814                   24603089.0574   24603087.1264
        42.3004         37.3004
 135046450.3904  105230999.6144                   25698492.3624   25698483.9564
        34.3004         32.0004
 119106915.8424   92810582.0124                   22665293.5764   22665293.8744
        48.3004         38.6004
 117104098.5064   91249958.8674                   22284165.2804   22284160.8294
        48.6004         45.0004
 120265760.4954   93713574.5324                   22885809.7284   22885805.0434
        44.0004         39.6004
 114878816.1834   89515958.9704                   21860708.2254   21860702.3044
        49.6004         46.3004
 19  3 26 19 11  0.0000000  0 11G05G07G08G09G11G16G18G23G27G28G30
 129394099.4424  100826564.1064                   24622884.1854   24622880.9584
        44.6004         37.0004
 108165714.1204   84284973.1074                   20583246.1654   20583243.7834
        55.0004         47.0004
 110894104.0494   86411007.6334                   21102442.1864   21102436.6874
        50.6004         44.6004
 109191830.3114   85084536.5104                   20778517.1184   20778512.6494
        53.0004         47.6004
 129178774.0544  100658798.6824                   24581898.7454   24581895.1794
        40.6004         37.6004
 129395758.7004  100827868.0184                   24623197.1214   24623194.0284
        41.3004         37.3004
 134959262.8774  105163061.4704                   25681902.2814   25681893.0194
        35.6004         32.6004
 119207849.9504   92889231.9294                   22684501.6784   22684500.4244
        47.6004         39.3004
 117161727.2024   91294864.3454                   22295131.9544   22295127.6744
        48.6004         45.0004
 120190713.8264   93655096.6604                   22871526.2434   22871524.2684
        44.0004         39.6004
 114811600.5434   89463583.1714                   21847917.3654   21847912.4324
        50.3004         45.3004
 19  3 26 19 11 30.0000000  0 11G05G07G08G09G11G16G18G23G27G28G30
 129402903.4394  100833424.3204                   24624558.8814   24624554.6854
        44.6004         36.6004
 108141871.6804   84266394.5804                   20578708.9774   20578706.9664
        55.3004         47.0004
 110888335.9584   86406513.0314                   21101344.5334   21101339.1344
        51.0004         44.6004
 109252410.5924   85131741.9014                   20790045.5124   20790040.6234
        53.3004         47.6004
 129084386.3254  100585249.8544                   24563938.6094   24563935.4744
        41.6004         36.6004
 129501404.0764  100910189.0284                   24643299.6494   24643299.0414
        41.3004         36.3004
 134871998.2424  105095063.2214                   25665290.5034   25665284.8014
        35.0004         34.0004
 119309050.2494   92968089.2314                   22703759.3964   22703758.1984
        47.6004         39.6004
 117219898.3074   91340192.4614                   22306201.7954   22306196.9814
        49.0004         45.3004
 120115928.7034   93596822.5744                   22857297.7784   22857294.2674
        45.3004         39.0004
 114744534.4504   89411323.8874                   21835154.9594   21835149.7114
        50.3004         45.3004
 19  3 26 19 12  0.0000000  0 11G05G07G08G09G11G16G18G23G27G28G30
 129412215.4854  100840680.4324                   24626333.2754   24626326.0584
        44.0004         37.6004
 108118291.5414   84248020.4444                   20574222.1454   20574219.4274
        55.0004         47.6004
 110883191.4954   86402504.3704                   21100365.5234   21100359.7924
        50.3004         45.0004
 109313485.6664   85179332.8554                   20801667.6624   20801662.6064
        52.6004         47.6004
 128990015.1624  100511713.9574                   24545979.9644   24545975.9664
        40.0004         36.6004
 129607027.1544  100992492.6764                   24663399.7604   24663398.7854
        40.6004         36.3004
 134784659.7424  105027007.4054                   25648672.3654   25648666.3754
        35.6004         33.0004
 119410514.5884   93047152.3094                   22723066.7164   22723066.9224
        48.0004         39.6004
 117278609.8884   91385941.7374                   22317374.6814   22317368.3314
        48.3004         46.0004
 120041406.1864   93538753.1274                   22843116.6614   22843113.0044
        44.6004         41.0004
 114677619.2534   89359182.1964                   21822421.8934   21822415.5414
        49.6004         46.0004
 19  3 26 19 12 30.0000000  0 11G05G07G08G09G11G16G18G23G27G28G30
 129422034.9284  100848331.9124                   24628199.1764   24628195.6224
        44.3004         36.6004
 108094974.7264   84229851.5014                   20569785.4334   20569782.5614
        55.3004         47.3004
 110878670.4104   86398981.4614                   21099505.0714   21099499.9664
        51.0004         44.3004
 109375053.7314   85227307.9584                   20813383.4914   20813377.7594
        52.3004         47.6004
 128895663.4484  100438193.1994                   24528026.0504   24528022.8134
        40.3004         37.3004
 129712626.4334  101074777.8024                   24683494.1884   24683492.2214
        41.0004         36.0004
 134697250.0974  104958896.1334                   25632037.9594   25632034.4064
        36.6004         30.3004
 119512240.4204   93126419.1174                   22742425.0614   22742423.4634
        47.3004         40.3004
 117337859.6574   91432110.3884                   22328649.5364   22328644.4434
        48.6004         45.3004
 119967146.3904   93480888.4154                   22828984.6494   22828982.4764
        45.0004         40.6004
 114610855.9094   89307158.8364                   21809716.2224   21809712.0244
        50.6004         45.3004
 19  3 26 19 13  0.0000000  0 11G05G07G08G09G11G16G18G23G27G28G30
 129432360.5084  100856377.8054                   24630162.8724   24630161.1914
        45.3004         36.0004
 108071922.1034   84211888.4234                   20565398.9184   20565395.8864
        55.3004         47.6004
 110874772.5424   86395944.1684                   21098763.4184   21098757.3514
        50.3004         45.0004
 109437112.9164   85275665.7424                   20825192.9754   20825187.5814
        52.0004         47.6004
 128801333.6834  100364689.5644                   24510075.1954   24510072.8844
        40.6004         37.0004
 129818200.3354  101157043.1014                   24703584.1784   24703584.4364
        42.0004         35.3004
 134609772.0294  104890731.5114                   25615396.8144   25615387.1864
        37.6004         32.3004
 119614224.9474   93205887.5214                   22761832.5764   22761831.9324
        48.3004         40.3004
 117397645.2864   91478696.5714                   22340025.6174   22340020.0724
        48.0004         45.3004
 119893149.6664   93423228.6434                   22814903.5874   22814901.5974
        45.3004         38.6004
 114544245.2824   89255254.4714                   21797040.2484   21797035.3754
        50.0004         45.6004
 19  3 26 19 13 30.0000000  0 11G05G07G08G09G11G16G18G23G27G28G30
 129443191.3624  100864817.4244                   24632222.5304   24632220.3534
        43.6004         35.3004
 108049135.0064   84194132.2464                   20561062.4744   20561060.0284
        55.6004         47.6004
 110871497.8894   86393392.5064                   21098140.3084   21098135.3114
        51.3004         44.3004
 109499661.6614   85324405.0074                   20837094.9694   20837090.0814
        52.3004         47.0004
 128707029.4624  100291205.7684                   24492129.6024   24492127.0024
        41.3004         34.6004
 129923747.4794  101239287.5884                   24723667.5124   24723667.9594
        41.6004         35.6004
 134522228.2794  104822515.6074                   25598734.4974   25598727.6024
        39.0004         33.6004
 119716466.0514   93285555.8544                   22781288.2784   22781286.6894
        47.6004         41.0004
 117457964.6854   91525698.6864                   22351503.7514   22351498.3324
        48.3004         44.6004
 119819416.9244   93365774.5814                   22800871.5784   22800869.4204
        45.6004         38.3004
 114477788.6754   89203470.1254                   21784394.5584   21784389.4794
        50.6004         45.6004
 19  3 26 19 14  0.0000000  0 11G05G07G08G09G11G16G18G23G27G28G30
 129454526.7564  100873650.1634                   24634380.4224   24634377.9144
        43.6004         35.6004
 108026614.8384   84176584.0684                   20556776.8964   20556774.5884
        55.6004         47.6004
 110868846.8294   86391326.7444                   21097636.5914   21097630.1494
        50.6004         44.6004
 109562698.1594   85373524.3484                   20849090.5434   20849085.8064
        52.6004         47.3004
 128612753.4044  100217743.9554                   24474192.5214   24474187.9564
        40.6004         34.6004
 130029266.2144  101321509.9624                   24743750.4634   24743746.2994
        41.6004         36.0004
 134434622.0064  104754251.0324                   25582063.6164   25582057.4914
        38.6004         31.3004
 119818961.2414   93365422.1714                   22800792.1654   22800791.5024
        48.3004         41.0004
 117518815.5824   91573114.9634                   22363082.6304   22363078.9014
        49.0004         43.6004
 119745948.5624   93308526.5254                   22786891.0774   22786887.9404
        45.0004         39.3004
 114411487.1174   89151806.5954                   21771778.1224   21771772.8594
        50.6004         45.6004
 19  3 26 19 14 30.0000000  0 11G05G07G08G09G11G16G18G23G27G28G30
 129466364.6674  100882874.4874                   24636633.7604   24636632.4314
        44.0004         35.0004
 108004362.3454   84159244.4724                   20552542.0694   20552539.5814
        55.3004         48.0004
 110866818.9514   86389746.5974                   21097250.1664   21097244.6584
        50.6004         45.0004
 109626220.4544   85423022.2324                   20861179.0974   20861173.9414
        52.6004         47.6004
 128518508.1434  100144306.1674                   24456254.4704   24456251.6284
        39.3004         36.0004
 130134755.1344  101403709.0734                   24763823.4044   24763822.2334
        41.6004         35.6004
 134346955.7004  104685939.6204                   25565381.9784   25565374.3764
        39.0004         32.3004
 119921707.6624   93445484.2614                   22820344.5054   22820343.6994
        48.0004         41.3004
 117580195.5594   91620943.5184                   22374762.9304   22374758.3254
        49.0004         43.6004
 119672744.8454   93251484.7144                   22772961.9624   22772956.8374
        43.6004         41.6004
 114345341.5084   89100264.5854                   21759190.6614   21759185.6814
        50.6004         46.3004
 19  3 26 19 15  0.0000000  0 11G05G07G08G09G11G16G18G23G27G28G30
 129478704.1304  100892489.6424                   24638979.6114   24638979.4244
        43.3004         34.0004
 107982378.3684   84142114.1064                   20548358.1674   20548356.2764
        55.6004         47.3004
 110865414.3534   86388652.1144                   21096982.9764   21096977.8934
        51.0004         44.3004
 109690226.7034   85472897.2094                   20873359.0564   20873354.3994
        53.3004         47.3004
 128424296.1774  100070894.2834                   24438325.8074   24438324.1514
        40.0004         36.3004
 130240212.4524  101485883.5364                   24783891.7564   24783888.4874
        39.6004         36.0004
 134259232.4864  104617583.8784                   25548686.8144   25548682.6104
        39.3004         31.0004
 120024703.0274   93525740.3374                   22839944.7394   22839942.8404
        47.6004         41.0004
 117642102.2674   91669182.4904                   22386544.3104   22386538.3174
        48.6004         44.0004
 119599806.0044   93194649.3064                   22759082.5464   22759078.0794
        44.6004         40.6004
 114279352.9004   89048844.9104                   21746633.4294   21746628.9774
        51.0004         45.6004
 19  3 26 19 15 30.0000000  0 11G05G07G08G09G11G16G18G23G27G28G30
 129491544.1964  100902494.8224                   24641425.7174   24641419.8254
        41.3004         37.0004
 107960664.2874   84125194.0414                   20544226.0884   20544224.0704
        55.6004         47.3004
 110864633.1224   86388043.3664                   21096834.1474   21096828.2244
        50.6004         45.0004
 109754715.1474   85523147.9334                   20885631.0444   20885626.2444
        53.0004         47.6004
 128330120.9134   99997511.0194                   24420406.8224   24420403.7854
        40.6004         35.3004
 130345636.8434  101568032.3804                   24803952.8104   24803950.3294
        39.6004         35.3004
 134171455.3314  104549186.1474                   25531982.7194   25531977.7764
        38.6004         32.6004
 120127944.5224   93606188.1854                   22859591.0544   22859587.5824
        47.0004         41.3004
 117704533.4974   91717830.1784                   22398423.8574   22398419.6184
        49.3004         43.3004
 119527132.7314   93138020.8424                   22745253.9394   22745249.0864
        45.3004         40.3004
 114213522.4294   88997548.4624                   21734106.1484   21734101.3114
        50.6004         46.0004
 19  3 26 19 16  0.0000000  0 11G05G07G08G09G11G16G18G23G27G28G30
 129504884.3334  100912889.7184                   24643963.2064   24643956.1484
        40.0004         37.0004
 107939222.0304   84108485.7984                   20540145.5774   20540144.1174
        55.6004         47.6004
 110864475.8944   86387920.8564                   21096804.0994   21096798.7944
        50.6004         45.3004
 109819684.7304   85573773.5564                   20897993.8574   20897989.4444
        53.0004         47.6004
 128235985.7174   99924158.9784                   24402492.8034   24402488.5234
        40.0004         37.0004
 130451028.0624  101650155.3514                   24824008.0114   24824005.8924
        39.6004         35.3004
 134083627.8134  104480749.2014                   25515273.2834   25515266.1244
        40.0004         33.0004
 120231430.6734   93686826.6884                   22879282.8924   22879281.7474
        47.0004         40.6004
 117767487.6904   91766885.3864                   22410402.9914   22410399.1404
        49.3004         43.3004
 119454726.1224   93081600.1464                   22731474.5354   22731470.3854
        45.3004         39.3004
 114147851.9804   88946376.6974                   21721610.0194   21721604.7354
        50.3004         46.3004
 19  3 26 19 16 30.0000000  0 11G05G07G08G09G11G16G18G23G27G28G30
 129518723.3584  100923673.3574                   24646598.8694   24646591.8204
        41.0004         38.3004
 107918052.2124   84091989.8424                   20536117.5104   20536115.6574
        55.6004         47.3004
 110864941.8644   86388283.9574                   21096892.7624   21096887.4294
        51.0004         45.0004
 109885133.3334   85624772.4504                   20910447.9804   20910443.3304
        53.0004         47.6004
 128141893.5974   99850840.4694                   24384587.0744   24384586.1884
        42.0004         34.6004
 130556383.9734  101732250.7984                   24844056.2074   24844053.7454
        39.6004         34.6004
 133995752.5924  104412275.1754                   25498547.1934   25498542.3194
        38.6004         33.0004
 120335158.5784   93767653.5664                   22899021.9744   22899019.8534
        46.0004         40.3004
 117830962.2394   91816346.0594                   22422482.4964   22422478.1654
        49.3004         43.3004
 119382586.4374   93025387.4354                   22717746.0424   22717743.2334
        45.6004         38.3004
 114082342.3704   88895330.2684                   21709143.9654   21709139.2164
        50.6004         46.3004
 19  3 26 19 17  0.0000000  0 11G05G07G08G09G11G16G18G23G27G28G30
 129533058.9054  100934843.8394                   24649326.7964   24649320.7394
        41.0004         37.3004
 107897155.3304   84075706.5604                   20532141.0204   20532139.0374
        55.6004         47.6004
 110866030.6414   86389132.3574                   21097099.7774   21097094.9574
        51.0004         44.6004
 109951058.2864   85676142.5294                   20922993.3824   20922989.2894
        53.3004         47.3004
 128047846.1554   99777556.8104                   24366690.7434   24366687.2324
        41.0004         35.0004
 130661702.3514  101814317.0634                   24864099.8864   24864095.6054
        40.6004         34.0004
 133907831.6144  104343765.4574                   25481816.3454   25481812.4794
        39.3004         32.6004
 120439124.9724   93848666.2774                   22918805.6704   22918803.9634
        45.6004         39.6004
 117894954.0184   91866209.7664                   22434660.5064   22434654.4674
        48.6004         43.6004
 119310713.2784   92969382.3724                   22704069.8754   22704067.1224
        46.3004         39.3004
 114016993.9664   88844409.4394                   21696708.6484   21696703.2334
        50.3004         46.6004
 19  3 26 19 17 30.0000000  0 11G05G07G08G09G11G16G18G23G27G28G30
 129547890.7354  100946401.1044                   24652148.9264   24652144.1954
        42.3004         37.3004
 107876533.3654   84059637.4984                   20528216.7994   20528214.7124
        55.6004         48.0004
 110867742.4334   86390466.2224                   21097425.4714   21097419.9414
        50.6004         45.0004
 110017458.2934   85727882.7774                   20935628.7114   20935623.8574
        53.3004         47.6004
 127953847.1974   99704310.8624                   24348802.9304   24348799.3394
        41.0004         36.0004
 130766982.3844  101896353.4294                   24884133.6464   24884131.0844
        41.3004         35.0004
 133819868.6114  104275223.0084                   25465079.6064   25465072.6254
        40.0004         32.3004
 120543327.5874   93929863.0744                   22938635.3344   22938633.4484
        45.3004         39.6004
 117959461.2314   91916475.1224                   22446935.3564   22446930.1104
        48.3004         43.3004
 119239107.4694   92913585.7004                   22690445.4154   22690440.4844
        46.3004         41.0004
 113951808.4234   88793615.5224                   21684304.1894   21684298.4004
        50.0004         47.0004
 19  3 26 19 18  0.0000000  0 11G05G07G08G09G11G16G18G23G27G28G30
 129563217.6504  100958344.1214                   24655067.2404   24655060.8954
        42.3004         37.3004
 107856187.3984   84043783.4924                   20524344.6394   20524342.7134
        55.6004         47.6004
 110870077.5444   86392285.7904                   21097869.6024   21097864.5734
        51.0004         44.6004
 110084331.6914   85779991.9024                   20948354.2694   20948350.1024
        53.6004         47.6004
 127859899.6224   99631105.0334                   24330926.6934   24330924.4334
        42.6004         36.0004
 130872223.0664  101978359.1044                   24904159.6804   24904156.1834
        40.3004         33.0004
 133731866.6974  104206650.2444                   25448330.6904   25448325.5074
        38.6004         32.0004
 120647764.5604   94011242.4624                   22958510.0644   22958507.1444
        45.3004         38.3004
 118024481.7574   91967140.4714                   22459308.0144   22459302.1414
        47.6004         43.3004
 119167769.8394   92857998.0104                   22676869.6744   22676865.9184
        47.0004         39.6004
 113886787.1084   88742949.5754                   21671930.6904   21671926.1144
        50.3004         46.3004
 19  3 26 19 18 30.0000000  0 11G05G07G08G09G11G16G18G23G27G28G30
 129579037.9894  100970671.6014                   24658075.5944   24658072.2074
        43.3004         37.0004
 107836118.1474   84028145.1194                   20520525.7384   20520523.7764
        55.3004         47.6004
 110873035.2764   86394590.5284                   21098432.5504   21098426.8844
        50.3004         45.3004
 110151676.1034   85832468.0594                   20961169.5944   20961164.8584
        53.3004         48.0004
 127766006.2004   99557941.3704                   24313058.9514   24313054.2164
        41.3004         38.3004
 130977422.5084  102060332.6144                   24924178.9774   24924173.6064
        39.6004         33.3004
 133643828.3444  104138049.1264                   25431581.5874   25431574.0564
        39.6004         30.3004
 120752432.9234   94092802.1784                   22978425.0564   22978424.4624
        45.3004         37.0004
 118090012.7424   92018203.5664                   22471777.7404   22471773.1924
        47.6004         43.6004
 119096700.3444   92802619.2134                   22663343.6234   22663342.5214
        47.3004         38.6004
 113821930.7184   88692412.1364                   21659589.1714   21659583.4674
        49.6004         47.0004
 19  3 26 19 19  0.0000000  0 11G05G07G08G09G11G16G18G23G27G28G30
 129595350.3704  100983382.5214                   24661179.9654   24661176.4794
        44.0004         37.0004
 107816327.0664   84012723.4964                   20516759.8924   20516758.0324
        55.6004         47.6004
 110876615.6044   86397380.3944                   21099113.8594   21099108.6614
        50.6004         45.3004
 110219489.8434   85885309.9154                   20974074.3274   20974069.0094
        53.0004         48.3004
 127672169.8304   99484822.1934                   24295203.3154   24295197.2774
        41.3004         37.3004
 131082579.3424  102142273.0324                   24944190.0994   24944185.8604
        39.3004         30.6004
 133555756.7024  104069421.9864                   25414820.8194   25414814.1694
        39.3004         30.0004
 120857330.2184   94174540.3144                   22998387.1964   22998387.1114
        46.3004         36.3004
 118156052.0544   92069662.7474                   22484345.3014   22484339.9514
        47.6004         43.0004
 119025899.6684   92747449.8724                   22649870.9444   22649869.7244
        48.0004         38.3004
 113757240.6364   88642004.2934                   21647279.2554   21647272.9164
        49.6004         47.3004
 19  3 26 19 19 30.0000000  0 11G05G07G08G09G11G16G18G23G27G28G30
 129612153.7544  100996476.0604                   24664378.5034   24664374.4614
        44.3004         37.3004
 107796815.0184   83997519.3034                   20513046.7984   20513044.4714
        55.3004         48.0004
 110880818.1484   86400655.1144                   21099913.9614   21099908.3844
        50.6004         45.3004
 110287770.9244   85938515.9454                   20987067.5974   20987062.6464
        53.0004         48.3004
 127578393.4844   99411749.7654                   24277356.8824   24277354.7034
        41.6004         36.0004
 131187692.2994  102224179.1984                   24964188.4694   24964187.1964
        38.0004         33.6004
 133467654.5864  104000771.0564                   25398056.2694   25398048.3294
        38.3004         32.3004
 120962453.6544   94256454.6464                   23018391.5524   23018389.9744
        46.3004         37.6004
 118222597.2124   92121516.1244                   22497008.7774   22497001.6514
        46.3004         43.6004
 118955368.0964   92692490.2614                   22636449.0314   22636446.5504
        47.3004         39.3004
 113692717.9454   88591726.8984                   21635000.6964   21634994.4404
        50.0004         47.3004
 19  3 26 19 20  0.0000000  0 11G05G07G08G09G11G16G18G23G27G28G30
 129629447.3384  101009951.5394                   24667669.6884   24667665.5264
        44.6004         36.6004
 107777583.8714   83982534.0014                   20509387.7114   20509385.0854
        55.6004         48.0004
 110885642.9624   86404414.7174                   21100832.1314   21100826.9204
        51.3004         45.0004
 110356518.0014   85992085.0774                   21000149.5224   21000144.6854
        52.6004         48.0004
 127484680.6994   99338726.8654                   24259525.6214   24259520.2104
        42.0004         37.3004
 131292760.6334  102306050.5524                   24984185.0524   24984180.9814
        39.0004         32.3004
 133379525.7334  103932099.2594                   25381282.2804   25381277.7814
        39.6004         32.0004
 121067801.4574   94338543.7794                   23038438.9024   23038436.2544
        45.6004         39.0004
 118289646.3344   92173762.1904                   22509766.8444   22509764.1074
        49.0004         41.3004
 118885106.6644   92637741.1304                   22623077.7504   22623075.3484
        47.3004         38.6004
 113628364.3934   88541581.2824                   21622754.5554   21622749.5204
        51.0004         47.0004
 19  3 26 19 20 30.0000000  0 11G05G07G08G09G11G16G18G23G27G28G30
 129647228.2414  101023806.7414                   24671052.5594   24671048.6074
        44.3004         38.0004
 107758633.7894   83967767.7044                   20505781.6954   20505779.5674
        55.6004         48.0004
 110891088.5904   86408658.0744                   21101868.1234   21101863.1824
        51.0004         45.3004
 110425727.7744   86046014.7544                   21013319.7594   21013315.2014
        52.3004         48.0004
 127391032.9144   99265754.6004                   24241703.5074   24241699.4684
        42.0004         36.6004
 131397782.1144  102387885.4694                   25004170.0564   25004166.4244
        37.6004         32.6004
 133291372.0384  103863408.2364                   25364508.0494   25364500.2004
        38.3004         31.6004
 121173369.8144   94420804.8074                   23058528.7984   23058528.0714
        47.6004         39.0004
 118357195.7794   92226398.1054                   22522620.9114   22522617.7314
        48.3004         42.0004
 118815114.0144   92583201.4594                   22609758.4964   22609755.5814
        47.0004         40.0004
 113564179.8564   88491567.3684                   21610540.5664   21610535.5794
        51.0004         47.0004
 19  3 26 19 21  0.0000000  0 11G05G07G08G09G11G16G18G23G27G28G30
 129665496.8124  101038041.9894                   24674528.3804   24674525.2614
        44.0004         37.3004
 107739966.9774   83953222.1334                   20502229.3874   20502226.5414
        55.3004         48.0004
 110897156.5074   86413386.3394                   21103023.0534   21103017.4874
        50.6004         45.3004
 110495399.8424   86100304.6624                   21026578.4074   21026573.3624
        52.3004         48.0004
 127297454.7884   99192836.6344                   24223897.7494   24223895.0124
        43.0004         36.0004
 131502756.3084  102469683.4924                   25024145.8934   25024142.7534
        38.3004         33.6004
 133203197.8854  103794701.1724                   25347730.5284   25347723.3414
        39.0004         33.0004
 121279157.6204   94503236.7984                   23078658.8694   23078656.6294
        46.3004         40.3004
 118425244.6284   92279423.1584                   22535570.8704   22535566.4944
        48.0004         43.3004
 118745392.2154   92528872.8514                   22596491.3884   22596489.0144
        48.0004         39.6004
 113500167.0384   88441687.2634                   21598358.8534   21598353.9484
        51.0004         46.6004
 19  3 26 19 21 30.0000000  0 11G05G07G08G09G11G16G18G23G27G28G30
 129684250.7524  101052655.4004                   24678097.7214   24678093.5564
        42.3004         37.0004
 107721583.4414   83938897.3014                   20498730.9214   20498728.7874
        55.6004         48.0004
 110903844.8684   86418598.0574                   21104295.8544   21104290.1074
        50.6004         45.3004
 110565530.9534   86154952.2584                   21039923.9874   21039918.3134
        52.0004         48.6004
 127203948.1444   99119974.3844                   24206101.3234   24206097.4724
        40.6004         35.0004
 131607680.9354  102551442.8894                   25044113.0084   25044109.8004
        38.6004         33.6004
 133115004.9314  103725979.5104                   25330949.1004   25330940.2224
        38.6004         35.0004
 121385161.0494   94585836.8254                   23098829.8594   23098829.9824
        47.6004         40.0004
 118493789.1374   92332834.4544                   22548615.1374   22548610.2504
        49.0004         43.6004
 118675940.4454   92474754.6164                   22583274.1014   22583272.0794
        47.6004         40.0004
 113436325.9134   88391940.9454                   21586210.3704   21586206.1644
        51.6004         47.0004
 19  3 26 19 22  0.0000000  0 11G05G07G08G09G11G16G18G23G27G28G30
 129703488.5904  101067645.9034                   24681758.6034   24681754.6164
        42.6004         39.0004
 107703484.9304   83924794.5644                   20495286.9304   20495284.8304
        55.3004         48.0004
 110911153.6854   86424293.2574                   21105686.6124   21105680.6304
        50.6004         45.3004
 110636119.4564   86209956.2624                   21053356.7294   21053351.5084
        51.6004         48.6004
 127110516.2054   99047170.3274                   24188321.5244   24188321.4134
        41.6004         33.6004
 131712555.0004  102633162.9034                   25064069.8344   25064065.1354
        38.0004         34.3004
 133026796.6944  103657245.9714                   25314162.0994   25314155.6654
        38.6004         34.3004
 121491378.0114   94668603.2394                   23119044.5734   23119042.3464
        47.3004         41.6004
 118562827.2054   92386630.3474                   22561752.5024   22561747.4584
        48.6004         44.3004
 118606759.4704   92420847.4014                   22570110.2984   22570107.3834
        47.6004         41.0004
 113372658.0064   88342329.6194                   21574095.2684   21574089.9094
        51.0004         47.3004
 19  3 26 19 22 30.0000000  0 11G05G07G08G09G11G16G18G23G27G28G30
 129723209.3364  101083012.6814                   24685511.9534   24685508.5964
        43.6004         36.6004
 107685672.5844   83910914.8164                   20491897.3404   20491894.9974
        55.3004         48.0004
 110919082.7234   86430471.7384                   21107195.1404   21107189.9624
        51.0004         45.0004
 110707163.5534   86265315.2814                   21066875.5204   21066870.7524
        52.0004         48.3004
 127017162.0014   98974426.8704                   24170558.6284   24170553.4374
        40.6004         35.3004
 131817377.7224  102714842.9424                   25084017.4184   25084011.4504
        38.6004         33.6004
 132938576.3464  103588502.9764                   25297372.3604   25297368.1564
        39.6004         33.3004
 121597806.3224   94751534.2864                   23139297.6744   23139294.6864
        47.0004         42.6004
 118632356.5794   92440809.0614                   22574983.1344   22574979.2374
        49.3004         43.6004
