     2.11           OBSERVATION DATA    M (MIXED)           RINEX VERSION / TYPE
teqc  2018Jun8      root                20191212 04:33:14UTCPGM / RUN BY / DATE
Linux 2.4.21-27.ELsmp|Opteron|gcc|Linux 64|=+               COMMENT
teqc  2019Feb25     CORS-ADM Account    20190427 18:40:14UTCCOMMENT
teqc  2018Jan11     NOAA/NOS/NGS/CORS   20190327 04:00:09UTCCOMMENT
Linux 2.4.21-27.ELsmp|Opteron|gcc -static|Linux 64|=+       COMMENT
   0.000      (antenna height)                              COMMENT
 +39.72152587 (latitude)                                    COMMENT
-105.19287100 (longitude)                                   COMMENT
1819.921      (elevation)                                   COMMENT
BIT 2 OF LLI FLAGS DATA COLLECTED UNDER A/S CONDITION       COMMENT
 SNR is mapped to RINEX snr flag value [0-9]                COMMENT
  L1 & L2: min(max(int(snr_dBHz/6), 0), 9)                  COMMENT
teqc.e edited: all SBAS satellites excluded                 COMMENT
teqc.e edited: all QZSS satellites excluded                 COMMENT
Forced Modulo Decimation to 30 seconds                      COMMENT
CTMC                                                        MARKER NAME
1                                                           MARKER NUMBER
Steven Hagemann     CODOT                                   OBSERVER / AGENCY
4626K01856          TRIMBLE NETR5       48.01               REC # / TYPE / VERS
30167871            TRM55971.00     NONE                    ANT # / TYPE
 -1287787.7680 -4742178.3640  4055414.6140                  APPROX POSITION XYZ
        0.0000        0.0000        0.0000                  ANTENNA: DELTA H/E/N
     1     1                                                WAVELENGTH FACT L1/2
    11    L1    L2    L5    C1    P1    C2    P2    C5    S1# / TYPES OF OBSERV
          S2    S5                                          # / TYPES OF OBSERV
    30.0000                                                 INTERVAL
teqc.w windowed: start @ 2019 Mar 26 19:00:00.000           COMMENT
teqc.w windowed:  end  @ 2019 Mar 26 22:00:00.000           COMMENT
  2019     3    26    19     0    0.0000000     GPS         TIME OF FIRST OBS
    18                                                      LEAP SECONDS
                                                            END OF HEADER
 19  3 26 19  0  0.0000000  4  4
   0.000      (antenna height)                              COMMENT
 +39.72152587 (latitude)                                    COMMENT
-105.19287100 (longitude)                                   COMMENT
1819.921      (elevation)                                   COMMENT
 19  3 26 19  0  0.0000000  0 19G16R06R18R08G27G09G05R16G08R17R09G11
                                G23G07G30R07G28R19R15
 127253220.740 6  99158348.12843                  24215472.172
                  24215478.746                          39.000          20.400

 112532067.476 7                                  21088469.961    21088467.473
                                                        44.000

 114419895.071 7  88993288.060 7                  21434702.883    21434700.395
                  21434706.406                          47.800          44.100

 126024099.062 6  98018788.555 6                  23534118.773    23534117.691
                  23534122.531                          38.700          36.000

 116145965.310 7  90503375.191 7                  22101831.281
  22101837.391    22101838.148                          47.600          44.000

 107861099.038 8  84047635.098 8                  20525279.063
  20525285.934    20525286.223                          48.900          50.000

 129463915.377 7 100881004.134 6                  24636170.453
  24636175.508    24636175.563                          46.500          38.800

 108563470.389 7  84438317.588 6                  20323310.992    20323311.203
                  20323315.102                          45.600          40.600

 111148049.028 8  86608893.367 8                  21150757.133
  21150765.352    21150765.230                          48.800          48.300

 122135757.630 7  94994510.931 6                  22823984.977    22823984.598
                  22823989.793                          44.100          38.200

 111345754.715 8  86602316.740 7                  20851483.359    20851483.098
                  20851487.117                          48.900          46.300

 131041765.468 6 102110501.60042                  24936418.984
                  24936424.738                          39.700          17.400

 116839567.483 7  91043884.39545                  22233842.969
                  22233845.852                          46.900          31.100

 108834489.346 8  84806127.667 8                  20710508.688
  20710513.098    20710513.094                          49.700          48.100

 116398758.618 7  90700399.063 7                  22149946.359
  22149952.410    22149952.699                          46.400          44.800

 110682253.708 8  86086212.438 7                  20676381.414    20676380.918
                  20676385.406                          49.500          45.600

 121734042.471 6  94857721.00943                  23165212.578
                  23165217.922                          41.200          22.300

 122788291.726 6  95502063.145 5                  22953982.656    22953980.051
                  22953984.773                          37.700          35.600

 127387566.891 6  99079235.334 6                  23838857.023    23838858.055
                  23838864.535                          40.000          37.600

 19  3 26 19  0 30.0000000  0 19G16R06R18R08G27G09G05R16G08R17R09G11
                                G23G07G30R07G28R19R15
 127358879.916 6  99240679.90443                  24235578.602
                  24235584.531                          38.100          20.400

 112633535.467 7                                  21107483.977    21107482.074
                                                        44.100

 114372938.967 8  88956766.656 7                  21425906.125    21425903.637
                  21425909.180                          48.000          44.000

 125922534.269 7  97939793.812 6                  23515155.273    23515153.840
                  23515156.332                          42.300          38.900

 116192684.694 7  90539779.900 7                  22110722.258
  22110728.660    22110729.008                          46.900          44.600

 107909339.626 8  84085225.139 8                  20534459.734
  20534465.844    20534466.074                          49.900          50.100

 129460504.208 7 100878346.035 6                  24635520.406
  24635524.055    24635524.871                          45.300          36.300

 108606931.400 7  84472120.597 6                  20331446.906    20331447.117
                  20331451.250                          45.800          41.200

 111129834.992 7  86594700.628 8                  21147291.633
  21147298.914    21147299.086                          47.900          48.500

 122190790.305 7  95037314.104 5                  22834270.727    22834269.527
                  22834271.668                          44.300          35.500

 111295391.938 8  86563145.707 7                  20842052.898    20842051.582
                  20842055.484                          48.700          46.300

 130948229.145 6 102037616.22542                  24918619.148
                  24918624.961                          37.800          17.400

 116933718.117 7  91117248.47845                  22251759.078
                  22251762.547                          46.600          30.800

 108805005.914 8  84783153.567 7                  20704898.211
  20704902.387    20704902.617                          50.300          47.700

 116328953.276 7  90646005.304 7                  22136663.008
  22136668.414    22136668.352                          45.800          43.900

 110671916.716 8  86078172.539 7                  20674450.063    20674449.449
                  20674454.406                          49.900          46.800

 121654368.015 6  94795637.05743                  23150050.891
                  23150055.941                          41.300          20.600

 122666812.192 6  95407579.189 5                  22931269.508    22931269.129
                  22931276.551                          37.900          35.400

 127473669.645 6  99146204.114 6                  23854972.156    23854971.895
                  23854977.559                          41.400          38.000

 19  3 26 19  1  0.0000000  0 19G16R06R18R08G27G09G05R16G08R17R09G11
                                G23G07G30R07G28R19R15
 127464547.791 6  99323018.41743                  24255685.602
                  24255692.293                          37.200          19.600

 112735478.315 7                                  21126589.375    21126586.535
                                                        43.700

 114326707.905 8  88920809.187 7                  21417245.125    21417243.926
                  21417249.234                          48.200          43.800

 125821418.971 6  97861148.709 6                  23496272.016    23496270.113
                  23496273.898                          41.400          38.100

 116239984.221 7  90576636.663 7                  22119723.898
  22119729.891    22119729.535                          47.800          45.300

 107958109.670 8  84123227.761 8                  20543739.805
  20543746.441    20543746.613                          49.000          50.100

 129457615.825 7 100876095.318 6                  24634970.258
  24634978.301    24634976.773                          43.400          38.900

 108650589.242 7  84506076.700 6                  20339620.578    20339620.082
                  20339625.039                          44.600          41.600

 111112234.909 8  86580986.305 8                  21143942.250
  21143950.527    21143949.996                          48.800          48.200

 122246523.771 7  95080662.390 6                  22844683.359    22844684.039
                  22844689.230                          43.400          38.600

 111245241.170 8  86524139.578 7                  20832661.273    20832660.660
                  20832664.328                          48.900          46.100

 130854650.904 6 101964698.22442                  24900813.781
                  24900818.539                          40.000          17.400

 117028189.614 7  91190862.56845                  22269736.617
                  22269740.086                          47.100          30.800

 108775754.870 8  84760360.550 7                  20699332.180
  20699336.004    20699336.059                          49.900          47.500

 116259272.338 7  90591708.484 7                  22123402.461
  22123408.688    22123408.625                          45.800          43.200

 110662400.972 8  86070771.392 7                  20672673.297    20672672.098
                  20672676.820                          50.300          45.800

 121574945.891 7  94733749.69143                  23134939.914
                  23134942.504                          42.700          21.700

 122545488.049 6  95313216.089 5                  22908593.664    22908591.293
                  22908596.250                          39.600          34.400

 127559754.172 6  99213158.673 6                  23871081.094    23871081.422
                  23871087.316                          40.700          37.200

 19  3 26 19  1 30.0000000  0 19G16R06R18R08G27G09G05R16G08R17R09G11
                                G23G07G30R07G28R19R15
 127570222.177 6  99405362.04343                  24275796.867
                  24275801.918                          38.700          19.000

 112837890.824 7                                  21145780.422    21145779.457
                                                        43.800

 114281204.533 7  88885417.663 7                  21408720.117    21408718.449
                  21408723.992                          47.900          43.500

 125720756.656 6  97782855.802 6                  23477470.297    23477470.273
                  23477475.230                          41.500          36.000

 116287861.851 7  90613943.961 7                  22128833.766
  22128840.168    22128840.105                          47.300          44.000

 108007407.597 8  84161641.714 8                  20553121.648
  20553127.582    20553127.813                          50.300          50.000

 129455249.488 7 100874251.398 5                  24634522.938
  24634522.656    24634524.238                          44.300          34.100

 108694443.189 7  84540185.301 6                  20347829.031    20347829.594
                  20347834.902                          45.200          41.500

 111095248.853 8  86567750.429 7                  21140710.266
  21140717.605    21140717.426                          49.300          47.800

 122302955.388 7  95124553.618 6                  22855228.977    22855228.480
                  22855235.199                          43.400          39.400

 111195301.901 8  86485297.933 7                  20823309.656    20823307.988
                  20823311.066                          49.000          45.600

 130761033.571 6 101891749.74743                  24882999.047
                  24883003.277                          38.700          18.600

 117122979.404 7  91264724.71545                  22287773.695
                  22287776.988                          46.300          30.100

 108746737.292 8  84737749.464 8                  20693809.898
  20693814.074    20693814.305                          49.300          48.000

 116189716.451 7  90537509.100 7                  22110167.352
  22110173.051    22110173.105                          46.200          44.400

 110653706.275 8  86064008.834 7                  20671049.766    20671048.566
                  20671053.289                          50.700          47.000

 121495775.981 7  94672058.89243                  23119872.031
                  23119877.844                          42.100          22.800

 122424323.530 6  95218977.103 6                  22885944.063    22885941.809
                  22885947.000                          37.600          36.600

 127645820.300 6  99280098.906 5                  23887188.492    23887188.230
                  23887192.836                          40.500          35.800

 19  3 26 19  2  0.0000000  0 19G16R06R18R08G27G09G05R16G08R17R09G11
                                G23G07G30R07G28R19R15
 127675901.570 6  99487709.62643                  24295908.500
                  24295910.270                          40.400          20.600

 112940768.904 7                                  21165059.953    21165058.871
                                                        43.700

 114236431.728 7  88850594.430 7                  21400331.453    21400330.605
                  21400336.504                          46.800          43.500

 125620551.467 6  97704918.492 6                  23458754.547    23458755.109
                  23458765.109                          39.200          38.300

 116336315.933 7  90651700.388 7                  22138054.703
  22138060.285    22138060.926                          45.400          44.200

 108057232.348 7  84200466.183 8                  20562602.031
  20562608.551    20562609.016                          47.500          49.700

 129453404.571 7 100872813.790 6                  24634168.898
  24634173.660    24634172.367                          44.100          36.600

 108738492.507 7  84574445.882 6                  20356075.828    20356075.805
                  20356080.055                          45.400          40.700

 111078877.769 8  86554993.748 8                  21137594.867
  21137601.621    21137601.207                          48.600          48.300

 122360082.883 7  95168986.138 6                  22865904.430    22865904.523
                  22865911.824                          44.100          39.600

 111145574.282 8  86446620.881 7                  20813996.266    20813995.770
                  20813998.852                          48.800          45.700

 130667379.956 5 101818772.94242                  24865173.820
                  24865182.094                          35.200          16.300

 117218085.400 7  91338833.25644                  22305872.711
                  22305875.359                          46.700          29.700

 108717953.933 8  84715320.883 7                  20688332.539
  20688336.949    20688337.238                          49.800          47.500

 116120286.688 7  90483407.997 7                  22096954.969
  22096961.605    22096961.777                          46.800          45.100

 110645833.513 8  86057885.578 7                  20669578.516    20669577.668
                  20669582.156                          50.900          45.500

 121416858.899 7  94610565.13144                  23104854.859
                  23104860.672                          43.700          26.000

 122303323.299 6  95124865.869 5                  22863319.258    22863318.879
                  22863326.184                          37.800          35.600

 127731867.781 6  99347024.765 5                  23903288.578    23903289.609
                  23903293.863                          40.600          34.400

 19  3 26 19  2 30.0000000  0 19G16R06R18R08G27G09G05R16G08R17R09G11
                                G23G07G30R07G28R19R15
 127781584.470 6  99570059.95143                  24316019.430
                  24316021.609                          41.200          20.400

 113044108.288 7                                  21184425.922    21184423.902
                                                        43.100

 114192392.406 7  88816341.654 7                  21392082.047    21392080.262
                  21392085.688                          47.600          43.400

 125520807.346 6  97627339.716 6                  23440128.148    23440129.063
                  23440137.070                          40.200          36.900

 116385344.715 7  90689904.619 7                  22147384.703
  22147391.164    22147391.512                          47.800          45.600

 108107582.612 8  84239700.139 8                  20572184.055
  20572190.340    20572190.629                          49.200          50.500

 129452080.871 7 100871782.293 5                  24633918.281
  24633918.996    24633919.523                          44.100          34.300

 108782736.601 7  84608857.950 6                  20364356.992    20364357.672
                  20364362.277                          45.000          40.700

 111063122.492 8  86542716.902 8                  21134597.188
  21134603.824    21134603.703                          49.500          48.600

 122417904.213 7  95213958.285 6                  22876710.250    22876709.637
                  22876716.707                          44.500          40.200

 111096058.110 8  86408108.366 7                  20804722.852    20804722.238
                  20804726.375                          48.700          45.700

 130573693.008 6 101745770.23543                  24847347.430
                  24847353.770                          37.300          18.300

 117313505.292 7  91413186.37244                  22324030.164
                  22324033.633                          45.700          27.900

 108689406.408 8  84693076.051 7                  20682900.773
  20682904.012    20682904.359                          49.900          47.600

 116050983.997 7  90429405.923 7                  22083767.445
  22083772.676    22083773.199                          47.000          44.200

 110638782.538 8  86052401.474 7                  20668260.367    20668259.871
                  20668265.418                          50.700          46.300

 121338195.883 7  94549269.32344                  23089887.227
                  23089891.867                          43.500          27.300

 122182492.362 6  95030886.387 6                  22840731.500    22840731.594
                  22840738.777                          36.100          36.700

 127817896.707 6  99413936.174 5                  23919388.758    23919387.910
                  23919393.926                          40.400          35.300

 19  3 26 19  3  0.0000000  0 19G16R06R18R08G27G09G05R16G08R17R09G11
                                G23G07G30R07G28R19R15
 127887268.879 6  99652411.42443                  24336128.156
                  24336133.031                          39.900          19.300

 113147904.103 7                                  21203879.359    21203874.992
                                                        43.500

 114149088.875 8  88782661.123 7                  21383971.602    21383968.762
                  21383973.484                          48.200          43.100

 125421527.637 6  97550122.158 6                  23421591.078    23421591.172
                  23421599.531                          40.400          39.800

 116434945.934 8  90728554.905 7                  22156823.531
  22156829.641    22156830.223                          48.200          45.000

 108158456.821 8  84279342.374 8                  20581864.602
  20581871.883    20581871.879                          50.000          50.200

 129451277.588 6 100871156.352 6                  24633765.703
  24633769.820    24633768.352                          41.600          37.500

 108827174.464 7  84643420.721 6                  20372676.789    20372675.941
                  20372679.961                          44.800          40.000

 111047983.207 8  86530920.064 8                  21131716.211
  21131723.668    21131723.723                          49.500          48.500

 122476416.400 7  95259467.751 6                  22887648.133    22887645.293
                  22887650.836                          45.600          40.600

 111046753.123 8  86369760.019 7                  20795489.180    20795488.918
                  20795492.938                          48.500          45.700

 130479974.650 6 101672743.02942                  24829512.922
                  24829519.086                          38.000          17.400

 117409236.321 7  91487781.95244                  22342248.359
                  22342250.246                          46.600          28.500

 108661094.769 8  84671015.037 7                  20677512.961
  20677516.844    20677517.191                          49.200          47.800

 115981808.966 7  90375503.314 7                  22070602.672
  22070609.895    22070609.539                          46.600          45.100

 110632553.436 8  86047556.605 7                  20667097.617    20667096.652
                  20667101.609                          49.900          45.900

 121259786.772 7  94488171.37543                  23074966.125
                  23074970.590                          43.000          23.900

 122061834.809 6  94937041.693 6                  22818175.125    22818175.453
                  22818181.934                          37.200          36.500

 127903906.821 6  99480832.842 6                  23935485.336    23935484.254
                  23935489.680                          40.700          36.700

 19  3 26 19  3 30.0000000  0 19G16R06R18R08G27G09G05R16G08R17R09G11
                                G23G07G30R07G28R19R15
 127992954.111 6  99734763.47343                  24356241.094
                  24356245.441                          40.000          18.600

 113252152.450 7                                  21223411.922    21223410.254
                                                        43.000

 114106524.721 8  88749555.684 7                  21375997.734    21375995.949
                  21376000.555                          48.100          43.100

 125322716.923 7  97473269.455 6                  23403142.211    23403140.074
                  23403146.086                          42.600          39.800

 116485118.619 7  90767650.504 7                  22166370.305
  22166376.883    22166377.406                          47.200          45.400

 108209854.416 8  84319392.425 8                  20591645.961
  20591652.363    20591652.535                          49.600          50.500

 129450994.700 6 100870935.884 6                  24633708.617
  24633715.371    24633715.426                          40.200          37.600

 108871806.259 7  84678134.340 6                  20381031.539    20381031.160
                  20381036.117                          44.700          40.800

 111033461.402 8  86519604.379 8                  21128952.805
  21128960.203    21128960.199                          49.400          48.400

 122535617.928 7  95305513.366 6                  22898708.195    22898708.055
                  22898713.129                          44.400          39.300

 110997659.546 8  86331576.148 7                  20786296.719    20786295.168
                  20786298.953                          49.000          45.900

 130386228.586 6 101599694.22643                  24811675.250
                  24811680.535                          41.200          19.600

 117505276.925 7  91562618.73744                  22360523.953
                  22360526.895                          45.800          29.400

 108633021.703 8  84649139.923 8                  20672169.867
  20672174.395    20672174.684                          48.300          48.100

 115912763.342 7  90321701.568 7                  22057464.094
  22057470.555    22057470.492                          46.300          45.200

 110627147.278 8  86043351.824 7                  20666086.078    20666085.582
                  20666091.012                          49.600          45.600

 121181633.083 7  94427272.45644                  23060092.453
                  23060098.324                          42.900          24.400

 121941356.126 6  94843336.162 5                  22795654.883    22795653.566
                  22795659.461                          37.100          34.800

 127989898.984 6  99547715.519 6                  23951578.477    23951577.863
                  23951582.469                          40.800          37.200

 19  3 26 19  4  0.0000000  0 19G16R06R18R08G27G09G05R16G08R17R09G11
                                G23G07G30R07G28R19R15
 128098637.600 6  99817114.15843                  24376353.297
                  24376356.414                          41.100          19.300

 113356849.044 7                                  21243033.117    21243032.387
                                                        42.900

 114064701.832 7  88717026.804 7                  21368162.391    21368160.254
                  21368165.328                          47.000          43.300

 125224378.272 6  97396783.906 6                  23384776.727    23384775.762
                  23384780.836                          41.400          37.500

 116535860.140 7  90807189.330 7                  22176026.516
  22176033.973    22176033.676                          47.600          46.700

 108261773.280 8  84359848.675 8                  20601525.297
  20601532.227    20601532.164                          49.900          49.700

 129451231.028 6 100871119.996 6                  24633755.875
  24633759.934    24633759.930                          40.800          36.600

 108916630.602 7  84712997.713 6                  20389423.000    20389424.383
                  20389429.105                          44.600          40.800

 111019556.792 8  86508769.637 8                  21126305.516
  21126314.320    21126313.906                          48.300          48.600

 122595505.440 7  95352092.553 6                  22909901.742    22909899.488
                  22909904.914                          45.000          39.400

 110948776.724 8  86293556.175 7                  20777143.133    20777142.051
                  20777145.602                          49.300          46.100

 130292456.976 6 101526625.49743                  24793829.180
                  24793836.398                          40.900          20.900

 117601624.365 7  91637694.60644                  22378858.594
                  22378860.539                          46.400          29.000

 108605187.030 8  84627450.575 8                  20666874.023
  20666878.434    20666878.605                          49.800          48.100

 115843847.344 7  90268000.781 7                  22044348.805
  22044356.086    22044356.023                          45.700          44.600

 110622563.089 8  86039786.321 7                  20665230.164    20665229.199
                  20665235.098                          49.800          47.000

 121103735.184 7  94366572.87643                  23045268.898
                  23045274.535                          42.300          22.500

 121821060.040 6  94749772.598 6                  22773167.336    22773164.379
                  22773171.211                          38.000          36.300

 128075872.152 6  99614583.445 6                  23967666.367    23967665.988
                  23967672.238                          41.800          38.300

 19  3 26 19  4 30.0000000  0 19G16R06R18R08G27G09G05R16G08R17R09G11
                                G23G07G30R07G28R19R15
 128204317.763 6  99899462.33943                  24396464.195
                  24396466.434                          41.100          20.100

 113461989.303 7                                  21262737.305    21262735.051
                                                        43.200

 114023623.203 7  88685076.773 7                  21360466.609    21360464.473
                  21360470.133                          47.600          43.500

 125126515.915 6  97320668.806 6                  23366497.602    23366497.461
                  23366504.410                          39.500          36.300

 116587168.878 7  90847170.151 7                  22185790.141
  22185797.832    22185797.418                          47.600          45.600

 108314212.489 8  84400710.373 8                  20611504.367
  20611511.004    20611511.293                          49.800          50.000

 129451986.011 6 100871708.247 5                  24633897.813
  24633903.102    24633903.508                          41.700          35.900

 108961647.108 7  84748010.548 6                  20397849.867    20397850.547
                  20397855.152                          45.600          41.400

 111006270.205 8  86498416.473 7                  21123778.453
  21123785.676    21123785.672                          48.800          47.800

 122656076.934 7  95399203.650 6                  22921219.797    22921218.480
                  22921222.852                          43.000          37.100

 110900104.885 8  86255700.328 7                  20768027.531    20768026.684
                  20768031.289                          49.500          46.300

 130198662.905 6 101453539.26243                  24775979.328
                  24775987.309                          38.900          19.300

 117698276.366 7  91713007.81644                  22397250.375
                  22397253.492                          45.800          29.600

 108577592.410 8  84605948.278 8                  20661622.539
  20661627.125    20661627.590                          49.300          48.400

 115775062.247 7  90214402.038 7                  22031260.883
  22031267.988    22031268.277                          46.900          46.000

 110618801.584 8  86036860.704 7                  20664527.719    20664526.988
                  20664532.887                          49.500          46.600

 121026093.725 7  94306073.05443                  23030494.750
                  23030498.277                          43.000          21.700

 121700951.880 6  94656355.192 6                  22750712.969    22750711.535
                  22750718.488                          39.400          36.100

 128161826.776 6  99681436.997 6                  23983752.477    23983752.453
                  23983758.348                          41.700          37.100

 19  3 26 19  5  0.0000000  0 19G16R06R18R08G27G09G05R16G08R17R09G11
                                G23G07G30R07G28R19R15
 128309992.684 6  99981806.40743                  24416571.344
                  24416576.512                          38.600          20.100

 113567568.741 7                                  21282521.203    21282519.887
                                                        43.700

 113983291.158 7  88653707.442 7                  21352910.750    21352908.496
                  21352914.859                          47.200          44.000

 125029133.614 6  97244926.982 6                  23348315.102    23348313.434
                  23348319.680                          40.800          37.800

 116639042.730 7  90887591.323 7                  22195660.164
  22195668.207    22195668.145                          46.400          45.000

 108367170.335 8  84441976.217 8                  20621581.875
  20621587.750    20621587.863                          49.300          50.200

 129453259.091 7 100872700.211 6                  24634140.742
  24634146.793    24634146.145                          42.100          37.800

 109006854.964 7  84783172.204 6                  20406312.961    20406313.172
                  20406318.363                          45.200          41.500

 110993601.781 8  86488544.995 8                  21121367.156
  21121374.965    21121374.902                          48.500          48.300

 122717329.729 7  95446844.701 6                  22932667.508    22932665.723
                  22932669.859                          44.700          37.600

 110851643.747 8  86218008.352 7                  20758952.375    20758952.703
                  20758955.898                          49.600          46.000

 130104848.922 6 101380437.50343                  24758130.211
                  24758135.145                          38.900          19.300

 117795230.503 7  91788556.45144                  22415700.078
                  22415703.137                          47.000          29.700

 108550238.732 8  84584633.724 7                  20656417.023
  20656420.906    20656421.547                          49.700          47.800

 115706408.833 7  90160905.892 7                  22018197.250
  22018203.359    22018203.180                          47.000          46.300

 110615862.473 8  86034574.701 7                  20663979.813    20663978.613
                  20663983.805                          50.100          46.600

 120948709.360 7  94245773.56044                  23015769.266
                  23015773.203                          43.000          24.600

 121581035.858 6  94563087.272 6                  22728298.398    22728298.492
                  22728303.684                          39.800          37.100

 128247762.610 6  99748275.962 6                  23999832.906    23999832.410
                  23999839.012                          40.100          36.500

 19  3 26 19  5 30.0000000  0 19G16R06R18R08G27G09G05R16G08R17R09G11
                                G23G07G30R07G28R19R15
 128415661.331 5 100064145.49042                  24436676.641
                  24436685.266                          35.200          17.400

 113673583.109 7                                  21302387.313    21302387.172
                                                        43.200

 113943708.236 7  88622920.761 7                  21345495.922    21345492.965
                  21345498.508                          47.500          43.500

 124932234.533 6  97169561.074 6                  23330220.375    23330218.824
                  23330226.480                          41.900          39.500

 116691479.816 7  90928451.380 7                  22205640.008
  22205646.117    22205646.230                          46.400          44.000

 108420645.540 8  84483645.192 8                  20631757.859
  20631763.734    20631763.965                          49.400          49.600

 129455049.512 6 100874095.336 6                  24634480.008
  24634486.527    24634488.223                          38.500          36.000

 109052253.611 7  84818482.238 6                  20414812.125    20414811.984
                  20414816.820                          46.000          41.200

 110981552.209 8  86479155.721 8                  21119074.289
  21119081.805    21119081.684                          48.700          48.100

 122779261.027 7  95495013.462 6                  22944238.656    22944236.754
                  22944241.945                          42.500          37.100

 110803393.135 8  86180480.116 7                  20749917.242    20749916.512
                  20749919.477                          49.700          45.700

 130011017.642 6 101307322.25843                  24740273.070
                  24740279.645                          37.100          18.300

 117892484.264 7  91864338.53744                  22434207.094
                  22434209.684                          46.300          29.100

 108523126.891 8  84563507.622 7                  20651258.609
  20651262.258    20651262.605                          48.600          47.800

 115637888.098 7  90107513.133 7                  22005158.102
  22005164.797    22005164.793                          45.800          46.000

 110613745.501 8  86032928.196 7                  20663583.625    20663583.246
                  20663588.203                          50.600          45.900

 120871582.783 7  94185674.96143                  23001092.875
                  23001096.754                          42.800          23.600

 121461316.777 6  94469972.481 6                  22705914.016    22705914.109
                  22705922.000                          37.900          38.500

 128333679.800 6  99815100.359 6                  24015910.586    24015911.148
                  24015917.277                          41.100          36.600

 19  3 26 19  6  0.0000000  0 19G16R06R18R08G27G09G05R16G08R17R09G11
                                G23G07G30R07G28R19R15
 128521322.051 6 100146478.47443                  24456787.438
                  24456791.082                          39.700          19.600

 113780027.794 7                                  21322336.188    21322334.871
                                                        44.100

 113904877.636 7  88592719.200 7                  21338219.992    21338218.324
                  21338225.043                          46.400          43.300

 124835823.596 7  97094574.840 6                  23312218.656    23312217.223
                  23312221.828                          42.000          38.500

 116744478.742 7  90969749.265 7                  22215725.508
  22215730.621    22215730.910                          46.800          43.800

 108474637.259 8  84525716.654 8                  20642032.172
  20642037.988    20642038.277                          50.100          49.600

 129457357.151 6 100875893.547 6                  24634920.172
  24634926.809    24634925.984                          41.300          36.600

 109097843.077 7  84853940.727 6                  20423346.953    20423346.930
                  20423351.414                          45.600          40.800

 110970122.773 7  86470249.670 8                  21116898.875
  21116906.508    21116906.270                          46.500          48.400

 122841869.077 7  95543708.581 6                  22955938.273    22955937.895
                  22955942.500                          44.300          37.300

 110755353.579 8  86143116.006 7                  20740920.602    20740920.105
                  20740923.422                          49.800          45.600

 129917172.805 6 101234196.54043                  24722416.086
                  24722421.313                          38.400          19.000

 117990035.944 7  91940352.79944                  22452770.602
                  22452774.070                          46.300          29.200

 108496258.940 8  84542571.561 7                  20646145.086
  20646149.496    20646149.902                          49.900          47.900

 115569501.594 7  90054224.980 7                  21992143.969
  21992150.723    21992150.543                          44.900          45.700

 110612451.513 8  86031921.731 7                  20663342.516    20663341.082
                  20663346.391                          50.300          46.200

 120794715.045 7  94125778.10144                  22986463.656
                  22986469.996                          42.300          24.100

 121341799.881 6  94377015.028 6                  22683575.555    22683573.770
                  22683579.664                          39.300          38.600

 128419578.719 6  99881910.563 5                  24031987.188    24031986.105
                  24031991.297                          39.900          35.000

 19  3 26 19  6 30.0000000  0 19G16R06R18R08G27G09G05R16G08R17R09G11
                                G23G07G30R07G28R19R15
 128626973.004 6 100228803.84443                  24476892.750
                  24476895.926                          41.700          18.600

 113886898.151 7                                  21342363.617    21342362.301
                                                        43.200

 113866800.868 8  88563103.936 7                  21331088.953    21331086.816
                  21331092.945                          48.000          44.200

 124739903.589 6  97019970.431 6                  23294304.852    23294304.121
                  23294309.902                          41.900          39.300

 116798036.607 7  91011482.657 7                  22225917.164
  22225922.805    22225923.035                          46.800          43.800

 108529143.122 8  84568188.745 8                  20652404.227
  20652410.629    20652411.270                          48.300          49.200

 129460180.413 7 100878093.443 6                  24635457.992
  24635462.051    24635463.219                          42.700          36.000

 109143621.601 7  84889546.261 6                  20431916.313    20431917.813
                  20431922.184                          45.700          41.500

 110959312.969 8  86461826.456 8                  21114841.625
  21114849.961    21114849.547                          48.300          48.600

 122905150.185 7  95592927.245 6                  22967763.367    22967763.344
                  22967768.652                          43.400          37.900

 110707523.798 8  86105915.106 7                  20731962.992    20731961.793
                  20731965.813                          48.700          46.300

 129823315.902 6 101161061.35242                  24704554.023
                  24704560.539                          38.600          17.800

 118087882.500 7  92016596.79045                  22471389.641
                  22471394.047                          46.000          30.200

 108469634.642 8  84521825.367 8                  20641079.328
  20641083.445    20641083.793                          50.500          48.300

 115501249.423 7  90001041.496 7                  21979154.789
  21979161.660    21979161.656                          45.500          46.100

 110611979.268 8  86031554.409 7                  20663253.852    20663252.418
                  20663258.078                          49.900          46.600

 120718105.746 7  94066082.60744                  22971885.984
                  22971892.324                          42.800          25.500

 121222489.138 6  94284217.868 6                  22661272.703    22661269.980
                  22661274.820                          39.700          37.400

 128505458.543 6  99948705.909 6                  24048056.898    24048057.578
                  24048063.707                          41.800          36.700

 19  3 26 19  7  0.0000000  0 20G16R06R18R08G27R10G09G05R16G08R17R09
                                G11G23G07G30R07G28R19R15
 128732612.752 6 100311120.51643                  24496994.172
                  24496997.934                          40.900          19.300

 113994190.337 7                                  21362470.586    21362468.801
                                                        42.700

 113829481.081 7  88534077.474 7                  21324096.953    21324094.816
                  21324101.180                          47.800          44.300

 124644478.787 6  96945751.149 6                  23276483.766    23276482.332
                  23276487.172                          41.800          36.900

 116852152.077 7  91053650.577 7                  22236214.922
  22236220.387    22236220.910                          45.300          43.600

 128243120.37116  99744735.68814                  24058094.719    24058093.871
                  24058102.348                          40.200          29.400

 108584162.313 8  84611060.830 8                  20662874.750
  20662880.801    20662881.031                          48.000          49.100

 129463519.098 7 100880694.971 6                  24636093.516
  24636099.273    24636099.387                          43.700          37.500

 109189589.568 7  84925299.101 6                  20440522.414    20440522.273
                  20440526.992                          44.800          40.800

 110949123.841 7  86453886.895 8                  21112903.250
  21112911.059    21112910.996                          47.800          48.400

 122969102.589 7  95642667.907 6                  22979715.867    22979715.020
                  22979720.801                          43.800          39.700

 110659904.470 8  86068877.887 7                  20723046.570    20723045.840
                  20723048.336                          49.800          45.500

 129729450.561 6 101087919.61242                  24686692.578
                  24686698.801                          37.200          17.800

 118186021.761 7  92093068.88844                  22490064.500
                  22490068.672                          44.800          29.200

 108443256.002 8  84501270.576 8                  20636059.664
  20636063.254    20636063.836                          50.200          48.200

 115433133.169 7  89947963.898 7                  21966192.992
  21966199.395    21966199.566                          45.100          44.600

 110612329.183 8  86031826.555 7                  20663319.016    20663318.992
                  20663324.301                          49.700          45.900

 120641756.137 7  94006589.46943                  22957355.547
                  22957363.176                          42.500          22.900

 121103389.686 6  94191584.975 6                  22639005.625    22639003.957
                  22639009.500                          38.700          37.600

 128591320.003 6 100015486.958 6                  24064124.797    24064124.418
                  24064131.488                          40.500          36.700

 19  3 26 19  7 30.0000000  0 20G16R06R18R08G27R10G09G05R16G08R17R09
                                G11G23G07G30R07G28R19R15
 128838239.702 6 100393427.12943                  24517091.969
                  24517097.957                          38.200          18.600

 114101899.822 7                                  21382654.039    21382653.543
                                                        42.600

 113792920.699 8  88505641.657 7                  21317248.250    21317246.113
                  21317252.828                          48.500          44.600

 124549553.258 7  96871920.201 6                  23258758.453    23258757.371
                  23258761.039                          42.700          38.600

 116906823.212 7  91096251.456 7                  22246618.109
  22246624.688    22246624.625                          46.300          44.300

 128159759.824 7  99679899.734 5                  24042456.773    24042455.691
                  24042463.230                          42.600          31.900

 108639693.454 8  84654331.836 8                  20673441.914
  20673447.613    20673448.078                          49.200          49.900

 129467372.622 6 100883697.697 6                  24636825.156
  24636831.969    24636833.195                          41.600          36.200

 109235746.225 7  84961198.744 6                  20449161.477    20449162.391
                  20449167.934                          44.500          40.800

 110939555.591 7  86446431.145 8                  21111081.984
  21111089.852    21111089.672                          47.800          48.500

 123033723.497 7  95692928.569 6                  22991790.617    22991789.887
                  22991796.020                          43.600          38.300

 110612495.523 8  86032004.280 7                  20714167.422    20714167.281
                  20714169.891                          49.500          45.400

 129635579.361 6 101014773.30243                  24668830.570
                  24668835.680                          39.800          19.300

 118284451.803 7  92169767.56944                  22508795.602
                  22508799.012                          45.900          28.600

 108417124.177 8  84480908.122 8                  20631085.469
  20631090.816    20631090.930                          49.500          48.200

 115365153.950 7  89894993.092 7                  21953256.680
  21953263.727    21953264.133                          45.100          45.600

 110613501.132 8  86032738.067 7                  20663538.180    20663537.215
                  20663542.875                          50.300          47.200

 120565667.151 7  93947299.40144                  22942878.742
                  22942883.734                          45.200          25.000

 120984506.368 6  94099120.262 6                  22616780.828    22616780.332
                  22616786.582                          37.900          37.200

 128677163.145 6 100082253.804 6                  24080186.977    24080189.414
                  24080196.602                          40.600          38.500

 19  3 26 19  8  0.0000000  0 20G16R06R18R08G27R10G09G05R16G08R17R09
                                G11G23G07G30R07G28R19R15
 128943852.456 6 100475722.77342                  24537190.891
                  24537194.008                          38.500          16.300

 114210021.752 7                                  21402916.742    21402915.426
                                                        43.000

 113757121.786 8  88477798.084 7                  21310542.266    21310539.777
                  21310544.852                          48.500          43.800

 124455130.163 6  96798480.071 6                  23241123.023    23241123.117
                  23241128.543                          41.900          39.200

 116962047.711 7  91139283.538 7                  22257127.531
  22257133.641    22257133.930                          47.000          44.600

 128076457.837 6  99615109.309 5                  24026828.867    24026828.605
                  24026836.969                          40.900          33.100

 108695734.794 8  84698000.391 8                  20684105.266
  20684111.844    20684112.133                          49.300          49.500

 129471739.980 6 100887100.847 6                  24637655.016
  24637664.406    24637663.992                          39.500          38.400

 109282090.811 7  84997244.511 6                  20457838.609    20457837.879
                  20457843.426                          44.600          40.800

 110930608.212 8  86439459.164 8                  21109379.680
  21109388.250    21109388.070                          49.600          48.300

 123099009.946 7  95743706.920 6                  23003989.945    23003990.859
                  23003995.816                          42.600          37.200

 110565296.613 8  85995293.984 7                  20705329.867    20705328.434
                  20705330.926                          50.200          45.600

 129541705.268 6 100941624.75843                  24650965.813
                  24650972.152                          38.600          18.300

 118383169.848 7  92246690.66044                  22527583.422
                  22527584.840                          47.300          28.100

 108391240.142 8  84460738.730 8                  20626160.984
  20626164.926    20626165.449                          49.700          48.000

 115297312.492 7  89842129.648 7                  21940346.883
  21940355.219    21940355.742                          45.900          46.500

 110615494.944 8  86034288.784 7                  20663911.031    20663909.715
                  20663914.906                          50.200          45.600

 120489838.960 7  93888212.53943                  22928448.172
                  22928453.574                          44.000          23.200

 120865843.501 6  94006827.002 6                  22594599.680    22594597.660
                  22594603.555                          40.100          37.000

 128762987.689 6 100149006.076 6                  24096250.602    24096249.520
                  24096257.293                          38.900          36.400

 19  3 26 19  8 30.0000000  0 20G16R06R18R08G27R10G09G05R16G08R17R09
                                G11G23G07G30R07G28R19R15
 129049448.705 6 100558005.55042                  24557284.352
                  24557288.582                          39.500          17.400

 114318551.469 7                                  21423255.773    21423254.926
                                                        43.300

 113722086.462 8  88450548.418 7                  21303978.703    21303976.918
                  21303981.406                          48.300          43.100

 124361212.838 7  96725433.304 6                  23223587.078    23223587.055
                  23223592.246                          42.900          39.800

 117017823.255 7  91182744.984 7                  22267741.320
  22267748.367    22267748.539                          47.500          45.800

 127993213.252 6  99550363.561 5                  24011210.406    24011210.145
                  24011220.969                          37.500          33.600

 108752284.527 8  84742065.104 8                  20694865.945
  20694873.344    20694873.516                          48.500          49.600

 129476620.107 7 100890903.472 6                  24638588.078
  24638591.375    24638591.898                          44.300          36.500

 109328622.509 7  85033435.829 6                  20466547.859    20466547.953
                  20466553.379                          44.300          41.200

 110922281.961 8  86432971.183 8                  21107796.297
  21107803.051    21107802.871                          49.300          48.400

 123164958.939 7  95795000.547 6                  23016317.063    23016316.449
                  23016321.879                          44.600          38.300

 110518307.427 8  85958746.827 7                  20696528.844    20696528.230
                  20696531.547                          49.500          45.900

 129447830.634 6 100868475.74043                  24633103.117
                  24633107.934                          39.200          18.600

 118482173.036 7  92323835.95444                  22546422.391
                  22546424.277                          47.000          28.000

 108365604.483 8  84440762.901 8                  20621282.883
  20621286.883    20621287.113                          50.300          48.200

 115229609.506 7  89789374.113 7                  21927462.367
  21927471.699    21927471.871                          45.700          46.800

 110618309.816 8  86036478.133 7                  20664435.992    20664435.613
                  20664441.043                          50.800          46.600

 120414271.954 7  93829329.18244                  22914068.203
                  22914072.492                          44.700          25.500

 120747405.538 6  93914708.633 5                  22572457.586    22572457.090
                  22572461.695                          39.600          35.900

 128848793.200 6 100215743.675 6                  24112307.211    24112307.422
                  24112314.020                          40.000          36.800

 19  3 26 19  9  0.0000000  0 20G16R06R18R08G27R10G09G05R16G08R17R09
                                G11G23G07G30R07G28R19R15
 129155027.215 6 100640274.48842                  24577375.398
                  24577379.805                          39.000          17.400

 114427485.313 7                                  21443668.594    21443668.098
                                                        42.900

 113687817.290 8  88423894.618 7                  21297557.883    21297556.449
                  21297561.523                          48.200          42.700

 124267805.759 7  96652783.393 6                  23206142.023    23206142.352
                  23206149.184                          42.700          41.000

 117074148.014 7  91226634.386 7                  22278459.156
  22278466.086    22278466.434                          47.000          45.500

 127910026.779 7  99485663.118 5                  23995608.211    23995607.715
                  23995615.488                          42.400          33.600

 108809341.357 8  84786524.962 8                  20705724.383
  20705730.844    20705731.016                          49.600          49.000

 129482012.402 6 100895105.261 5                  24639611.914
  24639616.793    24639618.195                          40.900          35.100

 109375340.951 7  85069772.384 6                  20475294.703    20475294.563
                  20475299.164                          44.600          41.000

 110914577.495 8  86426967.718 8                  21106329.617
  21106336.723    21106336.543                          49.400          48.100

 123231567.907 7  95846807.518 6                  23028764.844    23028762.824
                  23028767.898                          43.800          38.400

 110471527.880 8  85922362.761 7                  20687768.852    20687769.063
                  20687772.844                          48.600          46.200

 129353958.645 6 100795328.80043                  24615238.227
                  24615245.504                          38.100          20.100

 118581459.146 7  92401201.73344                  22565315.875
                  22565317.879                          46.700          27.900

 108340218.654 8  84420981.751 8                  20616453.039
  20616455.867    20616456.156                          51.900          48.300

 115162046.255 7  89736727.458 7                  21914606.547
  21914614.473    21914614.410                          47.300          46.400

 110621945.304 8  86039305.716 7                  20665115.391    20665114.660
                  20665120.086                          49.000          45.400

 120338966.889 7  93770649.93844                  22899738.523
                  22899742.637                          45.200          24.100

 120629197.667 6  93822769.228 5                  22550359.891    22550359.160
                  22550364.707                          38.600          35.800

 128934580.234 7 100282466.780 6                  24128362.539    24128361.105
                  24128368.410                          42.100          36.500

 19  3 26 19  9 30.0000000  0 20G16R06R18R08G27R10G09G05R16G08R17R09
                                G11G23G07G30R07G28R19R15
