% program   : RTKPOST ver.demo5 b31
% inp file  : D:\Data\Fla\Tampa-StPete-area\WGI-larrysanders\2019\0311\GPS\UAS\GP184856.obs
% inp file  : D:\Data\Fla\Tampa-StPete-area\WGI-larrysanders\2019\0311\GPS\MCD6\mcd60700.19o
% inp file  : D:\Data\Fla\Tampa-StPete-area\WGI-larrysanders\2019\0311\GPS\ZEFR\zefr0700.19n
% inp file  : D:\Data\Fla\Tampa-StPete-area\WGI-larrysanders\2019\0311\GPS\ZEFR\igu20441_18.sp3
% inp file  : D:\Data\Fla\Tampa-StPete-area\WGI-larrysanders\2019\0311\GPS\ZEFR\zefr0700.19g
% obs start : 2019/03/11 18:48:57.5 UTC (week2044 154155.5s)
% obs end   : 2019/03/11 19:03:41.0 UTC (week2044 155039.0s)
% pos mode  : kinematic
% freqs     : L1+L2
% solution  : combined
% elev mask : 20.0 deg
% dynamics  : on
% tidecorr  : off
% ionos opt : broadcast
% tropo opt : saastamoinen
% ephemeris : precise
% navi sys  : gps glonass qzss sbas
% amb res   : continuous
% amb glo   : fix and hold
% val thres : 3.0
% antenna1  :                       ( 0.0000  0.0000  0.0000)
% antenna2  :                       ( 0.0000  0.0000  0.0000)
% ref pos   : 27.849816036  -82.532588893   -14.2001
%
% (lat/lon/height=WGS84/ellipsoidal,Q=1:fix,2:float,3:sbas,4:dgps,5:single,6:ppp,ns=# of satellites)
%  UTC                   latitude(deg) longitude(deg)  height(m)   Q  ns   sdn(m)   sde(m)   sdu(m)  sdne(m)  sdeu(m)  sdun(m) age(s)  ratio
2019/03/11 18:49:17.000   27.894636786  -82.373362892   -20.8286   1   5   0.0059   0.0073   0.0214   0.0031   0.0092   0.0082   0.00   17.2
2019/03/11 18:49:18.000   27.894636806  -82.373362870   -20.8276   1   5   0.0078   0.0094   0.0274   0.0040   0.0121   0.0108   1.00   16.9
2019/03/11 18:49:19.000   27.894636827  -82.373362857   -20.8268   1   5   0.0070   0.0086   0.0250   0.0037   0.0109   0.0098   2.00   16.7
2019/03/11 18:49:20.000   27.894636842  -82.373362864   -20.8156   1   5   0.0070   0.0086   0.0250   0.0037   0.0109   0.0098   3.00   16.5
2019/03/11 18:49:21.000   27.894636840  -82.373362860   -20.8174   1   5   0.0078   0.0094   0.0274   0.0041   0.0121   0.0109   4.00   16.2
2019/03/11 18:49:22.000   27.894636802  -82.373362879   -20.8206   1   5   0.0059   0.0073   0.0214   0.0031   0.0092   0.0082   0.00   16.0
2019/03/11 18:49:23.000   27.894636781  -82.373362898   -20.8323   1   5   0.0078   0.0094   0.0274   0.0041   0.0121   0.0109   1.00   15.8
2019/03/11 18:49:24.000   27.894636782  -82.373362903   -20.8292   1   5   0.0071   0.0086   0.0250   0.0037   0.0109   0.0098   2.00   15.6
2019/03/11 18:49:25.000   27.894636774  -82.373362908   -20.8304   1   5   0.0071   0.0086   0.0250   0.0037   0.0109   0.0098   3.00   15.4
2019/03/11 18:49:26.000   27.894636768  -82.373362907   -20.8319   1   5   0.0078   0.0094   0.0274   0.0041   0.0121   0.0109   4.00   15.2
2019/03/11 18:49:27.000   27.894636783  -82.373362882   -20.8268   1   5   0.0059   0.0073   0.0214   0.0031   0.0092   0.0083   0.00   15.0
2019/03/11 18:49:28.000   27.894636773  -82.373362883   -20.8301   1   5   0.0078   0.0094   0.0275   0.0041   0.0121   0.0109   1.00   14.7
2019/03/11 18:49:29.000   27.894636778  -82.373362873   -20.8269   1   5   0.0071   0.0086   0.0251   0.0037   0.0109   0.0099   2.00   14.5
2019/03/11 18:49:30.000   27.894636762  -82.373362886   -20.8365   1   5   0.0071   0.0086   0.0251   0.0037   0.0109   0.0099   3.00   14.2
2019/03/11 18:49:31.000   27.894636756  -82.373362811   -20.8189   1   7   0.0076   0.0061   0.0179   0.0021  -0.0008   0.0090   4.00   12.2
2019/03/11 18:49:32.000   27.894636766  -82.373362794   -20.8179   1   7   0.0058   0.0049   0.0145   0.0018   0.0009   0.0069   0.00   11.9
2019/03/11 18:49:33.000   27.894636775  -82.373362816   -20.8207   1   7   0.0076   0.0061   0.0179   0.0021  -0.0008   0.0090   1.00   11.5
2019/03/11 18:49:34.000   27.894636758  -82.373362843   -20.8204   1   7   0.0069   0.0056   0.0165   0.0020   0.0001   0.0082   2.00   11.2
2019/03/11 18:49:35.000   27.894636760  -82.373362834   -20.8195   1   7   0.0069   0.0056   0.0165   0.0020   0.0001   0.0082   3.00   10.9
2019/03/11 18:49:36.000   27.894636748  -82.373362840   -20.8214   1   7   0.0076   0.0061   0.0179   0.0021  -0.0008   0.0090   4.00   10.6
2019/03/11 18:49:37.000   27.894636748  -82.373362849   -20.8211   1   7   0.0058   0.0049   0.0145   0.0018   0.0009   0.0069   0.00   10.4
2019/03/11 18:49:38.000   27.894636749  -82.373362850   -20.8194   1   7   0.0076   0.0061   0.0179   0.0021  -0.0008   0.0090   1.00   10.0
2019/03/11 18:49:39.000   27.894636730  -82.373362847   -20.8248   1   7   0.0069   0.0056   0.0166   0.0020   0.0002   0.0082   2.00    9.7
2019/03/11 18:49:40.000   27.894636743  -82.373362839   -20.8210   1   7   0.0069   0.0056   0.0166   0.0020   0.0002   0.0082   3.00    9.4
2019/03/11 18:49:41.000   27.894636773  -82.373362815   -20.8144   1   7   0.0076   0.0061   0.0179   0.0021  -0.0008   0.0090   4.00    9.1
2019/03/11 18:49:42.000   27.894636768  -82.373362815   -20.8152   1   7   0.0058   0.0049   0.0146   0.0018   0.0010   0.0069   0.00    8.9
2019/03/11 18:49:43.000   27.894636773  -82.373362810   -20.8128   1   7   0.0076   0.0061   0.0179   0.0021  -0.0008   0.0090   1.00    8.5
2019/03/11 18:49:44.000   27.894636779  -82.373362814   -20.8162   1   7   0.0069   0.0056   0.0166   0.0020   0.0003   0.0082   2.00    8.2
2019/03/11 18:49:45.000   27.894636786  -82.373362816   -20.8163   1   7   0.0069   0.0056   0.0166   0.0020   0.0003   0.0082   3.00    7.9
2019/03/11 18:49:46.000   27.894636793  -82.373362829   -20.8134   1   7   0.0076   0.0061   0.0179   0.0021  -0.0007   0.0090   4.00    7.5
2019/03/11 18:49:47.000   27.894636772  -82.373362827   -20.8143   1   7   0.0058   0.0049   0.0146   0.0018   0.0010   0.0069   0.00    7.3
2019/03/11 18:49:48.000   27.894636750  -82.373362824   -20.8207   1   7   0.0076   0.0061   0.0179   0.0021  -0.0007   0.0090   1.00    6.8
2019/03/11 18:49:49.000   27.894636775  -82.373362829   -20.8114   1   7   0.0069   0.0056   0.0166   0.0020   0.0003   0.0082   2.00    6.6
2019/03/11 18:49:50.000   27.894636757  -82.373362821   -20.8129   1   7   0.0069   0.0056   0.0166   0.0020   0.0003   0.0082   3.00    6.2
2019/03/11 18:49:51.000   27.894636759  -82.373362796   -20.8129   1   7   0.0076   0.0061   0.0179   0.0021  -0.0007   0.0091   4.00    5.8
2019/03/11 18:49:52.000   27.894636750  -82.373362813   -20.8117   1   7   0.0058   0.0049   0.0146   0.0018   0.0010   0.0070   0.00    5.6
2019/03/11 18:49:53.000   27.894636773  -82.373362819   -20.8064   1   7   0.0076   0.0061   0.0179   0.0021  -0.0007   0.0091   1.00    5.1
2019/03/11 18:49:54.000   27.894636777  -82.373362819   -20.8073   1   7   0.0069   0.0056   0.0166   0.0020   0.0003   0.0082   2.00    4.8
2019/03/11 18:49:55.000   27.894636745  -82.373362820   -20.8158   1   7   0.0069   0.0056   0.0166   0.0020   0.0003   0.0082   3.00    4.4
2019/03/11 18:49:56.000   27.894636759  -82.373362851   -20.8154   1   7   0.0077   0.0061   0.0180   0.0020  -0.0008   0.0091   4.00    3.9
2019/03/11 18:49:57.000   27.894636773  -82.373362871   -20.8153   1   7   0.0058   0.0049   0.0146   0.0017   0.0010   0.0070   0.00    3.6
2019/03/11 18:49:58.000   27.894636802  -82.373362918   -20.8132   1   7   0.0077   0.0062   0.0180   0.0019  -0.0010   0.0091   1.00   41.6
2019/03/11 18:49:59.000   27.894636803  -82.373362943   -20.8192   1   7   0.0069   0.0057   0.0166   0.0018  -0.0004   0.0083   2.00   41.4
2019/03/11 18:50:00.000   27.894636793  -82.373362948   -20.8189   1   7   0.0069   0.0057   0.0166   0.0017  -0.0004   0.0083   3.00   41.3
2019/03/11 18:50:01.000   27.894636791  -82.373362952   -20.8225   1   7   0.0077   0.0062   0.0180   0.0018  -0.0010   0.0091   4.00   41.2
2019/03/11 18:50:02.000   27.894636835  -82.373362978   -20.8211   1   7   0.0059   0.0051   0.0146   0.0015   0.0011   0.0070   0.00   41.1
2019/03/11 18:50:03.000   27.894636830  -82.373362902   -20.7944   1   7   0.0077   0.0063   0.0180   0.0017  -0.0012   0.0091   1.00   40.9
2019/03/11 18:50:04.000   27.894636820  -82.373362929   -20.8086   1   7   0.0070   0.0059   0.0166   0.0015  -0.0007   0.0083   2.00   40.9
2019/03/11 18:50:05.000   27.894636825  -82.373362802   -20.7976   1   7   0.0070   0.0059   0.0166   0.0012  -0.0008   0.0083   3.00   40.7
2019/03/11 18:50:06.000   27.894636812  -82.373362844   -20.7917   1   7   0.0078   0.0065   0.0180   0.0009  -0.0016   0.0092   4.00   40.7
2019/03/11 18:50:07.000   27.894636834  -82.373362833   -20.7863   1   7   0.0060   0.0058   0.0146  -0.0014   0.0015   0.0070   0.00   40.7
2019/03/11 18:50:08.000   27.894636650  -82.373362787   -20.8324   1   6   0.0078   0.0065   0.0180   0.0009  -0.0016   0.0092   1.00   35.1
2019/03/11 18:50:09.000   27.894636717  -82.373362836   -20.8246   1   6   0.0070   0.0060   0.0167   0.0010  -0.0009   0.0083   2.00   34.7
2019/03/11 18:50:10.000   27.894636711  -82.373362814   -20.8255   1   6   0.0070   0.0060   0.0167   0.0010  -0.0009   0.0083   3.00   34.5
2019/03/11 18:50:11.000   27.894636729  -82.373362788   -20.8187   1   6   0.0078   0.0065   0.0180   0.0009  -0.0016   0.0092   4.00   34.4
2019/03/11 18:50:12.000   27.894636769  -82.373362804   -20.8132   1   6   0.0059   0.0052   0.0146   0.0011   0.0012   0.0070   0.00   34.3
2019/03/11 18:50:13.000   27.894636756  -82.373362805   -20.8139   1   6   0.0078   0.0065   0.0180   0.0009  -0.0016   0.0092   1.00   34.2
2019/03/11 18:50:14.000   27.894636769  -82.373362834   -20.8120   1   7   0.0069   0.0056   0.0167   0.0020   0.0005   0.0083   2.00   32.0
2019/03/11 18:50:15.000   27.894636793  -82.373362811   -20.8095   1   7   0.0069   0.0056   0.0167   0.0020   0.0005   0.0083   3.00   31.9
2019/03/11 18:50:16.000   27.894636760  -82.373362823   -20.8175   1   7   0.0077   0.0061   0.0180   0.0021  -0.0006   0.0092   4.00   31.8
2019/03/11 18:50:17.000   27.894636762  -82.373362814   -20.8171   1   7   0.0058   0.0049   0.0146   0.0018   0.0010   0.0070   0.00   31.7
2019/03/11 18:50:18.000   27.894636759  -82.373362812   -20.8133   1   7   0.0077   0.0061   0.0180   0.0021  -0.0006   0.0092   1.00   31.6
2019/03/11 18:50:19.000   27.894636743  -82.373362834   -20.8197   1   7   0.0070   0.0056   0.0167   0.0020   0.0005   0.0083   2.00   31.5
2019/03/11 18:50:20.000   27.894636738  -82.373362821   -20.8176   1   7   0.0070   0.0056   0.0167   0.0020   0.0005   0.0083   3.00   31.4
2019/03/11 18:50:21.000   27.894636746  -82.373362819   -20.8162   1   7   0.0077   0.0061   0.0180   0.0021  -0.0005   0.0092   4.00   31.3
2019/03/11 18:50:22.000   27.894636771  -82.373362817   -20.8109   1   7   0.0059   0.0049   0.0147   0.0018   0.0010   0.0071   0.00   31.2
2019/03/11 18:50:23.000   27.894636782  -82.373362833   -20.8117   1   7   0.0077   0.0061   0.0180   0.0021  -0.0005   0.0092   1.00   31.1
2019/03/11 18:50:24.000   27.894636777  -82.373362844   -20.8115   1   7   0.0070   0.0056   0.0167   0.0020   0.0005   0.0083   2.00   31.0
2019/03/11 18:50:25.000   27.894636772  -82.373362840   -20.8137   1   7   0.0070   0.0056   0.0167   0.0020   0.0005   0.0083   3.00   30.9
2019/03/11 18:50:26.000   27.894636781  -82.373362819   -20.8139   1   7   0.0077   0.0061   0.0181   0.0021  -0.0005   0.0092   4.00   30.8
2019/03/11 18:50:27.000   27.894636773  -82.373362839   -20.8129   1   7   0.0059   0.0049   0.0147   0.0018   0.0010   0.0071   0.00   30.8
2019/03/11 18:50:28.000   27.894636769  -82.373362823   -20.8123   1   7   0.0077   0.0061   0.0181   0.0021  -0.0005   0.0092   1.00   30.7
2019/03/11 18:50:29.000   27.894636751  -82.373362805   -20.8137   1   7   0.0070   0.0056   0.0167   0.0020   0.0005   0.0084   2.00   30.7
2019/03/11 18:50:30.000   27.894636767  -82.373362802   -20.8173   1   7   0.0070   0.0056   0.0167   0.0020   0.0005   0.0084   3.00   30.6
2019/03/11 18:50:31.000   27.894636790  -82.373362783   -20.8122   1   7   0.0077   0.0061   0.0181   0.0021  -0.0005   0.0092   4.00   30.6
2019/03/11 18:50:32.000   27.894636786  -82.373362806   -20.8139   1   7   0.0059   0.0048   0.0147   0.0018   0.0010   0.0071   0.00   30.5
2019/03/11 18:50:33.000   27.894636788  -82.373362799   -20.8137   1   7   0.0077   0.0061   0.0181   0.0021  -0.0005   0.0092   1.00   30.4
2019/03/11 18:50:34.000   27.894636777  -82.373362799   -20.8137   1   7   0.0070   0.0056   0.0167   0.0020   0.0005   0.0084   2.00   30.4
2019/03/11 18:50:35.000   27.894636791  -82.373362781   -20.8177   1   7   0.0070   0.0056   0.0167   0.0020   0.0006   0.0084   3.00   30.3
2019/03/11 18:50:36.000   27.894636811  -82.373362808   -20.8123   1   7   0.0077   0.0061   0.0181   0.0021  -0.0004   0.0092   4.00   30.2
2019/03/11 18:50:37.000   27.894636800  -82.373362804   -20.8126   1   7   0.0059   0.0048   0.0147   0.0018   0.0010   0.0071   0.00   30.2
2019/03/11 18:50:38.000   27.894636801  -82.373362800   -20.8156   1   7   0.0077   0.0061   0.0181   0.0021  -0.0004   0.0092   1.00   30.2
2019/03/11 18:50:39.000   27.894636779  -82.373362819   -20.8170   1   7   0.0070   0.0056   0.0167   0.0020   0.0006   0.0084   2.00   30.1
2019/03/11 18:50:40.000   27.894636792  -82.373362804   -20.8165   1   7   0.0070   0.0056   0.0167   0.0020   0.0006   0.0084   3.00   30.1
2019/03/11 18:50:41.000   27.894636789  -82.373362804   -20.8180   1   7   0.0077   0.0061   0.0181   0.0021  -0.0004   0.0093   4.00   30.1
2019/03/11 18:50:42.000   27.894636749  -82.373362813   -20.8209   1   7   0.0059   0.0048   0.0147   0.0018   0.0010   0.0071   0.00   30.0
2019/03/11 18:50:43.000   27.894636755  -82.373362818   -20.8228   1   7   0.0078   0.0061   0.0181   0.0021  -0.0004   0.0093   1.00   30.0
2019/03/11 18:50:44.000   27.894636752  -82.373362825   -20.8272   1   7   0.0070   0.0056   0.0168   0.0020   0.0006   0.0084   2.00   29.9
2019/03/11 18:50:45.000   27.894636753  -82.373362828   -20.8215   1   7   0.0070   0.0056   0.0168   0.0020   0.0006   0.0084   3.00   29.9
2019/03/11 18:50:46.000   27.894636763  -82.373362834   -20.8175   1   7   0.0078   0.0061   0.0181   0.0021  -0.0003   0.0093   4.00   29.8
2019/03/11 18:50:47.000   27.894636772  -82.373362859   -20.8130   1   7   0.0042   0.0034   0.0104   0.0013   0.0007   0.0050   0.00    3.0
2019/03/11 18:50:48.000   27.894636755  -82.373362847   -20.8160   1   7   0.0055   0.0043   0.0128   0.0015  -0.0002   0.0066  -4.00    3.1
2019/03/11 18:50:49.000   27.894636751  -82.373362845   -20.8202   1   7   0.0050   0.0039   0.0119   0.0014   0.0004   0.0060  -3.00    3.1
2019/03/11 18:50:50.000   27.894636768  -82.373362824   -20.8181   1   7   0.0050   0.0039   0.0119   0.0014   0.0004   0.0060  -2.00    3.2
2019/03/11 18:50:51.000   27.894636732  -82.373362805   -20.8301   1   7   0.0055   0.0043   0.0128   0.0015  -0.0002   0.0066  -1.00    3.2
2019/03/11 18:50:52.000   27.894636724  -82.373362812   -20.8270   1   7   0.0042   0.0034   0.0104   0.0013   0.0007   0.0051   0.00    3.3
2019/03/11 18:50:53.000   27.894636735  -82.373362825   -20.8252   1   7   0.0055   0.0043   0.0128   0.0015  -0.0002   0.0066  -4.00    3.4
2019/03/11 18:50:54.000   27.894636718  -82.373362814   -20.8270   1   7   0.0050   0.0039   0.0119   0.0014   0.0004   0.0060  -3.00    3.4
2019/03/11 18:50:55.000   27.894636757  -82.373362812   -20.8191   1   7   0.0050   0.0039   0.0119   0.0014   0.0004   0.0060  -2.00    3.5
2019/03/11 18:50:56.000   27.894636717  -82.373362820   -20.8234   1   7   0.0055   0.0043   0.0128   0.0015  -0.0002   0.0066  -1.00    3.6
2019/03/11 18:50:57.000   27.894636740  -82.373362834   -20.8157   1   7   0.0042   0.0034   0.0104   0.0013   0.0007   0.0051   0.00    3.7
2019/03/11 18:50:58.000   27.894636789  -82.373362840   -20.8116   1   7   0.0055   0.0043   0.0128   0.0015  -0.0001   0.0066  -4.00    3.7
2019/03/11 18:50:59.000   27.894636799  -82.373362819   -20.8110   1   7   0.0050   0.0039   0.0119   0.0014   0.0005   0.0060  -3.00    3.8
2019/03/11 18:51:00.000   27.894636793  -82.373362819   -20.8118   1   7   0.0050   0.0039   0.0119   0.0014   0.0005   0.0060  -2.00    3.9
2019/03/11 18:51:01.000   27.894636767  -82.373362817   -20.8127   1   7   0.0055   0.0043   0.0128   0.0015  -0.0001   0.0066  -1.00    3.9
2019/03/11 18:51:02.000   27.894636736  -82.373362821   -20.8158   1   7   0.0042   0.0034   0.0104   0.0013   0.0007   0.0051   0.00    4.0
2019/03/11 18:51:03.000   27.894636733  -82.373362810   -20.8169   1   7   0.0055   0.0043   0.0129   0.0015  -0.0000   0.0066  -4.00    4.1
2019/03/11 18:51:04.000   27.894636705  -82.373362799   -20.8261   1   7   0.0050   0.0039   0.0119   0.0014   0.0005   0.0060  -3.00    4.2
2019/03/11 18:51:05.000   27.894636710  -82.373362815   -20.8234   1   7   0.0050   0.0039   0.0119   0.0014   0.0005   0.0060  -2.00    4.3
2019/03/11 18:51:06.000   27.894636727  -82.373362812   -20.8232   1   7   0.0055   0.0043   0.0129   0.0015   0.0001   0.0066  -1.00    4.3
2019/03/11 18:51:07.000   27.894636732  -82.373362821   -20.8246   1   7   0.0042   0.0034   0.0105   0.0013   0.0007   0.0051   0.00   14.9
2019/03/11 18:51:08.000   27.894636749  -82.373362803   -20.8209   1   7   0.0055   0.0043   0.0129   0.0015   0.0001   0.0066  -4.00   20.3
2019/03/11 18:51:09.000   27.894636750  -82.373362805   -20.8220   1   7   0.0050   0.0039   0.0119   0.0014   0.0005   0.0060  -3.00   22.1
2019/03/11 18:51:10.000   27.894636751  -82.373362808   -20.8187   1   7   0.0050   0.0039   0.0119   0.0014   0.0005   0.0060  -2.00   23.3
2019/03/11 18:51:11.000   27.894636750  -82.373362796   -20.8133   1   7   0.0055   0.0043   0.0129   0.0015   0.0002   0.0066  -1.00   24.4
2019/03/11 18:51:12.000   27.894636732  -82.373362800   -20.8149   1   7   0.0042   0.0034   0.0105   0.0013   0.0007   0.0051   0.00   25.3
2019/03/11 18:51:13.000   27.894636742  -82.373362785   -20.8201   1   7   0.0055   0.0043   0.0129   0.0015   0.0002   0.0066  -4.00   26.1
2019/03/11 18:51:14.000   27.894636732  -82.373362786   -20.8185   1   7   0.0050   0.0039   0.0119   0.0014   0.0005   0.0060  -3.00   26.8
2019/03/11 18:51:15.000   27.894636708  -82.373362781   -20.8246   1   7   0.0050   0.0039   0.0119   0.0014   0.0005   0.0060  -2.00   27.4
2019/03/11 18:51:16.000   27.894636739  -82.373362759   -20.8175   1   7   0.0055   0.0043   0.0129   0.0015   0.0002   0.0066  -1.00   28.0
2019/03/11 18:51:17.000   27.894636727  -82.373362781   -20.8220   1   7   0.0042   0.0034   0.0105   0.0012   0.0007   0.0051   0.00   28.4
2019/03/11 18:51:18.000   27.894636712  -82.373362779   -20.8222   1   7   0.0055   0.0043   0.0129   0.0015   0.0002   0.0066  -4.00   28.8
2019/03/11 18:51:19.000   27.894636689  -82.373362781   -20.8319   1   7   0.0050   0.0039   0.0119   0.0014   0.0005   0.0060  -3.00   29.1
2019/03/11 18:51:20.000   27.894636711  -82.373362789   -20.8252   1   7   0.0050   0.0039   0.0119   0.0014   0.0005   0.0060  -2.00   29.5
2019/03/11 18:51:21.000   27.894636693  -82.373362779   -20.8297   1   7   0.0055   0.0043   0.0129   0.0015   0.0002   0.0067  -1.00   29.8
2019/03/11 18:51:22.000   27.894636733  -82.373362813   -20.8212   1   7   0.0042   0.0034   0.0105   0.0012   0.0007   0.0051   0.00   30.1
2019/03/11 18:51:23.000   27.894636712  -82.373362772   -20.8251   1   7   0.0055   0.0043   0.0129   0.0014   0.0003   0.0067  -4.00   30.3
2019/03/11 18:51:24.000   27.894636716  -82.373362808   -20.8247   1   7   0.0050   0.0039   0.0119   0.0014   0.0005   0.0060  -3.00   30.5
2019/03/11 18:51:25.000   27.894636705  -82.373362797   -20.8207   1   7   0.0050   0.0039   0.0119   0.0014   0.0005   0.0061  -2.00   30.9
2019/03/11 18:51:26.000   27.894636719  -82.373362811   -20.8236   1   7   0.0056   0.0043   0.0129   0.0014   0.0003   0.0067  -1.00   31.2
2019/03/11 18:51:27.000   27.894636705  -82.373362814   -20.8253   1   7   0.0042   0.0034   0.0105   0.0012   0.0007   0.0051   0.00   31.4
2019/03/11 18:51:28.000   27.894636700  -82.373362813   -20.8269   1   7   0.0056   0.0043   0.0129   0.0014   0.0003   0.0067  -4.00   31.7
2019/03/11 18:51:29.000   27.894636717  -82.373362813   -20.8245   1   7   0.0050   0.0039   0.0119   0.0014   0.0005   0.0061  -3.00   32.0
2019/03/11 18:51:30.000   27.894636706  -82.373362804   -20.8257   1   7   0.0050   0.0039   0.0119   0.0014   0.0005   0.0061  -2.00   32.2
2019/03/11 18:51:31.000   27.894636708  -82.373362788   -20.8300   1   7   0.0056   0.0043   0.0129   0.0014   0.0003   0.0067  -1.00   32.4
2019/03/11 18:51:32.000   27.894636674  -82.373362796   -20.8313   1   7   0.0042   0.0034   0.0105   0.0012   0.0008   0.0051   0.00   32.6
2019/03/11 18:51:33.000   27.894636705  -82.373362779   -20.8276   1   7   0.0056   0.0043   0.0129   0.0014   0.0003   0.0067  -4.00   32.9
2019/03/11 18:51:34.000   27.894636670  -82.373362804   -20.8336   1   7   0.0050   0.0039   0.0120   0.0014   0.0005   0.0061  -3.00   33.1
2019/03/11 18:51:35.000   27.894636672  -82.373362796   -20.8342   1   7   0.0050   0.0039   0.0120   0.0014   0.0005   0.0061  -2.00   33.3
2019/03/11 18:51:36.000   27.894636688  -82.373362792   -20.8241   1   7   0.0056   0.0043   0.0129   0.0014   0.0003   0.0067  -1.00   33.5
2019/03/11 18:51:37.000   27.894636656  -82.373362811   -20.8363   1   7   0.0042   0.0034   0.0105   0.0012   0.0008   0.0052   0.00   33.6
2019/03/11 18:51:38.000   27.894636665  -82.373362793   -20.8328   1   7   0.0056   0.0043   0.0129   0.0014   0.0003   0.0067  -4.00   33.8
2019/03/11 18:51:39.000   27.894636657  -82.373362825   -20.8310   1   7   0.0050   0.0039   0.0120   0.0014   0.0005   0.0061  -3.00   34.0
2019/03/11 18:51:40.000   27.894636646  -82.373362811   -20.8379   1   7   0.0050   0.0039   0.0120   0.0014   0.0005   0.0061  -2.00   34.1
2019/03/11 18:51:41.000   27.894636665  -82.373362802   -20.8307   1   7   0.0056   0.0043   0.0129   0.0014   0.0004   0.0067  -1.00   34.3
2019/03/11 18:51:42.000   27.894636661  -82.373362822   -20.8326   1   7   0.0042   0.0034   0.0105   0.0012   0.0008   0.0052   0.00   34.3
2019/03/11 18:51:43.000   27.894636684  -82.373362794   -20.8271   1   7   0.0056   0.0043   0.0129   0.0014   0.0004   0.0067  -4.00   34.4
2019/03/11 18:51:44.000   27.894636684  -82.373362806   -20.8323   1   7   0.0050   0.0039   0.0120   0.0014   0.0006   0.0061  -3.00   34.6
2019/03/11 18:51:45.000   27.894636668  -82.373362812   -20.8309   1   7   0.0050   0.0039   0.0120   0.0014   0.0006   0.0061  -2.00   34.8
2019/03/11 18:51:46.000   27.894636660  -82.373362801   -20.8366   1   7   0.0056   0.0043   0.0130   0.0014   0.0004   0.0067  -1.00   34.9
2019/03/11 18:51:47.000   27.894636656  -82.373362834   -20.8289   1   7   0.0042   0.0034   0.0105   0.0012   0.0008   0.0052   0.00   34.8
2019/03/11 18:51:48.000   27.894636646  -82.373362811   -20.8346   1   7   0.0056   0.0043   0.0130   0.0014   0.0004   0.0067  -4.00   34.8
2019/03/11 18:51:49.000   27.894636628  -82.373362816   -20.8456   1   7   0.0050   0.0039   0.0120   0.0014   0.0006   0.0061  -3.00   34.8
2019/03/11 18:51:50.000   27.894636617  -82.373362824   -20.8399   1   7   0.0051   0.0039   0.0120   0.0014   0.0006   0.0061  -2.00   34.8
2019/03/11 18:51:51.000   27.894636647  -82.373362814   -20.8367   1   7   0.0056   0.0043   0.0130   0.0014   0.0004   0.0067  -1.00   34.9
2019/03/11 18:51:52.000   27.894636647  -82.373362835   -20.8334   1   7   0.0042   0.0034   0.0105   0.0012   0.0008   0.0052   0.00   35.0
2019/03/11 18:51:53.000   27.894636624  -82.373362803   -20.8370   1   7   0.0056   0.0043   0.0130   0.0014   0.0004   0.0067  -4.00   35.1
2019/03/11 18:51:54.000   27.894636600  -82.373362827   -20.8384   1   7   0.0051   0.0039   0.0120   0.0014   0.0006   0.0061  -3.00   35.1
2019/03/11 18:51:55.000   27.894636610  -82.373362780   -20.8372   1   7   0.0051   0.0039   0.0120   0.0014   0.0006   0.0061  -2.00   35.1
2019/03/11 18:51:56.000   27.894636639  -82.373362790   -20.8345   1   7   0.0056   0.0043   0.0130   0.0014   0.0004   0.0068  -1.00   35.2
2019/03/11 18:51:57.000   27.894636624  -82.373362833   -20.8366   1   7   0.0043   0.0034   0.0106   0.0012   0.0008   0.0052   0.00   35.3
2019/03/11 18:51:58.000   27.894636612  -82.373362779   -20.8351   1   7   0.0056   0.0043   0.0130   0.0014   0.0004   0.0068  -4.00   35.2
2019/03/11 18:51:59.000   27.894636629  -82.373362780   -20.8317   1   7   0.0051   0.0039   0.0120   0.0014   0.0006   0.0061  -3.00   35.2
2019/03/11 18:52:00.000   27.894636614  -82.373362781   -20.8369   1   7   0.0051   0.0039   0.0120   0.0014   0.0006   0.0061  -2.00   35.1
2019/03/11 18:52:01.000   27.894636662  -82.373362804   -20.8233   1   7   0.0056   0.0043   0.0130   0.0014   0.0004   0.0068  -1.00   35.2
2019/03/11 18:52:02.000   27.894636658  -82.373362812   -20.8286   1   7   0.0043   0.0034   0.0106   0.0012   0.0008   0.0052   0.00   34.9
2019/03/11 18:52:03.000   27.894636663  -82.373362782   -20.8303   1   7   0.0056   0.0043   0.0130   0.0014   0.0004   0.0068  -4.00   34.9
2019/03/11 18:52:04.000   27.894636675  -82.373362824   -20.8258   1   7   0.0051   0.0039   0.0120   0.0014   0.0006   0.0062  -3.00   34.9
2019/03/11 18:52:05.000   27.894636642  -82.373362796   -20.8417   1   7   0.0051   0.0039   0.0120   0.0014   0.0006   0.0062  -2.00   34.7
2019/03/11 18:52:06.000   27.894636633  -82.373362781   -20.8423   1   7   0.0056   0.0043   0.0130   0.0014   0.0005   0.0068  -1.00   34.7
2019/03/11 18:52:07.000   27.894636651  -82.373362763   -20.8410   1   7   0.0043   0.0034   0.0106   0.0012   0.0008   0.0052   0.00   34.6
2019/03/11 18:52:08.000   27.894636656  -82.373362775   -20.8339   1   7   0.0056   0.0043   0.0130   0.0014   0.0005   0.0068  -4.00   34.6
2019/03/11 18:52:09.000   27.894636652  -82.373362779   -20.8390   1   7   0.0051   0.0039   0.0120   0.0014   0.0006   0.0062  -3.00   34.4
2019/03/11 18:52:10.000   27.894636675  -82.373362789   -20.8345   1   7   0.0051   0.0039   0.0120   0.0014   0.0006   0.0062  -2.00   34.4
2019/03/11 18:52:11.000   27.894636665  -82.373362778   -20.8362   1   7   0.0056   0.0043   0.0130   0.0014   0.0005   0.0068  -1.00   34.4
2019/03/11 18:52:12.000   27.894636651  -82.373362815   -20.8399   1   7   0.0043   0.0034   0.0106   0.0012   0.0008   0.0052   0.00   34.2
2019/03/11 18:52:13.000   27.894636680  -82.373362804   -20.8262   1   7   0.0056   0.0043   0.0130   0.0014   0.0005   0.0068  -4.00   34.2
2019/03/11 18:52:14.000   27.894636652  -82.373362782   -20.8362   1   7   0.0051   0.0039   0.0121   0.0014   0.0006   0.0062  -3.00   34.0
2019/03/11 18:52:15.000   27.894636668  -82.373362792   -20.8373   1   7   0.0051   0.0039   0.0121   0.0014   0.0006   0.0062  -2.00   34.0
2019/03/11 18:52:16.000   27.894636656  -82.373362777   -20.8369   1   7   0.0056   0.0043   0.0130   0.0014   0.0005   0.0068  -1.00   33.9
2019/03/11 18:52:17.000   27.894636676  -82.373362790   -20.8419   1   7   0.0043   0.0034   0.0106   0.0012   0.0008   0.0052   0.00   33.6
2019/03/11 18:52:18.000   27.894636675  -82.373362777   -20.8356   1   7   0.0056   0.0043   0.0130   0.0014   0.0005   0.0068  -4.00   33.5
2019/03/11 18:52:19.000   27.894636671  -82.373362779   -20.8364   1   7   0.0051   0.0039   0.0121   0.0014   0.0006   0.0062  -3.00   33.4
2019/03/11 18:52:20.000   27.894636667  -82.373362765   -20.8390   1   7   0.0051   0.0039   0.0121   0.0014   0.0006   0.0062  -2.00   33.2
2019/03/11 18:52:21.000   27.894636682  -82.373362757   -20.8348   1   7   0.0056   0.0043   0.0130   0.0014   0.0005   0.0068  -1.00   33.2
2019/03/11 18:52:22.000   27.894636681  -82.373362760   -20.8360   1   7   0.0043   0.0034   0.0106   0.0012   0.0008   0.0053   0.00   33.0
2019/03/11 18:52:23.000   27.894636676  -82.373362741   -20.8358   1   7   0.0057   0.0043   0.0130   0.0014   0.0005   0.0068  -4.00   32.9
2019/03/11 18:52:24.000   27.894636709  -82.373362774   -20.8259   1   7   0.0051   0.0039   0.0121   0.0014   0.0006   0.0062  -3.00   32.9
2019/03/11 18:52:25.000   27.894636679  -82.373362759   -20.8361   1   7   0.0051   0.0039   0.0121   0.0014   0.0006   0.0062  -2.00   32.8
2019/03/11 18:52:26.000   27.894636666  -82.373362756   -20.8286   1   7   0.0057   0.0043   0.0131   0.0014   0.0005   0.0068  -1.00   32.8
2019/03/11 18:52:27.000   27.894636643  -82.373362806   -20.8285   1   7   0.0043   0.0034   0.0106   0.0012   0.0008   0.0053   0.00   32.7
2019/03/11 18:52:28.000   27.894636617  -82.373362778   -20.8326   1   7   0.0057   0.0043   0.0131   0.0014   0.0005   0.0068  -4.00   32.6
2019/03/11 18:52:29.000   27.894636667  -82.373362782   -20.8259   1   7   0.0051   0.0039   0.0121   0.0014   0.0006   0.0062  -3.00   32.7
2019/03/11 18:52:30.000   27.894636682  -82.373362755   -20.8265   1   7   0.0051   0.0039   0.0121   0.0014   0.0006   0.0062  -2.00   32.6
2019/03/11 18:52:31.000   27.894636667  -82.373362759   -20.8278   1   7   0.0057   0.0043   0.0131   0.0014   0.0005   0.0069  -1.00   32.7
2019/03/11 18:52:32.000   27.894636659  -82.373362763   -20.8265   1   7   0.0043   0.0034   0.0106   0.0012   0.0008   0.0053   0.00   32.6
2019/03/11 18:52:33.000   27.894636625  -82.373362742   -20.8367   1   7   0.0057   0.0043   0.0131   0.0014   0.0005   0.0069  -4.00   32.5
2019/03/11 18:52:34.000   27.894636614  -82.373362774   -20.8392   1   7   0.0051   0.0039   0.0121   0.0013   0.0006   0.0062  -3.00   32.5
2019/03/11 18:52:35.000   27.894636609  -82.373362787   -20.8342   1   7   0.0051   0.0039   0.0121   0.0013   0.0006   0.0062  -2.00   32.4
2019/03/11 18:52:36.000   27.894636636  -82.373362801   -20.8351   1   7   0.0057   0.0043   0.0131   0.0014   0.0006   0.0069  -1.00   32.4
2019/03/11 18:52:37.000   27.894636635  -82.373362835   -20.8385   1   7   0.0043   0.0034   0.0106   0.0012   0.0008   0.0053   0.00   32.1
2019/03/11 18:52:38.000   27.894636655  -82.373362804   -20.8321   1   7   0.0057   0.0043   0.0131   0.0014   0.0006   0.0069  -4.00   32.1
2019/03/11 18:52:39.000   27.894636678  -82.373362813   -20.8289   1   7   0.0051   0.0039   0.0121   0.0013   0.0007   0.0062  -3.00   32.0
2019/03/11 18:52:40.000   27.894636680  -82.373362810   -20.8285   1   7   0.0051   0.0039   0.0121   0.0013   0.0007   0.0062  -2.00   32.0
2019/03/11 18:52:41.000   27.894636695  -82.373362754   -20.8341   1   7   0.0057   0.0043   0.0131   0.0014   0.0006   0.0069  -1.00   31.9
2019/03/11 18:52:42.000   27.894636652  -82.373362784   -20.8443   1   7   0.0043   0.0034   0.0107   0.0012   0.0008   0.0053   0.00   31.7
2019/03/11 18:52:43.000   27.894636624  -82.373362780   -20.8391   1   7   0.0057   0.0043   0.0131   0.0014   0.0006   0.0069  -4.00   31.7
2019/03/11 18:52:44.000   27.894636602  -82.373362790   -20.8443   1   7   0.0051   0.0039   0.0121   0.0013   0.0007   0.0063  -3.00   31.5
2019/03/11 18:52:45.000   27.894636611  -82.373362799   -20.8394   1   7   0.0051   0.0039   0.0121   0.0013   0.0007   0.0063  -2.00   31.3
2019/03/11 18:52:46.000   27.894636607  -82.373362818   -20.8353   1   7   0.0057   0.0043   0.0131   0.0014   0.0006   0.0069  -1.00   31.2
2019/03/11 18:52:47.000   27.894636630  -82.373362840   -20.8303   1   7   0.0043   0.0034   0.0107   0.0012   0.0008   0.0053   0.00   31.1
2019/03/11 18:52:48.000   27.894636667  -82.373362823   -20.8256   1   7   0.0057   0.0043   0.0131   0.0014   0.0006   0.0069  -4.00   31.0
2019/03/11 18:52:49.000   27.894636700  -82.373362811   -20.8230   1   7   0.0051   0.0039   0.0121   0.0013   0.0007   0.0063  -3.00   30.9
2019/03/11 18:52:50.000   27.894636693  -82.373362802   -20.8243   1   7   0.0051   0.0039   0.0121   0.0013   0.0007   0.0063  -2.00   30.9
2019/03/11 18:52:51.000   27.894636666  -82.373362794   -20.8373   1   7   0.0057   0.0043   0.0131   0.0014   0.0006   0.0069  -1.00   30.8
2019/03/11 18:52:52.000   27.894636633  -82.373362820   -20.8460   1   7   0.0043   0.0034   0.0107   0.0012   0.0008   0.0053   0.00   30.7
2019/03/11 18:52:53.000   27.894636644  -82.373362791   -20.8376   1   7   0.0057   0.0043   0.0131   0.0014   0.0006   0.0069  -4.00   30.6
2019/03/11 18:52:54.000   27.894636613  -82.373362803   -20.8420   1   7   0.0051   0.0039   0.0121   0.0013   0.0007   0.0063  -3.00   30.5
2019/03/11 18:52:55.000   27.894636627  -82.373362814   -20.8374   1   7   0.0052   0.0039   0.0121   0.0013   0.0007   0.0063  -2.00   30.4
2019/03/11 18:52:56.000   27.894636649  -82.373362797   -20.8332   1   7   0.0057   0.0043   0.0131   0.0014   0.0006   0.0069  -1.00   30.3
2019/03/11 18:52:57.000   27.894636667  -82.373362849   -20.8253   1   7   0.0043   0.0034   0.0107   0.0012   0.0008   0.0053   0.00   30.2
2019/03/11 18:52:58.000   27.894636660  -82.373362816   -20.8296   1   7   0.0057   0.0043   0.0131   0.0014   0.0006   0.0069  -4.00   30.1
2019/03/11 18:52:59.000   27.894636665  -82.373362831   -20.8276   1   7   0.0052   0.0039   0.0122   0.0013   0.0007   0.0063  -3.00   30.0
2019/03/11 18:53:00.000   27.894636680  -82.373362835   -20.8263   1   7   0.0052   0.0039   0.0122   0.0013   0.0007   0.0063  -2.00   29.9
2019/03/11 18:53:01.000   27.894636687  -82.373362839   -20.8236   1   7   0.0057   0.0043   0.0131   0.0014   0.0006   0.0069  -1.00   29.9
2019/03/11 18:53:02.000   27.894636648  -82.373362851   -20.8392   1   7   0.0043   0.0034   0.0107   0.0012   0.0008   0.0054   0.00   29.7
2019/03/11 18:53:03.000   27.894636695  -82.373362803   -20.8325   1   7   0.0057   0.0043   0.0131   0.0014   0.0006   0.0069  -4.00   29.6
2019/03/11 18:53:04.000   27.894636675  -82.373362828   -20.8338   1   7   0.0052   0.0039   0.0122   0.0013   0.0007   0.0063  -3.00   29.5
2019/03/11 18:53:05.000   27.894636657  -82.373362839   -20.8314   1   7   0.0052   0.0039   0.0122   0.0013   0.0007   0.0063  -2.00   29.4
2019/03/11 18:53:06.000   27.894636659  -82.373362816   -20.8331   1   7   0.0057   0.0043   0.0132   0.0014   0.0006   0.0070  -1.00   29.3
2019/03/11 18:53:07.000   27.894636665  -82.373362831   -20.8342   1   7   0.0043   0.0034   0.0107   0.0012   0.0008   0.0054   0.00   29.2
2019/03/11 18:53:08.000   27.894636652  -82.373362820   -20.8321   1   7   0.0057   0.0043   0.0132   0.0014   0.0006   0.0070  -4.00   29.1
2019/03/11 18:53:09.000   27.894636630  -82.373362841   -20.8325   1   7   0.0052   0.0039   0.0122   0.0013   0.0007   0.0063  -3.00   28.9
2019/03/11 18:53:10.000   27.894636646  -82.373362850   -20.8305   1   7   0.0052   0.0039   0.0122   0.0013   0.0007   0.0063  -2.00   28.7
2019/03/11 18:53:11.000   27.894636652  -82.373362852   -20.8335   1   7   0.0057   0.0043   0.0132   0.0014   0.0006   0.0070  -1.00   28.5
2019/03/11 18:53:12.000   27.894636684  -82.373362878   -20.8301   1   7   0.0044   0.0034   0.0107   0.0012   0.0008   0.0054   0.00   28.3
2019/03/11 18:53:13.000   27.894636680  -82.373362879   -20.8191   1   7   0.0057   0.0043   0.0132   0.0014   0.0007   0.0070  -4.00   28.2
2019/03/11 18:53:14.000   27.894636663  -82.373362857   -20.8339   1   7   0.0052   0.0039   0.0122   0.0013   0.0007   0.0063  -3.00   28.1
2019/03/11 18:53:15.000   27.894636637  -82.373362851   -20.8381   1   7   0.0052   0.0039   0.0122   0.0013   0.0007   0.0063  -2.00   28.0
2019/03/11 18:53:16.000   27.894636642  -82.373362798   -20.8415   1   7   0.0057   0.0043   0.0132   0.0014   0.0007   0.0070  -1.00   27.8
2019/03/11 18:53:17.000   27.894636643  -82.373362823   -20.8326   1   7   0.0044   0.0034   0.0107   0.0012   0.0008   0.0054   0.00   27.7
2019/03/11 18:53:18.000   27.894636669  -82.373362801   -20.8290   1   7   0.0057   0.0043   0.0132   0.0014   0.0007   0.0070  -4.00   27.6
2019/03/11 18:53:19.000   27.894636668  -82.373362809   -20.8314   1   7   0.0052   0.0039   0.0122   0.0013   0.0007   0.0064  -3.00   27.5
2019/03/11 18:53:20.000   27.894636676  -82.373362829   -20.8328   1   7   0.0052   0.0039   0.0122   0.0013   0.0007   0.0064  -2.00   27.4
2019/03/11 18:53:21.000   27.894636648  -82.373362805   -20.8366   1   7   0.0058   0.0043   0.0132   0.0014   0.0007   0.0070  -1.00   27.3
2019/03/11 18:53:22.000   27.894636638  -82.373362843   -20.8389   1   7   0.0044   0.0034   0.0107   0.0012   0.0008   0.0054   0.00   27.2
2019/03/11 18:53:23.000   27.894636668  -82.373362852   -20.8288   1   7   0.0058   0.0043   0.0132   0.0014   0.0007   0.0070  -4.00   27.2
2019/03/11 18:53:24.000   27.894636677  -82.373362852   -20.8216   1   7   0.0052   0.0039   0.0122   0.0013   0.0007   0.0064  -3.00   27.1
2019/03/11 18:53:25.000   27.894636626  -82.373362859   -20.8338   1   7   0.0052   0.0039   0.0122   0.0013   0.0007   0.0064  -2.00   27.0
2019/03/11 18:53:26.000   27.894636668  -82.373362843   -20.8232   1   7   0.0058   0.0043   0.0132   0.0014   0.0007   0.0070  -1.00   27.0
2019/03/11 18:53:27.000   27.894636613  -82.373362896   -20.8308   1   7   0.0044   0.0034   0.0108   0.0012   0.0008   0.0054   0.00   27.0
2019/03/11 18:53:28.000   27.894636630  -82.373362855   -20.8320   1   7   0.0058   0.0043   0.0132   0.0014   0.0007   0.0070  -4.00   26.9
2019/03/11 18:53:29.000   27.894636610  -82.373362860   -20.8314   1   7   0.0052   0.0039   0.0122   0.0013   0.0007   0.0064  -3.00   26.9
2019/03/11 18:53:30.000   27.894636591  -82.373362859   -20.8369   1   7   0.0052   0.0039   0.0122   0.0013   0.0007   0.0064  -2.00   26.8
2019/03/11 18:53:31.000   27.894636584  -82.373362809   -20.8467   1   7   0.0058   0.0043   0.0132   0.0014   0.0007   0.0070  -1.00   26.7
2019/03/11 18:53:32.000   27.894636593  -82.373362840   -20.8397   1   7   0.0044   0.0034   0.0108   0.0012   0.0008   0.0054   0.00   26.5
2019/03/11 18:53:33.000   27.894636609  -82.373362803   -20.8351   1   7   0.0058   0.0043   0.0132   0.0014   0.0007   0.0070  -4.00   26.5
2019/03/11 18:53:34.000   27.894636604  -82.373362818   -20.8381   1   7   0.0052   0.0039   0.0122   0.0013   0.0007   0.0064  -3.00   26.4
2019/03/11 18:53:35.000   27.894636607  -82.373362824   -20.8340   1   7   0.0052   0.0039   0.0122   0.0013   0.0007   0.0064  -2.00   26.4
2019/03/11 18:53:36.000   27.894636610  -82.373362834   -20.8275   1   7   0.0058   0.0043   0.0132   0.0014   0.0007   0.0070  -1.00   26.4
2019/03/11 18:53:37.000   27.894636638  -82.373362852   -20.8254   1   7   0.0044   0.0034   0.0108   0.0012   0.0008   0.0054   0.00   26.3
2019/03/11 18:53:38.000   27.894636649  -82.373362823   -20.8268   1   7   0.0058   0.0043   0.0132   0.0014   0.0007   0.0071  -4.00   26.2
2019/03/11 18:53:39.000   27.894636684  -82.373362825   -20.8251   1   7   0.0052   0.0039   0.0123   0.0013   0.0007   0.0064  -3.00   26.2
2019/03/11 18:53:40.000   27.894636669  -82.373362813   -20.8289   1   7   0.0052   0.0039   0.0123   0.0013   0.0007   0.0064  -2.00   26.2
2019/03/11 18:53:41.000   27.894636679  -82.373362803   -20.8247   1   7   0.0058   0.0043   0.0133   0.0014   0.0007   0.0071  -1.00   26.2
2019/03/11 18:53:42.000   27.894636653  -82.373362825   -20.8344   1   7   0.0044   0.0034   0.0108   0.0012   0.0008   0.0055   0.00   26.2
2019/03/11 18:53:43.000   27.894636636  -82.373362804   -20.8308   1   7   0.0058   0.0043   0.0133   0.0014   0.0007   0.0071  -4.00   26.2
2019/03/11 18:53:44.000   27.894636639  -82.373362816   -20.8319   1   7   0.0052   0.0039   0.0123   0.0013   0.0007   0.0064  -3.00   26.1
2019/03/11 18:53:45.000   27.894636643  -82.373362783   -20.8309   1   7   0.0052   0.0039   0.0123   0.0013   0.0007   0.0064  -2.00   26.1
2019/03/11 18:53:46.000   27.894636642  -82.373362795   -20.8278   1   7   0.0058   0.0043   0.0133   0.0014   0.0007   0.0071  -1.00   26.2
2019/03/11 18:53:47.000   27.894636642  -82.373362764   -20.8348   1   7   0.0044   0.0034   0.0108   0.0012   0.0008   0.0055   0.00   26.2
2019/03/11 18:53:48.000   27.894636616  -82.373362791   -20.8334   1   7   0.0058   0.0043   0.0133   0.0014   0.0007   0.0071  -4.00   26.2
2019/03/11 18:53:49.000   27.894636617  -82.373362827   -20.8264   1   7   0.0052   0.0039   0.0123   0.0013   0.0007   0.0064  -3.00   26.2
2019/03/11 18:53:50.000   27.894636649  -82.373362820   -20.8226   1   7   0.0052   0.0039   0.0123   0.0013   0.0008   0.0064  -2.00   26.2
2019/03/11 18:53:51.000   27.894636655  -82.373362810   -20.8185   1   7   0.0058   0.0043   0.0133   0.0014   0.0007   0.0071  -1.00   26.2
2019/03/11 18:53:52.000   27.894636640  -82.373362826   -20.8289   1   7   0.0044   0.0034   0.0108   0.0012   0.0008   0.0055   0.00   26.2
2019/03/11 18:53:53.000   27.894636684  -82.373362796   -20.8166   1   7   0.0058   0.0043   0.0133   0.0014   0.0007   0.0071  -4.00   26.1
2019/03/11 18:53:54.000   27.894636696  -82.373362815   -20.8144   1   7   0.0052   0.0039   0.0123   0.0013   0.0008   0.0065  -3.00   26.1
2019/03/11 18:53:55.000   27.894636670  -82.373362800   -20.8215   1   7   0.0052   0.0039   0.0123   0.0013   0.0008   0.0065  -2.00   26.1
2019/03/11 18:53:56.000   27.894636690  -82.373362810   -20.8173   1   7   0.0058   0.0042   0.0133   0.0014   0.0007   0.0071  -1.00   26.1
2019/03/11 18:53:57.000   27.894636672  -82.373362835   -20.8167   1   7   0.0044   0.0034   0.0108   0.0012   0.0008   0.0055   0.00   26.0
2019/03/11 18:53:58.000   27.894636684  -82.373362796   -20.8161   1   7   0.0058   0.0042   0.0133   0.0014   0.0008   0.0071  -4.00   25.9
2019/03/11 18:53:59.000   27.894636659  -82.373362795   -20.8230   1   7   0.0053   0.0039   0.0123   0.0013   0.0008   0.0065  -3.00   25.9
2019/03/11 18:54:00.000   27.894636642  -82.373362823   -20.8281   1   7   0.0053   0.0039   0.0123   0.0013   0.0008   0.0065  -2.00   25.8
2019/03/11 18:54:01.000   27.894636652  -82.373362798   -20.8291   1   7   0.0058   0.0042   0.0133   0.0014   0.0008   0.0071  -1.00   25.8
2019/03/11 18:54:02.000   27.894636655  -82.373362806   -20.8355   1   7   0.0044   0.0034   0.0108   0.0012   0.0008   0.0055   0.00   25.7
2019/03/11 18:54:03.000   27.894636776  -82.373362580   -20.6950   1   7   0.0058   0.0042   0.0133   0.0014   0.0008   0.0071  -4.00   25.7
2019/03/11 18:54:04.000   27.894637228  -82.373361323   -19.3609   1   7   0.0053   0.0039   0.0123   0.0013   0.0008   0.0065  -3.00   25.8
2019/03/11 18:54:05.000   27.894638386  -82.373361540   -16.9087   1   7   0.0053   0.0039   0.0123   0.0013   0.0008   0.0065  -2.00   25.8
2019/03/11 18:54:06.000   27.894626793  -82.373341646   -14.5533   1   7   0.0058   0.0042   0.0133   0.0014   0.0008   0.0071  -1.00   25.8
2019/03/11 18:54:07.000   27.894597675  -82.373307029   -12.4113   1   7   0.0044   0.0034   0.0108   0.0012   0.0008   0.0055   0.00   25.7
2019/03/11 18:54:08.000   27.894581929  -82.373279444   -11.3697   1   7   0.0058   0.0042   0.0133   0.0014   0.0008   0.0071  -4.00   25.6
2019/03/11 18:54:09.000   27.894579757  -82.373282452   -12.1343   1   7   0.0053   0.0039   0.0123   0.0013   0.0008   0.0065  -3.00   25.6
2019/03/11 18:54:10.000   27.894590714  -82.373315123   -13.2862   1   7   0.0053   0.0039   0.0123   0.0013   0.0008   0.0065  -2.00   25.6
2019/03/11 18:54:11.000   27.894604603  -82.373359371   -13.1748   1   7   0.0058   0.0042   0.0133   0.0014   0.0008   0.0072  -1.00   25.5
2019/03/11 18:54:12.000   27.894619179  -82.373381987   -12.7063   1   7   0.0044   0.0034   0.0109   0.0012   0.0008   0.0055   0.00   25.5
2019/03/11 18:54:13.000   27.894619568  -82.373376426   -12.4412   1   7   0.0058   0.0042   0.0133   0.0014   0.0008   0.0072  -4.00   25.4
2019/03/11 18:54:14.000   27.894611688  -82.373358523   -12.9315   1   7   0.0053   0.0039   0.0123   0.0013   0.0008   0.0065  -3.00   25.4
2019/03/11 18:54:15.000   27.894611585  -82.373352154   -14.8208   1   7   0.0053   0.0039   0.0124   0.0013   0.0008   0.0065  -2.00   25.4
2019/03/11 18:54:16.000   27.894613047  -82.373348450   -16.6175   1   7   0.0059   0.0042   0.0133   0.0014   0.0008   0.0072  -1.00   25.4
2019/03/11 18:54:17.000   27.894614597  -82.373349531   -17.7756   1   7   0.0044   0.0034   0.0109   0.0012   0.0008   0.0055   0.00   25.5
2019/03/11 18:54:18.000   27.894615572  -82.373352820   -18.8018   1   7   0.0059   0.0042   0.0134   0.0014   0.0008   0.0072  -4.00   25.5
2019/03/11 18:54:19.000   27.894616140  -82.373352889   -19.8131   1   7   0.0053   0.0039   0.0124   0.0013   0.0008   0.0065  -3.00   25.4
2019/03/11 18:54:20.000   27.894615891  -82.373353896   -20.4826   1   7   0.0053   0.0039   0.0124   0.0013   0.0008   0.0065  -2.00   25.4
2019/03/11 18:54:21.000   27.894615016  -82.373354258   -20.7193   1   7   0.0059   0.0042   0.0134   0.0014   0.0008   0.0072  -1.00   25.3
2019/03/11 18:54:22.000   27.894614662  -82.373354585   -20.8103   1   7   0.0044   0.0034   0.0109   0.0012   0.0008   0.0055   0.00   25.2
2019/03/11 18:54:23.000   27.894614647  -82.373354542   -20.8136   1   7   0.0059   0.0042   0.0134   0.0014   0.0008   0.0072  -4.00   25.1
2019/03/11 18:54:24.000   27.894614608  -82.373354578   -20.8194   1   7   0.0053   0.0039   0.0124   0.0013   0.0008   0.0065  -3.00   25.0
2019/03/11 18:54:25.000   27.894614630  -82.373354559   -20.8222   1   7   0.0053   0.0039   0.0124   0.0013   0.0008   0.0065  -2.00   25.0
2019/03/11 18:54:26.000   27.894614625  -82.373354582   -20.8158   1   7   0.0059   0.0042   0.0134   0.0014   0.0008   0.0072  -1.00   24.9
2019/03/11 18:54:27.000   27.894614609  -82.373354646   -20.8257   1   7   0.0045   0.0034   0.0109   0.0012   0.0008   0.0056   0.00   24.7
2019/03/11 18:54:28.000   27.894614648  -82.373354606   -20.8145   1   7   0.0059   0.0042   0.0134   0.0014   0.0008   0.0072  -4.00   24.6
2019/03/11 18:54:29.000   27.894614684  -82.373354628   -20.8106   1   7   0.0053   0.0039   0.0124   0.0013   0.0008   0.0065  -3.00   24.5
2019/03/11 18:54:30.000   27.894614515  -82.373354673   -20.8243   1   7   0.0053   0.0039   0.0124   0.0013   0.0008   0.0066  -2.00   24.4
2019/03/11 18:54:31.000   27.894614650  -82.373354629   -20.8072   1   7   0.0059   0.0042   0.0134   0.0014   0.0008   0.0072  -1.00   24.3
2019/03/11 18:54:32.000   27.894614620  -82.373354669   -20.8162   1   7   0.0045   0.0034   0.0109   0.0012   0.0008   0.0056   0.00   24.1
2019/03/11 18:54:33.000   27.894614632  -82.373354628   -20.8144   1   7   0.0059   0.0042   0.0134   0.0014   0.0008   0.0072  -4.00   24.0
2019/03/11 18:54:34.000   27.894614626  -82.373354642   -20.8113   1   7   0.0053   0.0039   0.0124   0.0013   0.0008   0.0066  -3.00   23.9
2019/03/11 18:54:35.000   27.894614630  -82.373354678   -20.8175   1   7   0.0053   0.0039   0.0124   0.0013   0.0008   0.0066  -2.00   23.8
2019/03/11 18:54:36.000   27.894614635  -82.373354613   -20.8206   1   7   0.0059   0.0042   0.0134   0.0014   0.0008   0.0072  -1.00   23.7
2019/03/11 18:54:37.000   27.894614629  -82.373354641   -20.8210   1   7   0.0045   0.0034   0.0109   0.0012   0.0008   0.0056   0.00   23.5
2019/03/11 18:54:38.000   27.894614611  -82.373354607   -20.8244   1   7   0.0059   0.0042   0.0134   0.0014   0.0008   0.0072  -4.00   23.5
2019/03/11 18:54:39.000   27.894614617  -82.373354611   -20.8198   1   7   0.0053   0.0039   0.0124   0.0013   0.0008   0.0066  -3.00   23.4
2019/03/11 18:54:40.000   27.894614635  -82.373354567   -20.8145   1   7   0.0053   0.0039   0.0124   0.0013   0.0008   0.0066  -2.00   23.2
2019/03/11 18:54:41.000   27.894614593  -82.373354582   -20.8207   1   7   0.0059   0.0042   0.0134   0.0014   0.0008   0.0072  -1.00   23.2
2019/03/11 18:54:42.000   27.894614595  -82.373354605   -20.8182   1   7   0.0045   0.0034   0.0109   0.0012   0.0008   0.0056   0.00   23.1
2019/03/11 18:54:43.000   27.894614594  -82.373354577   -20.8179   1   7   0.0059   0.0042   0.0134   0.0014   0.0008   0.0072  -4.00   23.0
2019/03/11 18:54:44.000   27.894614628  -82.373354595   -20.8133   1   7   0.0053   0.0039   0.0124   0.0013   0.0008   0.0066  -3.00   22.9
2019/03/11 18:54:45.000   27.894614634  -82.373354602   -20.8121   1   7   0.0053   0.0039   0.0124   0.0013   0.0008   0.0066  -2.00   22.8
2019/03/11 18:54:46.000   27.894614625  -82.373354562   -20.8156   1   7   0.0059   0.0042   0.0134   0.0014   0.0008   0.0073  -1.00   22.8
2019/03/11 18:54:47.000   27.894614643  -82.373354589   -20.8099   1   7   0.0045   0.0034   0.0109   0.0012   0.0008   0.0056   0.00   22.7
2019/03/11 18:54:48.000   27.894614627  -82.373354574   -20.8157   1   7   0.0059   0.0042   0.0134   0.0014   0.0008   0.0073  -4.00   22.6
2019/03/11 18:54:49.000   27.894614643  -82.373354565   -20.8147   1   7   0.0053   0.0039   0.0124   0.0013   0.0008   0.0066  -3.00   22.6
2019/03/11 18:54:50.000   27.894614649  -82.373354578   -20.8080   1   7   0.0053   0.0039   0.0124   0.0013   0.0008   0.0066  -2.00   22.5
2019/03/11 18:54:51.000   27.894614669  -82.373354562   -20.8083   1   7   0.0059   0.0042   0.0134   0.0014   0.0009   0.0073  -1.00   22.5
2019/03/11 18:54:52.000   27.894614633  -82.373354594   -20.8126   1   7   0.0045   0.0034   0.0110   0.0012   0.0008   0.0056   0.00   22.4
2019/03/11 18:54:53.000   27.894614663  -82.373353583   -19.8130   1   7   0.0059   0.0042   0.0135   0.0014   0.0009   0.0073  -4.00   22.4
2019/03/11 18:54:54.000   27.894615347  -82.373353290   -17.5899   1   7   0.0053   0.0039   0.0125   0.0013   0.0008   0.0066  -3.00   22.4
2019/03/11 18:54:55.000   27.894616594  -82.373354661   -15.1783   1   7   0.0054   0.0039   0.0125   0.0013   0.0008   0.0066  -2.00   22.3
2019/03/11 18:54:56.000   27.894612231  -82.373348061   -12.9534   1   7   0.0059   0.0042   0.0135   0.0014   0.0009   0.0073  -1.00   22.4
2019/03/11 18:54:57.000   27.894585575  -82.373316505   -10.6804   1   7   0.0045   0.0034   0.0110   0.0012   0.0008   0.0056   0.00   22.3
2019/03/11 18:54:58.000   27.894547004  -82.373284525    -8.5981   1   7   0.0059   0.0042   0.0135   0.0014   0.0009   0.0073  -4.00   22.3
2019/03/11 18:54:59.000   27.894508953  -82.373268504    -6.7759   1   7   0.0054   0.0039   0.0125   0.0013   0.0008   0.0066  -3.00   22.3
2019/03/11 18:55:00.000   27.894486719  -82.373252368    -5.9857   1   7   0.0054   0.0039   0.0125   0.0013   0.0008   0.0066  -2.00   22.2
2019/03/11 18:55:01.000   27.894476345  -82.373244143    -6.4080   1   7   0.0059   0.0042   0.0135   0.0014   0.0009   0.0073  -1.00   22.2
2019/03/11 18:55:02.000   27.894475304  -82.373242164    -6.5316   1   7   0.0045   0.0034   0.0110   0.0012   0.0008   0.0056   0.00   22.2
2019/03/11 18:55:03.000   27.894476240  -82.373243601    -6.3072   1   7   0.0059   0.0042   0.0135   0.0014   0.0009   0.0073  -4.00   22.2
2019/03/11 18:55:04.000   27.894482141  -82.373247346    -4.8988   1   7   0.0054   0.0039   0.0125   0.0013   0.0008   0.0066  -3.00   22.3
2019/03/11 18:55:05.000   27.894492659  -82.373249514    -2.3252   1   7   0.0054   0.0039   0.0125   0.0013   0.0008   0.0067  -2.00   22.3
2019/03/11 18:55:06.000   27.894504785  -82.373248184     0.5213   1   7   0.0059   0.0042   0.0135   0.0014   0.0009   0.0073  -1.00   22.3
2019/03/11 18:55:07.000   27.894517237  -82.373248458     3.4094   1   7   0.0045   0.0034   0.0110   0.0012   0.0008   0.0057   0.00   22.4
2019/03/11 18:55:08.000   27.894529419  -82.373248808     6.3131   1   7   0.0060   0.0042   0.0135   0.0014   0.0009   0.0073  -4.00   22.4
2019/03/11 18:55:09.000   27.894541166  -82.373250128     9.2536   1   7   0.0054   0.0039   0.0125   0.0013   0.0008   0.0067  -3.00   22.4
2019/03/11 18:55:10.000   27.894553807  -82.373251535    12.2118   1   7   0.0054   0.0039   0.0125   0.0013   0.0008   0.0067  -2.00   22.4
2019/03/11 18:55:11.000   27.894567210  -82.373252398    15.0594   1   7   0.0060   0.0042   0.0135   0.0014   0.0009   0.0073  -1.00   22.4
2019/03/11 18:55:12.000   27.894579908  -82.373254798    17.9120   1   7   0.0045   0.0034   0.0110   0.0012   0.0008   0.0057   0.00   22.4
2019/03/11 18:55:13.000   27.894591773  -82.373258360    20.7351   1   7   0.0060   0.0042   0.0135   0.0014   0.0009   0.0073  -4.00   22.5
2019/03/11 18:55:14.000   27.894605449  -82.373261088    23.4931   1   7   0.0054   0.0039   0.0125   0.0013   0.0008   0.0067  -3.00   22.5
2019/03/11 18:55:15.000   27.894621671  -82.373263202    26.3408   1   7   0.0054   0.0039   0.0125   0.0013   0.0008   0.0067  -2.00   22.5
2019/03/11 18:55:16.000   27.894636894  -82.373264700    29.3026   1   7   0.0060   0.0042   0.0135   0.0014   0.0009   0.0073  -1.00   22.5
2019/03/11 18:55:17.000   27.894650976  -82.373265564    32.2695   1   7   0.0045   0.0034   0.0110   0.0012   0.0008   0.0057   0.00   22.5
2019/03/11 18:55:18.000   27.894663750  -82.373266699    35.2351   1   7   0.0060   0.0042   0.0135   0.0014   0.0009   0.0074  -4.00   22.6
2019/03/11 18:55:19.000   27.894676810  -82.373269872    38.1706   1   7   0.0054   0.0039   0.0125   0.0013   0.0008   0.0067  -3.00   22.6
2019/03/11 18:55:20.000   27.894690131  -82.373272618    41.0439   1   7   0.0054   0.0039   0.0125   0.0013   0.0008   0.0067  -2.00   22.6
2019/03/11 18:55:21.000   27.894703206  -82.373276001    43.8617   1   7   0.0060   0.0042   0.0135   0.0014   0.0009   0.0074  -1.00   22.6
2019/03/11 18:55:22.000   27.894715385  -82.373278536    46.5862   1   7   0.0045   0.0034   0.0110   0.0012   0.0008   0.0057   0.00   22.6
2019/03/11 18:55:23.000   27.894726892  -82.373279141    49.1675   1   7   0.0060   0.0042   0.0135   0.0014   0.0009   0.0074  -4.00   22.7
2019/03/11 18:55:24.000   27.894740824  -82.373280326    51.7351   1   7   0.0054   0.0039   0.0125   0.0013   0.0009   0.0067  -3.00   22.7
2019/03/11 18:55:25.000   27.894755005  -82.373282938    54.4061   1   7   0.0054   0.0039   0.0125   0.0013   0.0009   0.0067  -2.00   22.7
2019/03/11 18:55:26.000   27.894769473  -82.373285695    57.2302   1   7   0.0060   0.0042   0.0135   0.0014   0.0009   0.0074  -1.00   22.8
2019/03/11 18:55:27.000   27.894783254  -82.373288174    60.1578   1   7   0.0045   0.0034   0.0110   0.0012   0.0008   0.0057   0.00   22.8
2019/03/11 18:55:28.000   27.894796967  -82.373290279    63.0668   1   7   0.0060   0.0042   0.0136   0.0014   0.0009   0.0074  -4.00   22.8
2019/03/11 18:55:29.000   27.894810922  -82.373292397    65.9831   1   7   0.0054   0.0039   0.0126   0.0013   0.0009   0.0067  -3.00   22.9
2019/03/11 18:55:30.000   27.894824960  -82.373293832    68.9054   1   7   0.0054   0.0039   0.0126   0.0013   0.0009   0.0067  -2.00   22.9
2019/03/11 18:55:31.000   27.894838961  -82.373294791    71.8231   1   7   0.0060   0.0042   0.0136   0.0014   0.0009   0.0074  -1.00   23.0
2019/03/11 18:55:32.000   27.894853593  -82.373296568    74.7395   1   7   0.0045   0.0034   0.0111   0.0012   0.0008   0.0057   0.00   23.0
2019/03/11 18:55:33.000   27.894867571  -82.373298731    77.6922   1   7   0.0060   0.0042   0.0136   0.0014   0.0009   0.0074  -4.00   23.1
2019/03/11 18:55:34.000   27.894880847  -82.373299854    80.6109   1   7   0.0054   0.0039   0.0126   0.0013   0.0009   0.0067  -3.00   23.1
2019/03/11 18:55:35.000   27.894893851  -82.373300581    83.4521   1   7   0.0054   0.0039   0.0126   0.0013   0.0009   0.0067  -2.00   23.2
2019/03/11 18:55:36.000   27.894907402  -82.373301763    86.2123   1   7   0.0060   0.0042   0.0136   0.0014   0.0009   0.0074  -1.00   23.3
2019/03/11 18:55:37.000   27.894921330  -82.373302947    88.9306   1   7   0.0046   0.0034   0.0111   0.0012   0.0008   0.0057   0.00   23.4
2019/03/11 18:55:38.000   27.894934744  -82.373304737    91.6172   1   7   0.0060   0.0042   0.0136   0.0014   0.0009   0.0074  -4.00   23.5
2019/03/11 18:55:39.000   27.894947909  -82.373307007    94.3493   1   7   0.0054   0.0039   0.0126   0.0013   0.0009   0.0067  -3.00   23.5
2019/03/11 18:55:40.000   27.894961815  -82.373309591    97.1198   1   7   0.0054   0.0039   0.0126   0.0013   0.0009   0.0068  -2.00   23.6
2019/03/11 18:55:41.000   27.894966443  -82.373312373    99.1550   1   7   0.0060   0.0042   0.0136   0.0014   0.0009   0.0074  -1.00   23.7
2019/03/11 18:55:42.000   27.894942827  -82.373321925    99.7361   1   7   0.0046   0.0034   0.0111   0.0011   0.0008   0.0058   0.00   23.7
2019/03/11 18:55:43.000   27.894896579  -82.373345433    99.8950   1   7   0.0060   0.0042   0.0136   0.0014   0.0009   0.0074  -4.00   23.7
2019/03/11 18:55:44.000   27.894841468  -82.373389515    99.8368   1   7   0.0054   0.0039   0.0126   0.0013   0.0009   0.0068  -3.00   23.7
2019/03/11 18:55:45.000   27.894779825  -82.373438368    99.8814   1   7   0.0054   0.0039   0.0126   0.0013   0.0009   0.0068  -2.00   23.8
2019/03/11 18:55:46.000   27.894717551  -82.373483521   100.0305   1   7   0.0060   0.0042   0.0136   0.0014   0.0009   0.0074  -1.00   23.8
2019/03/11 18:55:47.000   27.894653001  -82.373527180   100.1262   1   7   0.0046   0.0034   0.0111   0.0011   0.0008   0.0058   0.00   23.8
2019/03/11 18:55:48.000   27.894585993  -82.373568764   100.1723   1   7   0.0060   0.0042   0.0136   0.0014   0.0009   0.0074  -4.00   23.9
2019/03/11 18:55:49.000   27.894517360  -82.373609139   100.2360   1   7   0.0054   0.0039   0.0126   0.0013   0.0009   0.0068  -3.00   23.9
2019/03/11 18:55:50.000   27.894448579  -82.373650230   100.2285   1   7   0.0054   0.0039   0.0126   0.0013   0.0009   0.0068  -2.00   23.9
2019/03/11 18:55:51.000   27.894379744  -82.373691962   100.1986   1   7   0.0060   0.0042   0.0136   0.0014   0.0009   0.0075  -1.00   23.9
2019/03/11 18:55:52.000   27.894311452  -82.373734122   100.2437   1   7   0.0046   0.0034   0.0111   0.0011   0.0008   0.0058   0.00   24.0
2019/03/11 18:55:53.000   27.894242703  -82.373776873   100.3374   1   7   0.0060   0.0042   0.0136   0.0014   0.0009   0.0075  -4.00   24.0
2019/03/11 18:55:54.000   27.894172861  -82.373820658   100.4507   1   7   0.0055   0.0039   0.0126   0.0013   0.0009   0.0068  -3.00   24.0
2019/03/11 18:55:55.000   27.894103284  -82.373864414   100.5053   1   7   0.0055   0.0039   0.0126   0.0013   0.0009   0.0068  -2.00   24.0
2019/03/11 18:55:56.000   27.894034681  -82.373908290   100.4588   1   7   0.0060   0.0042   0.0136   0.0014   0.0010   0.0075  -1.00   24.1
2019/03/11 18:55:57.000   27.893965746  -82.373950716   100.3890   1   7   0.0046   0.0034   0.0111   0.0011   0.0008   0.0058   0.00   24.1
2019/03/11 18:55:58.000   27.893896210  -82.373994756   100.3466   1   7   0.0060   0.0042   0.0136   0.0014   0.0010   0.0075  -4.00   24.1
2019/03/11 18:55:59.000   27.893827025  -82.374038658   100.2479   1   7   0.0055   0.0039   0.0126   0.0013   0.0009   0.0068  -3.00   24.2
2019/03/11 18:56:00.000   27.893766391  -82.374079724   100.2930   1   7   0.0055   0.0039   0.0126   0.0013   0.0009   0.0068  -2.00   24.2
2019/03/11 18:56:01.000   27.893736341  -82.374101300   100.3356   1   7   0.0061   0.0042   0.0137   0.0014   0.0010   0.0075  -1.00   24.3
2019/03/11 18:56:02.000   27.893738829  -82.374105484   100.4440   1   7   0.0046   0.0034   0.0111   0.0011   0.0008   0.0058   0.00   24.4
2019/03/11 18:56:03.000   27.893766245  -82.374108876   100.6402   1   7   0.0061   0.0042   0.0137   0.0014   0.0010   0.0075  -4.00   24.4
2019/03/11 18:56:04.000   27.893804213  -82.374113731   100.6688   1   7   0.0055   0.0039   0.0127   0.0013   0.0009   0.0068  -3.00   24.5
2019/03/11 18:56:05.000   27.893860613  -82.374115209   100.6076   1   7   0.0055   0.0039   0.0127   0.0013   0.0009   0.0068  -2.00   24.6
2019/03/11 18:56:06.000   27.893930969  -82.374115216   100.5697   1   7   0.0061   0.0042   0.0137   0.0014   0.0010   0.0075  -1.00   24.6
2019/03/11 18:56:07.000   27.894009964  -82.374114759   100.5349   1   7   0.0046   0.0034   0.0111   0.0011   0.0008   0.0058   0.00   24.6
2019/03/11 18:56:08.000   27.894092856  -82.374113190   100.5386   1   7   0.0061   0.0042   0.0137   0.0014   0.0010   0.0075  -4.00   24.7
