     2.11           OBSERVATION DATA    M (MIXED)           RINEX VERSION / TYPE
teqc  2018Jun8      root                20191212 04:36:32UTCPGM / RUN BY / DATE
Linux 2.4.21-27.ELsmp|Opteron|gcc|Linux 64|=+               COMMENT
teqc  2019Feb25     CORS-ADM Account    20190427 19:55:38UTCCOMMENT
teqc  2018Jan11     NOAA/NOS/NGS/CORS   20190327 12:48:52UTCCOMMENT
Linux 2.4.21-27.ELsmp|Opteron|gcc -static|Linux 64|=+       COMMENT
teqc  2019Feb25     UNAVCO Archive Ops  20190327 12:12:21UTCCOMMENT
Solaris x86 5.10|AMD64|cc SC5.8 -xarch=amd64|=+|=+          COMMENT
BIT 2 OF LLI FLAGS DATA COLLECTED UNDER A/S CONDITION       COMMENT
input file: p0410850.19_a.sbf                               COMMENT
RINEX file created by UNAVCO GPS Archive.                   COMMENT
For more information contact archive-gps@unavco.org         COMMENT
Monument ID: 18024                                          COMMENT
UNAVCO 4-char name:   P041                                  COMMENT
4-char name from Log or data file: P041                     COMMENT
Monument location: 39.949492 -105.194266 1728.8417          COMMENT
Visit ID: 122689                                            COMMENT
End of DB comments                                          COMMENT
 SNR is mapped to RINEX snr flag value [0-9]                COMMENT
  L1 & L2: min(max(int(snr_dBHz/6), 0), 9)                  COMMENT
teqc.e edited: all SBAS satellites excluded                 COMMENT
teqc.e edited: all QZSS satellites excluded                 COMMENT
Forced Modulo Decimation to 30 seconds                      COMMENT
P041                                                        MARKER NAME
Glen Mattioli       UNAVCO                                  OBSERVER / AGENCY
3012086             SEPT POLARX5        5.2.0               REC # / TYPE / VERS
0220363249          TRM59800.80     SCIT                    ANT # / TYPE
 -1283633.4720 -4726429.1960  4074798.0920                  APPROX POSITION XYZ
        0.0083        0.0000        0.0000                  ANTENNA: DELTA H/E/N
     1     1                                                WAVELENGTH FACT L1/2
    20    L1    L2    C1    P2    P1    S1    S2    C2    L5# / TYPES OF OBSERV
          C5    S5    L6    C6    S6    L7    C7    S7    L8# / TYPES OF OBSERV
          C8    S8                                          # / TYPES OF OBSERV
    30.0000                                                 INTERVAL
teqc.w windowed: start @ 2019 Mar 26 19:00:00.000           COMMENT
teqc.w windowed:  end  @ 2019 Mar 26 22:00:00.000           COMMENT
  2019     3    26    19     0    0.0000000     GPS         TIME OF FIRST OBS
    18                                                      LEAP SECONDS
                                                            END OF HEADER
 19  3 26 19  0  0.0000000  0 27G08E03G23E05E02G28G09G30G27R08G16R15
                                G07E24G11E08R19R09E25R16R07R06E12R18
                                G05E11R17
 111168384.574 8  86624748.011 7  21154630.956    21154631.895    21154630.711
        48.750          46.250    21154632.847    83015388.722 8  21154631.241
        50.500

 127515454.680 8                  24265388.358
        48.500                                    95222621.648 8  24265391.211
        48.500   103502838.287 8  24265387.697          52.500    97706677.884 8
  24265388.982          51.250    96464655.339 8  24265389.833          53.000
 116944969.058 7  91125941.80045  22253888.036    22253884.347    22253887.603
        46.000          33.250


 134605720.524 7                  25614616.456
        43.750                                   100517273.972 7  25614620.007
        44.000   109257884.939 7  25614615.473          47.500   103139452.891 7
  25614617.947          46.750   101828367.506 8  25614618.762          48.500
 137497774.734 7                  26164951.079
        42.250                                   102676936.596 7  26164953.860
        42.000   111605350.803 7  26164951.513          46.250   105355453.606 7
  26164951.219          44.250   104016202.177 7  26164952.289          46.250
 121801471.138 6  94910240.85243  23178045.071    23178043.890    23178044.410
        41.000          23.500


 107918261.604 8  84092161.845 8  20536159.120    20536159.410    20536158.942
        50.250          48.250    20536160.014    80588321.041 8  20536159.986
        52.500

 116348644.164 7  90661298.076 7  22140403.180    22140403.560    22140402.796
        45.500          43.000    22140404.409    86883751.586 8  22140404.283
        48.750

 116093079.045 7  90462164.319 7  22091769.285    22091769.576    22091768.919
        46.500          43.500    22091770.345    86692911.583 7  22091769.848
        47.750

 125903997.895 6  97925369.702 6  23511684.782    23511690.412
        41.000          41.250    23511690.121


 127171528.878 6  99094701.32043  24199935.808    24199933.192    24199935.169
        38.000          19.250


 127343471.455 6  99044953.865 6  23830598.534    23830604.331
        39.000          40.500    23830604.420


 108790099.599 8  84771509.943 7  20702060.504    20702058.039    20702060.321
        51.250          46.250    20702058.464


 122560777.427 7                  23322543.983
        45.750                                    91522720.464 7  23322557.157
        45.750    99481130.186 8  23322536.185          49.250    93910263.018 8
  23322555.053          48.250    92716491.815 8  23322555.895          50.000
 131150931.487 6 102195537.43742  24957187.168    24957186.980    24957186.690
        36.750          17.500


 129914317.777 6                  24721871.449
        40.750                                    97013951.462 6  24721873.153
        41.000   105449940.326 7  24721873.171          44.250    99544740.137 7
  24721870.789          42.500    98279345.373 7  24721871.716          44.750
 122886043.171 6  95578039.095 6  22972241.351    22972245.138
        40.250          40.250    22972245.304


 111301400.548 8  86567791.862 8  20843171.136    20843175.160
        50.500          49.000    20843175.129


 120639465.853 8                  22956923.260
        49.750                                    90087951.472 8  22956925.791
        50.500    97921662.204 9  22956921.830          54.750    92438059.040 8
  22956923.643          53.250    91263012.829 9  22956924.471          55.000
 108491636.928 7  84382437.817 7  20309859.205    20309863.824
        47.500          44.000    20309863.145


 110646944.722 8  86058766.213 8  20669776.078    20669780.602
        51.500          49.500    20669780.844


 112616348.524 7                  21104258.126
        44.750


 131137286.164 6                  24954591.314
        36.500                                    97927220.879 6  24954591.711
        36.000   106442610.587 6  24954588.617          41.000   100481831.131 6
  24954589.701          38.500    99204526.580 6  24954590.123          40.500
 114413897.261 8  88988631.041 7  21433570.957    21433577.417
        49.000          46.500    21433577.354


 129384318.149 6 100818948.243 5  24621017.219    24621016.713    24621017.076
        37.000          30.000    24621016.490


 133948910.732 6                  25489625.918
        37.000                                   100026813.494 5  25489625.998
        34.500   108724783.532 6  25489623.472          40.750   102636200.663 6
  25489623.966          37.750   101331513.152 6  25489624.691          39.250
 122028870.271 7  94911377.367 6  22804003.605    22804007.609
        46.000          39.500    22804007.475


 19  3 26 19  0 30.0000000  0 27G08E03G23E05E02G28G09G30G27R08G16R15
                                G07E24G11E08R19R09E25R16R07R06E12R18
                                G05E11R17
 111149597.351 8  86610108.633 7  21151055.821    21151056.769    21151055.576
        48.750          46.250    21151057.610    83001359.321 8  21151056.097
        50.500

 127533398.455 8                  24268802.817
        48.250                                    95236021.201 8  24268805.723
        48.500   103517403.031 8  24268802.384          52.750    97720426.998 8
  24268803.579          51.500    96478229.673 8  24268804.430          53.000
 117039436.409 7  91199552.68645  22271864.432    22271860.908    22271864.003
        46.000          33.500


 134690275.638 7                  25630706.557
        43.500                                   100580415.740 7  25630710.353
        43.750   109326517.308 7  25630705.605          47.500   103204241.829 7
  25630708.231          46.750   101892332.858 8  25630709.073          48.500
 137442146.785 7                  26154365.366
        42.250                                   102635396.299 7  26154368.058
        42.000   111560198.295 7  26154366.131          46.250   105312829.644 7
  26154365.668          44.500   103974120.046 7  26154366.630          46.250
 121721434.005 6  94847874.28844  23162814.644    23162813.297    23162813.960
        40.500          24.500


 107967036.790 8  84130168.467 8  20545440.646    20545441.031    20545440.468
        50.250          48.500    20545441.634    80624744.053 8  20545441.700
        52.500

 116278724.012 7  90606814.876 7  22127097.630    22127098.296    22127097.250
        45.500          43.250    22127099.275    86831538.511 8  22127098.912
        48.750

 116139324.157 7  90498199.477 7  22100569.536    22100569.598    22100569.170
        46.500          43.500    22100570.072    86727445.278 7  22100570.089
        47.750

 125802645.625 7  97846540.202 6  23492757.914    23492763.262
        42.000          41.500    23492763.039


 127277249.628 6  99177081.10143  24220053.271    24220051.406    24220052.623
        37.500          18.000


 127429988.292 6  99112245.667 6  23846788.129    23846795.012
        40.000          39.750    23846795.580


 108760747.584 8  84748638.247 7  20696474.883    20696472.580    20696474.700
        51.250          46.500    20696473.005


 122614974.960 7                  23332857.441
        45.500                                    91563192.642 7  23332870.650
        45.750    99525121.687 8  23332849.643          49.500    93951790.991 8
  23332868.452          48.250    92757491.889 8  23332869.330          50.250
 131057168.846 6 102122475.71643  24939345.086    24939344.638    24939344.639
        37.250          19.000


 129856078.512 6                  24710788.787
        40.250                                    96970461.121 6  24710790.455
        40.750   105402668.219 7  24710790.536          44.500    99500115.256 7
  24710787.998          42.750    98235287.764 7  24710789.068          44.750
 122764249.934 6  95483311.133 6  22949472.694    22949477.130
        39.500          40.250    22949477.376


 111250639.642 8  86528311.180 8  20833664.954    20833669.192
        50.750          49.000    20833669.062


 120637545.307 8                  22956557.736
        49.500                                    90086517.309 8  22956560.370
        50.500    97920103.331 9  22956556.377          55.000    92436587.464 8
  22956558.132          53.250    91261559.961 9  22956559.005          55.000
 108535209.548 7  84416327.635 7  20318016.469    20318020.654
        47.750          44.250    20318019.912


 110637231.439 8  86051211.437 8  20667961.899    20667966.057
        51.500          49.500    20667966.012


 112718285.528 7                  21123360.950
        45.000


 131108230.839 6                  24949062.259
        36.250                                    97905523.751 6  24949062.549
        36.000   106419026.739 6  24949059.733          41.500   100459567.979 6
  24949060.481          39.000    99182546.439 6  24949061.095          40.500
 114366349.681 8  88951649.607 7  21424663.953    21424669.912
        49.250          46.250    21424669.697


 129381279.408 6 100816580.383 5  24620439.520    24620438.464    24620439.386
        38.000          31.500    24620440.772


 133869406.734 6                  25474496.943
        36.750                                    99967443.687 5  25474496.943
        35.250   108660251.121 6  25474494.341          41.000   102575282.069 6
  25474494.566          38.000   101271368.952 6  25474495.515          39.750
 122083556.378 7  94953911.014 6  22814223.390    22814226.879
        46.250          40.250    22814226.481


 19  3 26 19  1  0.0000000  0 27G08E03G23E05E02G28G09G30G27R08G16R15
                                G07E24G11E08R19R09E25R16R07R06E12R18
                                G05E11R17
 111131423.264 8  86595947.013 7  21147597.385    21147598.198    21147597.140
        49.000          46.250    21147599.063    82987787.764 8  21147597.629
        50.750

 127551760.784 8                  24272297.068
        48.250                                    95249733.308 8  24272299.957
        48.500   103532307.487 8  24272296.713          52.750    97734496.798 8
  24272297.742          51.250    96492120.682 8  24272298.671          53.000
 117134221.926 7  91273411.48445  22289901.659    22289898.175    22289901.226
        45.750          34.250


 134774999.513 7                  25646829.207
        43.500                                   100643683.515 7  25646832.819
        43.750   109395286.637 7  25646828.105          47.750   103269160.079 7
  25646830.770          46.500   101956425.920 8  25646831.504          48.250
 137386632.545 7                  26143801.125
        42.000                                   102593940.896 7  26143803.788
        42.000   111515138.049 7  26143802.279          46.750   105270292.784 7
  26143801.605          44.500   103932123.926 7  26143802.569          46.500
 121641647.188 6  94785702.79444  23147631.479    23147630.607    23147630.800
        40.750          26.000


 108016339.771 8  84168586.350 8  20554822.793    20554823.052    20554822.615
        50.500          48.500    20554823.583    80661561.198 8  20554823.709
        52.500

 116208929.998 7  90552429.938 7  22113816.253    22113816.928    22113815.873
        45.750          43.500    22113817.769    86779419.621 8  22113817.508
        49.000

 116186150.603 7  90534687.604 7  22109480.212    22109480.391    22109479.846
        46.750          43.750    22109481.263    86762413.049 8  22109480.777
        48.000

 125701745.118 7  97768062.027 6  23473915.818    23473920.618
        42.750          41.750    23473920.433


 127382980.754 6  99259468.95843  24240173.135    24240171.798    24240172.492
        36.750          18.000


 127516487.533 6  99179522.737 6  23862976.647    23862982.492
        41.250          39.250    23862981.850


 108731630.148 8  84725949.331 7  20690933.995    20690931.674    20690933.808
        51.250          46.500    20690932.117


 122669220.921 7                  23343180.136
        45.500                                    91603700.968 7  23343193.425
        45.750    99569152.483 8  23343172.432          49.750    93993356.063 8
  23343191.183          48.250    92798528.539 8  23343192.002          50.000
 130963362.341 6 102049379.80343  24921493.802    24921493.422    24921493.342
        37.750          20.250


 129798146.166 6                  24699764.729
        40.250                                    96927199.971 6  24699766.401
        40.750   105355645.214 7  24699766.241          44.750    99455725.549 7
  24699764.102          42.750    98191462.337 7  24699764.881          44.750
 122642609.133 6  95388701.734 6  22926733.444    22926737.154
        38.750          39.750    22926738.328


 111200092.474 8  86488996.735 8  20824198.692    20824203.321
        50.250          49.250    20824203.145


 120635782.955 8                  22956222.390
        49.500                                    90085201.268 8  22956224.929
        50.500    97918672.847 9  22956220.982          55.000    92435237.093 8
  22956222.733          53.000    91260226.877 9  22956223.632          54.750
 108578981.992 7  84450372.862 7  20326210.286    20326215.081
        47.500          44.750    20326214.535


 110628339.726 8  86044295.653 8  20666300.981    20666304.837
        51.750          49.250    20666305.007


 112820694.189 7                  21142552.992
        45.250


 131079559.634 6                  24943606.552
        36.000                                    97884113.391 6  24943606.598
        36.250   106395754.622 6  24943603.769          41.750   100437599.120 6
  24943604.361          39.000    99160856.839 6  24943605.151          40.750
 114319525.932 8  88915231.167 7  21415892.496    21415898.405
        49.250          46.750    21415898.194


 129378764.098 6 100814620.378 5  24619961.005    24619960.037    24619960.880
        37.750          31.000    24619959.844


 133789986.586 6                  25459383.306
        36.500                                    99908136.524 5  25459383.725
        35.750   108595786.746 6  25459381.138          41.000   102514427.741 6
  25459381.429          38.250   101211288.079 6  25459382.297          40.000
 122138945.052 7  94996990.055 6  22824574.071    22824577.905
        46.000          40.750    22824577.779


 19  3 26 19  1 30.0000000  0 27G08E03G23E05E02G28G09G30G27R08G16R15
                                G07E24G11E08R19R09E25R16R07R06E12R18
                                G05E11R17
 111113863.474 8  86582264.081 7  21144255.851    21144256.785    21144255.606
        49.250          46.500    21144257.742    82974674.969 8  21144256.167
        50.500

 127570542.082 8                  24275871.120
        48.500                                    95263758.310 8  24275873.955
        48.500   103547552.065 8  24275870.678          52.500    97748887.684 8
  24275871.753          51.500    96506328.570 8  24275872.648          53.000
 117229324.037 7  91347516.97945  22307998.864    22307995.640    22307998.431
        46.000          33.000


 134859891.223 7                  25662983.624
        43.750                                   100707076.647 7  25662987.278
        44.000   109464192.240 7  25662982.717          47.750   103334206.933 7
  25662984.915          46.500   102020645.870 8  25662985.882          48.250
 137331232.639 7                  26133258.796
        42.250                                   102552570.896 7  26133261.742
        42.250   111470170.642 7  26133259.856          46.500   105227843.574 7
  26133259.294          44.750   103890214.309 7  26133260.301          46.500
 121562111.674 6  94723727.11044  23132496.548    23132495.094    23132495.851
        40.750          24.500


 108066170.098 8  84207415.179 8  20564305.241    20564305.438    20564305.063
        50.500          48.500    20564305.957    80698772.148 8  20564306.085
        52.250

 116139263.883 7  90498144.690 7  22100559.379    22100559.857    22100558.995
        46.000          43.250    22100560.617    86727396.260 8  22100560.523
        48.750

 116233557.445 7  90571628.017 7  22118501.533    22118501.707    22118501.167
        46.750          43.750    22118502.454    86797814.291 7  22118501.975
        47.500

 125601300.827 7  97689938.775 6  23455158.732    23455163.660
        42.250          41.000    23455163.432


 127488721.249 6  99341864.10042  24260294.707    24260293.669    24260294.064
        36.750          16.250


 127602970.075 7  99246785.970 6  23879160.568    23879166.445
        42.250          37.500    23879166.736


 108702749.478 8  84703444.932 7  20685438.142    20685435.767    20685437.959
        51.500          46.500    20685436.282


 122723515.615 7                  23353511.997
        45.750                                    91644245.730 7  23353525.336
        45.500    99613222.869 8  23353504.365          49.500    94034958.502 8
  23353522.991          48.250    92839602.189 8  23353523.958          50.000
 130869515.714 6 101976252.63843  24903635.533    24903635.238    24903635.077
        38.750          20.000


 129740523.098 6                  24688799.213
        40.250                                    96884169.794 6  24688800.881
        40.500   105308873.264 7  24688801.065          44.750    99411572.840 7
  24688798.679          42.750    98147870.890 7  24688799.587          44.750
 122521126.118 6  95294216.079 6  22904023.706    22904027.314
        39.250          39.250    22904027.725


 111149759.711 8  86449849.052 8  20814773.110    20814777.706
        50.250          49.000    20814777.644


 120634179.059 8                  22955917.219
        49.750                                    90084003.570 8  22955919.709
        50.500    97917370.999 9  22955915.770          55.000    92434008.150 8
  22955917.493          53.250    91259013.434 9  22955918.407          55.000
 108622954.591 7  84484573.779 7  20334442.385    20334446.682
        47.500          44.250    20334446.405


 110620270.425 8  86038019.535 8  20664793.207    20664797.651
        51.500          49.250    20664797.763


 112923570.357 7                  21161831.223
        45.000


 131051274.511 6                  24938224.138
        36.500                                    97862991.417 6  24938223.977
        36.500   106372795.962 6  24938221.289          41.500   100415926.108 6
  24938222.194          39.250    99139459.338 6  24938222.705          40.750
 114273429.789 8  88879378.634 7  21407256.686    21407263.060
        49.250          46.500    21407262.823


 129376772.396 6 100813068.372 5  24619582.033    24619580.892    24619581.926
        38.000          31.500    24619582.113


 133710653.300 6                  25444286.744
        36.500                                    99848894.197 6  25444286.878
        36.000   108531392.909 6  25444284.298          40.500   102453639.947 6
  25444284.707          38.750   101151273.140 6  25444285.562          40.250
 122195034.680 7  95040615.360 6  22835055.695    22835059.873
        45.750          40.750    22835059.676


 19  3 26 19  2  0.0000000  0 27G08E03G23E05E02G28G09G30G27R08G16R15
                                G07E24G11E08R19R09E25R16R07R06E12R18
                                G05E11R17
 111096918.912 8  86569060.540 7  21141031.358    21141032.440    21141031.108
        48.750          46.000    21141033.218    82962021.577 8  21141031.773
        50.500

 127589742.075 8                  24279524.846
        48.500                                    95278095.954 8  24279527.596
        48.750   103563136.458 8  24279524.140          52.500    97763599.347 8
  24279525.488          51.250    96520853.219 8  24279526.285          53.000
 117324740.641 7  91421867.53645  22326156.150    22326152.837    22326155.721
        45.750          33.250


 134944949.100 7                  25679169.583
        44.000                                   100770593.853 7  25679173.272
        44.000   109533232.696 7  25679168.694          47.750   103399381.125 7
  25679171.034          46.000   102084991.563 8  25679171.916          48.000
 137275946.914 7                  26122738.176
        42.000                                   102511286.152 7  26122741.110
        42.500   111425295.907 7  26122739.370          46.250   105185481.825 7
  26122738.849          44.500   103848391.063 7  26122739.740          46.500
 121482828.035 6  94661947.70344  23117408.921    23117407.982    23117408.228
        40.500          24.750


 108116526.602 8  84246654.003 8  20573887.592    20573888.030    20573887.414
        50.000          48.000    20573888.589    80736376.021 8  20573888.574
        52.250

 116069726.647 7  90443959.840 7  22087327.043    22087327.288    22087326.668
        45.750          43.000    22087327.923    86675469.115 8  22087327.954
        48.750

 116281542.980 7  90609019.345 7  22127632.938    22127633.081    22127632.572
        46.500          43.250    22127633.783    86833647.642 7  22127633.295
        47.500

 125501316.912 7  97612173.512 6  23436487.212    23436491.903
        42.250          40.750    23436491.093


 127594469.529 6  99424265.31542  24280418.430    24280416.757    24280417.813
        36.500          16.500


 127689435.781 7  99314036.979 6  23895341.582    23895346.850
        43.250          36.250    23895346.689


 108674106.219 8  84681125.504 7  20679987.551    20679985.065    20679987.368
        51.250          46.000    20679985.556


 122777858.673 7                  23363853.098
        45.750                                    91684826.568 7  23363866.339
        46.000    99657332.484 8  23363845.327          49.250    94076597.986 8
  23363864.110          48.000    92880712.350 8  23363865.117          50.000
 130775631.883 6 101903096.48643  24885769.979    24885769.407    24885769.537
        38.500          20.250


 129683210.890 6                  24677893.046
        40.250                                    96841371.713 6  24677894.852
        40.750   105262353.610 7  24677894.781          44.750    99367658.279 7
  24677892.399          42.500    98104514.574 7  24677893.357          44.750
 122399805.606 6  95199855.784 6  22881342.768    22881347.673
        39.250          38.250    22881347.968


 111099641.381 8  86410868.134 8  20805387.737    20805392.025
        50.500          49.000    20805391.931


 120632733.108 8                  22955642.008
        49.750                                    90082923.803 8  22955644.579
        50.750    97916197.334 9  22955640.608          55.000    92432900.212 8
  22955642.318          53.000    91257919.582 9  22955643.259          55.000
 108667126.576 7  84518929.757 7  20342711.220    20342715.888
        47.750          44.250    20342715.352


 110613024.385 8  86032383.710 8  20663439.618    20663444.049
        51.500          49.500    20663443.794


 113026909.945 7                  21181197.264
        44.500


 131023376.690 6                  24932915.292
        36.250                                    97842158.637 6  24932915.422
        36.750   106350151.622 6  24932912.287          41.500   100394549.868 6
  24932913.546          39.000    99118354.832 6  24932913.958          41.000
 114228064.125 8  88844094.233 7  21398758.441    21398764.315
        49.500          46.250    21398764.118


 129375303.772 6 100811923.971 5  24619301.813    24619301.893    24619301.697
        37.000          31.000    24619302.519


 133631409.028 5                  25429206.742
        35.750                                    99789718.340 5  25429207.059
        35.750   108467071.304 6  25429204.551          40.500   102392920.375 6
  25429205.188          38.500   101091325.429 6  25429205.860          40.250
 122251823.050 7  95084784.075 6  22845668.298    22845672.029
        45.500          41.000    22845671.810


 19  3 26 19  2 30.0000000  0 27G08E03G23E05E02G28G09G30G27R08G16R15
                                G07E24G11E08R19R09E25R16R07R06E12R18
                                G05E11R17
 111080588.251 8  86556335.361 7  21137923.905    21137924.647    21137923.655
        49.250          46.500    21137925.680    82949826.606 8  21137924.123
        50.500

 127609358.256 8                  24283257.550
        48.500                                    95292744.378 8  24283260.497
        48.500   103579058.675 8  24283256.969          52.500    97778629.914 8
  24283258.357          51.000    96535692.720 8  24283259.127          53.000
 117420467.259 7  91496459.66245  22344372.440    22344368.974    22344372.016
        46.000          33.750


 135030169.368 7                  25695386.557
        44.000                                   100834232.309 7  25695390.157
        43.500   109602404.946 7  25695385.730          47.750   103464679.728 7
  25695387.959          45.750   102149460.092 7  25695388.845          47.750
 137220773.112 7                  26112239.048
        42.500                                   102470084.963 7  26112242.052
        42.000   111380511.994 7  26112240.117          46.250   105143205.818 7
  26112239.662          44.750   103806652.464 7  26112240.464          46.500
 121403795.421 6  94600363.90344  23102369.888    23102368.430    23102369.204
        41.000          26.250


 108167405.874 8  84286300.166 8  20583569.803    20583570.048    20583569.625
        50.500          48.500    20583570.567    80774370.255 8  20583570.606
        52.000

 116000317.139 7  90389874.525 7  22074118.460    22074119.170    22074118.076
        45.750          43.500    22074119.939    86623637.363 8  22074119.697
        48.750

 116330103.353 7  90646858.578 7  22136873.567    22136873.746    22136873.196
        46.750          43.750    22136874.560    86869910.246 7  22136873.991
        47.500

 125401795.047 7  97534767.669 6  23417901.658    23417907.270
        42.750          41.000    23417906.886


 127700222.000 6  99506669.79843  24300542.426    24300540.695    24300541.765
        37.250          18.000


 127775882.480 7  99381273.285 5  23911518.427    23911524.130
        44.000          35.000    23911524.801


 108645699.876 8  84658990.695 7  20674581.976    20674579.570    20674581.793
        51.750          46.500    20674580.062


 122832247.528 7                  23374203.004
        45.750                                    91725441.611 7  23374216.164
        45.500    99701479.267 8  23374195.273          49.250    94118272.545 7
  23374214.006          47.750    92921857.151 8  23374214.978          49.750
 130681711.553 6 101829911.88843  24867897.561    24867896.358    24867897.132
        39.000          21.250


 129626208.890 6                  24667045.971
        40.250                                    96798805.303 6  24667047.576
        40.250   105216085.781 7  24667047.947          45.000    99323981.442 7
  24667045.615          42.500    98061392.946 7  24667046.211          44.500
 122278650.364 6  95105624.034 6  22858694.393    22858698.466
        40.000          38.000    22858698.667


 111049735.212 8  86372052.240 8  20796041.844    20796046.154
        50.750          49.250    20796046.333


 120631442.480 8                  22955396.341
        49.750                                    90081960.018 8  22955399.015
        50.250    97915149.740 9  22955395.013          55.000    92431911.284 8
  22955396.750          52.750    91256943.224 9  22955397.650          54.750
 108711495.207 7  84553438.685 7  20351017.142    20351021.828
        47.250          44.500    20351020.938


 110606599.242 8  86027386.359 8  20662239.495    20662243.720
        51.500          49.500    20662243.523


 113130706.466 7                  21200649.139
        45.000


 130995865.202 6                  24927679.705
        36.250                                    97821614.348 6  24927679.830
        36.500   106327820.876 6  24927677.228          41.750   100373469.646 6
  24927677.919          38.500    99097542.574 6  24927678.675          40.500
 114183429.672 8  88809378.563 7  21390396.921    21390402.942
        49.500          46.750    21390403.014


 129374355.740 6 100811185.218 5  24619121.413    24619121.319    24619121.306
        37.500          31.250    24619121.225


 133552253.940 6                  25414144.238
        36.000                                    99730609.070 6  25414144.470
        36.250   108402822.080 6  25414141.635          40.000   102332269.113 6
  25414142.473          38.750   101031445.162 6  25414143.176          40.500
 122309305.822 7  95129492.889 6  22856409.487    22856413.709
        44.750          41.000    22856413.853


 19  3 26 19  3  0.0000000  0 27G08E03G23E05E02G28G09G30G27R08G16R15
                                G07E24G11E08R19R09E25R16R07R06E12R18
                                G05E11R17
 111064874.763 8  86544091.110 7  21134933.721    21134934.383    21134933.471
        49.000          46.500    21134935.398    82938092.542 8  21134933.881
        50.500

 127629392.852 8                  24287070.139
        48.250                                    95307705.294 8  24287072.961
        48.250   103595320.539 8  24287069.478          52.500    97793981.109 8
  24287070.803          51.000    96550848.774 8  24287071.600          52.750
 117516504.164 7  91571293.56545  22362647.625    22362644.244    22362647.192
        45.750          34.000


 135115552.894 7                  25711634.443
        43.500                                   100897992.709 7  25711638.213
        43.250   109671709.736 7  25711633.701          47.500   103530103.438 7
  25711635.948          45.750   102214052.148 7  25711636.803          47.500
 137165713.681 7                  26101761.642
        42.250                                   102428969.222 6  26101764.415
        41.750   111335820.939 7  26101762.278          45.750   105101017.484 7
  26101762.181          44.750   103765000.434 7  26101763.036          46.250
 121325016.641 6  94538977.89744  23087378.196    23087377.185    23087377.503
        40.500          26.250


 108218809.255 8  84326354.761 8  20593351.525    20593351.780    20593351.347
        50.250          48.250    20593352.392    80812755.888 8  20593352.423
        52.000

 115931038.958 7  90335891.552 7  22060935.110    22060935.973    22060934.726
        45.500          43.500    22060936.621    86571903.691 8  22060936.500
        48.750

 116379239.327 7  90685146.379 7  22146223.886    22146224.037    22146223.520
        46.500          43.500    22146224.614    86906602.709 7  22146224.394
        47.250

 125302741.700 7  97457726.255 6  23399404.974    23399409.983
        42.000          40.250    23399409.924


 127805979.534 6  99589078.24043  24320667.420    24320665.461    24320666.727
        37.250          18.750


 127862312.860 7  99448496.948 5  23927692.425    23927698.888
        44.000          34.500    23927698.213


 108617533.518 8  84637042.911 7  20669222.168    20669219.775    20669221.985
        51.250          46.750    20669220.303


 122886684.327 7                  23384562.063
        45.500                                    91766092.491 7  23384575.139
        45.250    99745665.005 8  23384554.301          49.000    94159983.880 7
  23384573.070          47.750    92963038.259 8  23384573.952          49.500
 130587759.702 6 101756702.72643  24850018.964    24850017.998    24850018.544
        39.000          21.250


 129569521.293 6                  24656258.869
        40.250                                    96756473.666 6  24656260.215
        40.000   105170073.148 7  24656260.676          45.000    99280545.510 7
  24656258.017          42.500    98018509.160 7  24656259.002          44.250
 122157667.469 6  95011526.302 6  22836077.574    22836082.081
        40.750          37.000    22836081.554


 111000043.941 8  86333403.492 8  20786736.438    20786740.596
        50.500          48.750    20786740.332


 120630309.224 8                  22955180.737
        49.500                                    90081113.784 8  22955183.389
        50.000    97914229.906 9  22955179.436          54.750    92431042.975 8
  22955181.141          52.750    91256085.953 9  22955181.997          54.500
 108756062.445 7  84588102.101 7  20359360.157    20359364.838
        47.250          44.000    20359364.454


 110600998.094 8  86023029.929 8  20661193.183    20661197.283
        51.250          49.250    20661197.292


 113234958.130 7                  21220185.719
        45.000


 130968743.826 5                  24922518.790
        35.750                                    97801361.385 6  24922519.054
        36.500   106305806.796 6  24922516.403          41.750   100352688.343 6
  24922516.816          38.500    99077025.430 6  24922517.640          40.500
 114139531.793 8  88775235.809 7  21382173.051    21382179.292
        49.250          46.250    21382179.417


 129373930.474 6 100810853.873 5  24619041.191    24619040.399    24619041.102
        37.500          30.750    24619039.219


 133473192.735 5                  25399099.191
        35.250                                    99671569.913 6  25399099.423
        36.000   108338649.098 6  25399096.790          39.500   102271689.839 6
  25399097.619          38.500   100971635.950 6  25399098.273          40.250
 122367483.150 7  95174741.936 6  22867281.909    22867285.586
        44.500          40.750    22867285.220


 19  3 26 19  3 30.0000000  0 28R10G08E03G23E05E02G28G09G30G27R08G16
                                R15G07E24G11E08R19R09E25R16R07R06E12
                                R18G05E11R17
 128825672.436 5                  24167367.888
        33.500


 111049778.197 8  86532327.538 7  21132060.839    21132061.769    21132060.589
        49.000          46.500    21132062.745    82926819.118 8  21132061.113
        50.500

 127649844.573 8                  24290961.967
        48.000                                    95322977.649 8  24290964.762
        48.500   103611920.924 8  24290961.412          52.500    97809651.873 8
  24290962.580          51.000    96566320.391 8  24290963.436          52.750
 117612848.062 7  91646366.68245  22380981.453    22380977.893    22380981.020
        45.750          33.000


 135201097.004 7                  25727913.038
        43.250                                   100961872.986 7  25727916.728
        43.500   109741144.841 7  25727912.156          47.500   103595650.160 7
  25727914.619          45.750   102278765.703 7  25727915.322          47.750
 137110767.528 6                  26091305.501
        41.750                                   102387938.021 7  26091308.474
        42.500   111291221.798 7  26091306.464          46.250   105058915.906 7
  26091306.243          45.000   103723434.053 7  26091307.099          46.750
 121246491.563 6  94477789.58044  23072435.812    23072434.187    23072435.124
        41.250          25.500


 108270734.492 8  84366815.943 8  20603232.572    20603232.862    20603232.389
        50.250          48.250    20603233.363    80851531.207 8  20603233.398
        51.750

 115861892.180 7  90282010.928 7  22047777.086    22047777.771    22047776.706
        45.500          43.500    22047778.426    86520268.100 8  22047778.249
        48.500

 116428948.172 7  90723880.528 7  22155683.050    22155683.381    22155682.684
        46.250          43.500    22155684.347    86943722.929 7  22155683.614
        47.250

 125204159.750 7  97381051.378 6  23380995.424    23380999.869
        42.250          40.500    23380999.356


 127911739.731 6  99671488.74343  24340792.968    24340790.856    24340792.293
        37.500          18.250


 127948726.083 7  99515707.226 5  23943864.329    23943869.555
        44.500          34.500    23943870.210


 108589608.067 8  84615282.795 7  20663908.151    20663905.758    20663907.968
        51.250          46.500    20663906.219


 122941167.735 7                  23394929.914
        45.000                                    91806778.124 7  23394943.176
        45.500    99789888.532 8  23394922.086          49.250    94201730.880 7
  23394941.030          47.750    93004254.530 8  23394941.783          49.750
 130493778.254 6 101683470.47643  24832134.712    24832133.930    24832134.301
        38.750          20.250


 129513148.666 6                  24645531.495
        39.750                                    96714377.245 6  24645532.925
        40.500   105124316.161 7  24645533.109          45.250    99237350.920 7
  24645530.786          42.750    97975863.666 7  24645531.654          44.500
 122036860.723 6  94917565.520 6  22813494.524    22813498.463
        41.250          37.750    22813498.898


 110950566.106 8  86294920.717 8  20777470.976    20777475.014
        50.750          49.250    20777474.822


 120629331.928 8                  22954994.735
        49.250                                    90080383.973 8  22954997.370
        50.500    97913436.643 9  22954993.399          55.000    92430294.115 8
  22954995.160          52.750    91255346.742 9  22954996.026          54.750
 108800826.777 7  84622918.768 7  20367740.108    20367744.860
        47.250          44.250    20367744.294


 110596220.257 8  86019313.800 8  20660300.844    20660304.788
        51.250          49.500    20660304.576


 113339659.284 7                  21239806.667
        44.750


 130942012.803 5                  24917432.036
        35.500                                    97781399.874 6  24917432.150
        36.750   106284109.485 6  24917429.537          41.750   100332206.118 6
  24917430.433          39.000    99056803.574 6  24917430.883          41.000
 114096372.387 8  88741667.382 7  21374088.079    21374094.017
        49.500          46.500    21374093.923


 129374026.345 6 100810928.404 5  24619059.212    24619058.542    24619059.172
        36.750          30.750    24619059.129


 133394226.831 5                  25384072.320
        34.750                                    99612601.900 6  25384072.718
        36.750   108274553.377 6  25384069.939          39.000   102211183.503 6
  25384070.703          38.500   100911898.664 6  25384071.528          40.750
 122426351.771 7  95220528.565 7  22878282.214    22878287.107
        44.250          42.000    22878286.937


 19  3 26 19  4  0.0000000  0 28R10G08E03G23E05E02G28G09G30G27R08G16
                                R15G07E24G11E08R19R09E25R16R07R06E12
                                R18G05E11R17
 128741421.738 6 100132242.254 6  24151562.392    24151570.301
        36.750          36.000    24151571.648


 111035300.316 8  86521046.094 7  21129305.935    21129306.712    21129305.685
        49.250          46.500    21129307.636    82916007.727 8  21129306.149
        50.750

 127670714.172 8                  24294933.310
        48.250                                    95338562.073 8  24294936.139
        48.500   103628860.529 8  24294932.753          52.750    97825642.861 8
  24294933.942          51.250    96582108.096 8  24294934.805          53.000
 117709498.171 7  91721678.41545  22399373.255    22399369.918    22399372.822
        45.750          33.000


 135286801.248 7                  25744221.992
        43.500                                   101025872.857 7  25744225.969
        44.000   109810709.944 7  25744221.122          47.750   103661319.618 7
  25744223.463          46.000   102343600.366 8  25744224.334          48.000
 137055935.711 7                  26080871.397
        42.250                                   102346992.233 7  26080874.356
        42.750   111246715.502 7  26080872.391          46.250   105016901.968 7
  26080872.048          45.500   103681954.188 7  26080872.940          47.250
 121168222.601 7  94416800.82444  23057541.749    23057540.356    23057541.061
        42.000          26.000


 108323181.473 8  84407683.710 8  20613212.914    20613213.195    20613212.731
        50.500          48.250    20613213.719    80890696.148 8  20613213.773
        52.000

 115792878.989 7  90228234.459 7  22034644.300    22034644.965    22034643.925
        46.000          43.750    22034645.677    86468732.314 8  22034645.449
        49.000

 116479229.304 7  90763060.600 7  22165251.237    22165251.647    22165250.871
        46.500          43.750    22165252.379    86981270.532 7  22165251.760
        47.500

 125106054.273 6  97304747.197 6  23362674.664    23362679.227
        41.250          40.000    23362678.774


 128017502.065 6  99753900.91043  24360918.714    24360917.147    24360918.030
        38.250          20.000


 128035123.168 7  99582904.883 6  23960032.972    23960038.371
        45.500          36.000    23960037.573


 108561925.402 8  84593711.888 7  20658640.111    20658637.834    20658639.928
        51.500          46.750    20658638.381


 122995698.548 7                  23405306.702
        45.250                                    91847499.178 7  23405320.127
        45.750    99834150.539 8  23405299.022          49.500    94243514.224 8
  23405317.925          48.250    93045506.727 8  23405318.668          50.000
 130399771.416 6 101610218.48843  24814245.711    24814245.063    24814245.300
        38.500          20.000


 129457093.801 6                  24634864.556
        40.250                                    96672518.099 6  24634866.297
        40.500   105078817.064 7  24634866.140          45.500    99194399.770 7
  24634863.909          43.000    97933458.512 7  24634864.747          45.000
 121916235.916 6  94823746.311 6  22790944.731    22790948.943
        41.500          38.250    22790949.162


 110901303.070 8  86256605.037 8  20768245.189    20768249.478
        51.000          49.250    20768249.263


 120628511.279 8                  22954838.647
        49.750                                    90079771.145 8  22954841.193
        50.500    97912770.525 9  22954837.226          55.250    92429665.308 8
  22954838.954          53.250    91254725.925 9  22954839.868          55.000
 108845788.778 7  84657889.204 7  20376157.116    20376161.932
        47.750          44.500    20376161.215


 110592266.748 8  86016238.832 8  20659561.873    20659566.243
        51.500          49.750    20659566.270


 113444807.631 7                  21259511.234
        45.000


 130915674.414 6                  24912420.235
        36.000                                    97761731.679 6  24912420.182
        37.000   106262730.990 7  24912417.461          42.000   100312024.790 6
  24912418.292          39.500    99036878.804 6  24912418.910          41.250
 114053955.420 8  88708676.411 7  21366141.807    21366148.074
        50.000          46.750    21366147.901


 129374644.012 6 100811409.761 5  24619176.579    24619175.997    24619176.583
        36.750          31.000    24619176.293


 133315359.421 5                  25369064.334
        34.750                                    99553707.518 6  25369064.952
        37.000   108210537.715 6  25369062.031          39.000   102150752.713 6
  25369062.849          39.000   100852236.070 6  25369063.536          41.000
 122485910.386 7  95266851.904 7  22889412.383    22889417.009
        44.250          42.250    22889416.745


 19  3 26 19  4 30.0000000  0 28R10G08E03G23E05E02G28G09G30G27R08G16
                                R15G07E24G11E08R19R09E25R16R07R06E12
                                R18G05E11R17
 128657227.849 5 100066758.253 6  24135766.270    24135775.459
        35.750          36.250    24135775.379


 111021438.025 8  86510244.311 7  21126667.897    21126668.657    21126667.643
        49.250          46.500    21126669.520    82905656.025 8  21126668.102
        50.750

 127691997.659 8                  24298983.480
        48.250                                    95354455.562 8  24298986.243
        48.500   103646136.070 8  24298982.796          52.500    97841950.964 8
  24298984.103          51.250    96598208.837 8  24298984.923          53.000
 117806448.379 7  91797223.98145  22417822.377    22417818.946    22417821.944
        46.000          33.000


 135372660.243 7                  25760560.340
        43.250                                   101089988.318 7  25760564.347
        43.750   109880400.664 7  25760559.540          47.250   103727107.643 7
  25760561.858          45.750   102408552.054 7  25760562.821          47.750
 137001214.406 7                  26070458.264
        42.500                                   102306128.961 7  26070461.180
        42.750   111202298.883 7  26070459.311          46.250   104974972.700 7
  26070458.888          45.500   103640557.905 7  26070459.761          47.000
 121090206.410 6  94356009.02844  23042695.101    23042694.474    23042694.422
        41.250          26.250


 108376145.254 8  84448954.177 8  20623291.612    20623291.880    20623291.434
        50.500          48.500    20623292.340    80930247.007 8  20623292.509
        52.250

 115723996.732 7  90174559.993 7  22021536.302    22021537.008    22021535.922
        46.000          43.750    22021537.746    86417294.291 8  22021537.539
        49.000

 116530077.216 7  90802682.363 7  22174927.175    22174927.626    22174926.813
        46.500          43.750    22174928.292    87019241.373 7  22174927.759
        47.250

 125008425.512 6  97228813.725 6  23344443.410    23344448.195
        41.250          40.250    23344447.318


 128123261.074 6  99836310.48143  24381044.392    24381043.108    24381043.735
        38.750          20.750


 128121500.511 7  99650087.229 6  23976197.181    23976202.580
        45.000          36.500    23976202.964


 108534483.217 8  84572328.375 7  20653418.135    20653415.706    20653417.952
        51.750          47.000    20653415.921


 123050272.695 7                  23415691.838
        45.250                                    91888252.577 7  23415705.204
        45.250    99878447.728 8  23415684.205          49.250    94285330.765 8
  23415702.862          48.000    93086791.745 8  23415703.780          49.750
 130305738.232 6 101536945.94343  24796351.688    24796350.954    24796351.295
        38.250          19.500


 129401354.474 6                  24624257.639
        40.250                                    96630894.562 6  24624259.245
        40.500   105033574.109 7  24624259.164          45.250    99151690.422 7
  24624256.850          42.750    97891292.066 7  24624257.906          44.750
 121795794.237 6  94730069.494 6  22768429.791    22768433.730
        41.500          39.250    22768433.466


 110852251.141 8  86218453.550 8  20759059.330    20759063.528
        50.750          49.500    20759063.287


 120627843.119 8                  22954711.454
        49.500                                    90079272.196 8  22954714.012
        50.250    97912228.194 9  22954710.126          55.000    92429153.349 8
  22954711.836          53.000    91254220.346 9  22954712.705          54.750
 108890944.086 7  84693009.988 7  20384610.332    20384614.942
        47.500          44.250    20384614.383


 110589134.272 8  86013802.441 8  20658977.007    20658981.219
        51.500          49.500    20658981.178


 113550394.609 7                  21279297.863
        44.750


 130889726.215 5                  24907481.993
        35.500                                    97742354.756 6  24907482.542
        36.750   106241669.142 6  24907479.533          41.750   100292142.407 6
  24907480.331          39.250    99017249.155 6  24907481.119          41.000
 114012279.827 8  88676262.081 7  21358334.810    21358340.684
        50.000          46.750    21358340.509


 129375779.154 6 100812294.307 5  24619393.235    24619392.211    24619393.270
        37.500          30.500    24619392.296


 133236589.287 5                  25354075.144
        34.750                                    99494885.673 6  25354075.207
        37.000   108146600.890 6  25354072.207          38.750   102090396.417 6
  25354073.241          39.000   100792647.118 6  25354074.052          41.000
 122546152.909 7  95313707.174 7  22900670.465    22900674.876
        44.000          43.000    22900674.840


 19  3 26 19  5  0.0000000  0 28R10G08E03G23E05E02G28G09G30G27R08G16
                                R15G07E24G11E08R19R09E25R16R07R06E12
                                R18G05E11R17
 128573093.744 5 100001320.650 6  24119980.854    24119992.400
        35.000          36.000    24119992.158


 111008194.536 8  86499924.734 7  21124147.812    21124148.460    21124147.558
        49.250          46.250    21124149.475    82895766.432 8  21124147.936
        50.500

 127713697.346 8                  24303112.693
        48.000                                    95370659.882 8  24303115.586
        48.500   103663749.456 8  24303112.108          52.250    97858577.997 8
  24303113.482          50.750    96614624.512 8  24303114.257          52.750
 117903699.236 7  91873003.82445  22436328.599    22436325.173    22436328.166
        45.500          32.250


 135458675.124 7                  25776928.505
        43.000                                   101154220.173 7  25776932.486
        44.000   109950217.905 7  25776927.621          47.000   103793015.116 7
  25776930.055          45.250   102473621.719 7  25776930.995          47.500
 136946606.266 7                  26060066.703
        42.250                                   102265350.220 7  26060069.524
        43.000   111157974.139 7  26060067.485          46.000   104933130.152 7
  26060067.165          45.000   103599247.259 7  26060068.137          47.000
 121012446.665 6  94295417.07644  23027898.324    23027897.166    23027897.654
        41.750          25.750


 108429627.274 8  84490628.473 8  20633468.851    20633469.168    20633468.673
        50.250          48.250    20633469.633    80970184.873 8  20633469.722
        52.000

 115655249.291 7  90120990.584 7  22008453.990    22008454.746    22008453.610
        45.500          43.500    22008455.613    86365956.944 8  22008455.304
        49.000

 116581492.830 7  90842746.494 7  22184711.497    22184711.586    22184711.131
        46.250          43.250    22184712.351    87057636.159 7  22184711.759
        47.000

 124911280.227 6  97153256.331 6  23326301.255    23326306.228
        40.500          39.000    23326306.953


 128229017.857 6  99918718.32043  24401169.329    24401167.956    24401168.712
        38.500          20.750


 128207861.022 7  99717256.475 6  23992357.699    23992363.893
        44.000          37.000    23992364.984


 108507285.447 8  84551135.318 7  20648242.573    20648240.198    20648242.390
        51.500          46.750    20648240.788


 123104892.582 7                  23426085.742
        45.000                                    91929040.162 7  23426099.014
        45.500    99922782.052 8  23426077.948          49.000    94327182.371 7
  23426096.690          47.500    93128111.340 8  23426097.617          49.500
 130211684.437 6 101463657.35243  24778453.824    24778452.661    24778453.409
        38.000          18.500


 129345935.035 6                  24613711.650
        40.000                                    96589509.949 6  24613713.550
        40.500   104988590.819 7  24613713.371          45.000    99109226.198 7
  24613711.003          42.750    97849367.648 7  24613711.818          44.750
 121675543.099 6  94636540.920 6  22745949.645    22745954.192
        40.750          39.750    22745953.973


 110803413.098 8  86180468.426 8  20749913.830    20749917.930
        50.750          49.250    20749917.988


 120627329.727 8                  22954613.809
        49.250                                    90078888.838 8  22954616.264
        50.500    97911811.494 9  22954612.352          54.750    92428759.986 8
  22954614.182          52.750    91253831.986 9  22954615.002          54.750
 108936294.999 7  84728282.926 7  20393099.910    20393104.730
        47.250          44.250    20393104.270


 110586825.614 8  86012006.813 8  20658545.750    20658549.904
        51.250          49.250    20658549.859


 113656418.847 7                  21299167.009
        44.500


 130864172.116 5                  24902619.359
        35.500                                    97723272.150 6  24902619.976
        37.000   106220927.187 6  24902616.640          41.500   100272562.007 6
  24902617.568          39.000    98997917.653 6  24902618.267          41.000
 113971351.166 8  88644428.690 7  21350667.104    21350673.175
        49.250          46.250    21350673.005


 129377434.134 6 100813583.891 5  24619707.028    24619706.969    24619707.072
        36.000          31.000    24619708.127


 133157921.185 5                  25339104.883
        34.250                                    99436140.115 6  25339105.093
        37.000   108082746.999 6  25339102.271          38.500   102030118.345 6
  25339103.293          38.500   100733135.303 6  25339103.987          40.750
 122607079.951 7  95361094.830 7  22912056.375    22912060.611
        43.750          43.250    22912060.285


 19  3 26 19  5 30.0000000  0 28R10G08E03G23E05E02G28G09G30G27R08G16
                                R15G07E24G11E08R19R09E25R16R07R06E12
                                R18G05E11R17
 128489019.939 6  99935929.985 5  24104213.859    24104219.816
        39.000          35.500    24104221.113


 110995571.257 8  86490088.422 7  21121745.584    21121746.420    21121745.330
        49.250          46.500    21121747.386    82886339.971 8  21121745.873
        50.750

 127735813.554 8                  24307321.352
        48.000                                    95387175.212 8  24307324.205
        48.500   103681700.911 8  24307320.740          52.500    97875524.171 8
  24307322.066          51.000    96631355.265 8  24307322.836          52.750
 118001248.960 7  91949016.54845  22454891.780    22454888.287    22454891.342
        45.750          32.250


 135544844.859 7                  25793326.017
        42.500                                   101218567.642 7  25793330.118
        43.750   110020160.840 7  25793325.365          47.000   103859041.231 7
  25793327.670          45.500   102538808.511 7  25793328.628          47.750
 136892111.857 6                  26049696.702
        41.750                                   102224656.393 7  26049699.536
        42.750   111113741.704 7  26049697.999          46.250   104891374.741 7
  26049697.379          45.500   103558022.641 7  26049698.185          47.250
 120934944.869 6  94235026.11744  23013149.938    23013148.896    23013149.277
        41.750          25.750


 108483626.860 8  84532706.058 8  20643744.728    20643744.925    20643744.550
        50.250          48.250    20643745.524    81010509.229 8  20643745.483
        52.000

 115586638.361 7  90067527.541 7  21995397.729    21995398.583    21995397.345
        46.000          43.500    21995399.267    86314721.532 8  21995399.029
        48.750

 116633474.990 7  90883252.080 7  22194603.409    22194603.422    22194603.038
        46.500          43.500    22194604.075    87096454.003 7  22194603.770
        47.250

 124814622.412 6  97078079.076 6  23308252.418    23308255.910
        41.500          39.000    23308256.286


 128334771.871 6 100001123.99243  24421293.836    24421292.284    24421293.215
        38.750          20.500


 128294205.421 7  99784413.178 6  24008515.791    24008521.583
        43.500          37.500    24008521.029


 108480333.735 8  84530133.986 7  20643113.805    20643111.551    20643113.622
        51.500          46.750    20643112.097


 123159558.514 7                  23436488.408
        44.750                                    91969862.115 7  23436501.582
        45.500    99967153.747 8  23436480.436          48.750    94369069.245 7
  23436499.205          47.750    93169465.755 8  23436500.217          49.500
 130117613.264 6 101390355.21442  24760553.007    24760551.625    24760552.583
        37.500          17.750


 129290837.707 6                  24603226.817
        40.000                                    96548365.867 6  24603228.337
        40.250   104943868.978 7  24603228.753          45.250    99067008.785 7
  24603226.524          43.250    97807686.900 7  24603227.151          44.750
 121555488.042 6  94543164.873 6  22723507.618    22723510.787
        41.000          39.250    22723511.073


 110754789.580 8  86142650.180 8  20740807.782    20740812.303
        50.750          49.000    20740812.115


 120626971.339 8                  22954545.603
        49.000                                    90078621.214 8  22954548.081
        50.250    97911520.598 9  22954544.222          54.750    92428485.377 8
